{"type":"FeatureCollection","crs":{"type":"name","properties":{"name":"EPSG:4326"}},"features":[{"type":"Feature","geometry":{"type":"Point","coordinates":[2.378821,48.89379]},"properties":{"nom_voie":"ALL DES EIDERS","code_postal":"75019","arrondissement":19,"code_iris":"751197406","prix_m2_median":6323.529411764706,"revenu_median_uc":19230.0,"nb_logements_sociaux":222,"nb_transactions":5,"c1_effort":0.3288366828790799,"c2_logsoc":1.0044843049327354,"itr_brut":0.33031128683817895,"itr_score":68.7,"itr_label":"Tendu"}},{"type":"Feature","geometry":{"type":"Point","coordinates":[2.377905,48.875572]},"properties":{"nom_voie":"ALL LOUISE LABE","code_postal":"75019","arrondissement":19,"code_iris":"751197607","prix_m2_median":9000.0,"revenu_median_uc":36600.0,"nb_logements_sociaux":83,"nb_transactions":5,"c1_effort":0.2459016393442623,"c2_logsoc":1.0119047619047619,"itr_brut":0.24882903981264637,"itr_score":21.4,"itr_label":"Accessible"}},{"type":"Feature","geometry":{"type":"Point","coordinates":[2.269651,48.854016]},"properties":{"nom_voie":"AV ADRIEN HEBRARD","code_postal":"75016","arrondissement":16,"code_iris":"751166125","prix_m2_median":12991.216216216217,"revenu_median_uc":57170.0,"nb_logements_sociaux":13,"nb_transactions":3,"c1_effort":0.2272383455696382,"c2_logsoc":1.0714285714285714,"itr_brut":0.2434696559674695,"itr_score":18.9,"itr_label":"Tres accessible"}},{"type":"Feature","geometry":{"type":"Point","coordinates":[2.303348,48.859357]},"properties":{"nom_voie":"AV BOSQUET","code_postal":"75007","arrondissement":7,"code_iris":"751072811","prix_m2_median":16940.942622950817,"revenu_median_uc":66870.0,"nb_logements_sociaux":0,"nb_transactions":10,"c1_effort":0.2533414479280816,"c2_logsoc":2.0,"itr_brut":0.5066828958561632,"itr_score":94.1,"itr_label":"Tres tendu"}},{"type":"Feature","geometry":{"type":"Point","coordinates":[2.293389,48.8762]},"properties":{"nom_voie":"AV CARNOT","code_postal":"75017","arrondissement":17,"code_iris":"751176501","prix_m2_median":10833.333333333334,"revenu_median_uc":47010.0,"nb_logements_sociaux":29,"nb_transactions":3,"c1_effort":0.2304474225342126,"c2_logsoc":1.0333333333333334,"itr_brut":0.23812900328535305,"itr_score":16.6,"itr_label":"Tres accessible"}},{"type":"Feature","geometry":{"type":"Point","coordinates":[2.297643,48.853876]},"properties":{"nom_voie":"AV CHARLES FLOQUET","code_postal":"75007","arrondissement":7,"code_iris":"751072807","prix_m2_median":17527.472527472528,"revenu_median_uc":74290.0,"nb_logements_sociaux":8,"nb_transactions":5,"c1_effort":0.2359331340351666,"c2_logsoc":1.1111111111111112,"itr_brut":0.26214792670574066,"itr_score":30.9,"itr_label":"Accessible"}},{"type":"Feature","geometry":{"type":"Point","coordinates":[2.370446,48.875678]},"properties":{"nom_voie":"AV CLAUDE VELLEFAUX","code_postal":"75010","arrondissement":10,"code_iris":"751104006","prix_m2_median":9041.137123745819,"revenu_median_uc":27960.0,"nb_logements_sociaux":173,"nb_transactions":8,"c1_effort":0.32335969684355576,"c2_logsoc":1.0057471264367817,"itr_brut":0.32521808590587503,"itr_score":66.7,"itr_label":"Tendu"}},{"type":"Feature","geometry":{"type":"Point","coordinates":[2.284919,48.864436]},"properties":{"nom_voie":"AV D EYLAU","code_postal":"75016","arrondissement":16,"code_iris":"751166301","prix_m2_median":15671.641791044776,"revenu_median_uc":46950.0,"nb_logements_sociaux":223,"nb_transactions":5,"c1_effort":0.33379428734919653,"c2_logsoc":1.0044642857142858,"itr_brut":0.33528444041771976,"itr_score":70.3,"itr_label":"Tendu"}},{"type":"Feature","geometry":{"type":"Point","coordinates":[2.357611,48.825396]},"properties":{"nom_voie":"AV D ITALIE","code_postal":"75013","arrondissement":13,"code_iris":"751135103","prix_m2_median":7600.0,"revenu_median_uc":23340.0,"nb_logements_sociaux":124,"nb_transactions":27,"c1_effort":0.32562125107112255,"c2_logsoc":1.008,"itr_brut":0.3282262210796915,"itr_score":67.8,"itr_label":"Tendu"}},{"type":"Feature","geometry":{"type":"Point","coordinates":[2.362455,48.824808]},"properties":{"nom_voie":"AV D IVRY","code_postal":"75013","arrondissement":13,"code_iris":"751135005","prix_m2_median":8333.333333333334,"revenu_median_uc":23210.0,"nb_logements_sociaux":75,"nb_transactions":5,"c1_effort":0.359040643400833,"c2_logsoc":1.013157894736842,"itr_brut":0.36376486239294925,"itr_score":78.5,"itr_label":"Tendu"}},{"type":"Feature","geometry":{"type":"Point","coordinates":[2.392314,48.840482]},"properties":{"nom_voie":"AV DAUMESNIL","code_postal":"75012","arrondissement":12,"code_iris":"751124606","prix_m2_median":8541.666666666666,"revenu_median_uc":26100.0,"nb_logements_sociaux":3,"nb_transactions":21,"c1_effort":0.3272669220945083,"c2_logsoc":1.25,"itr_brut":0.4090836526181354,"itr_score":86.5,"itr_label":"Tres tendu"}},{"type":"Feature","geometry":{"type":"Point","coordinates":[2.396545,48.850589]},"properties":{"nom_voie":"AV DE BOUVINES","code_postal":"75011","arrondissement":11,"code_iris":"751114401","prix_m2_median":7500.0,"revenu_median_uc":39790.0,"nb_logements_sociaux":54,"nb_transactions":3,"c1_effort":0.18848957024377985,"c2_logsoc":1.018181818181818,"itr_brut":0.19191665333912128,"itr_score":2.9,"itr_label":"Tres accessible"}},{"type":"Feature","geometry":{"type":"Point","coordinates":[2.360223,48.826026]},"properties":{"nom_voie":"AV DE CHOISY","code_postal":"75013","arrondissement":13,"code_iris":"751135005","prix_m2_median":7317.073170731707,"revenu_median_uc":23210.0,"nb_logements_sociaux":75,"nb_transactions":17,"c1_effort":0.31525519908365823,"c2_logsoc":1.013157894736842,"itr_brut":0.3194032938084432,"itr_score":64.0,"itr_label":"Tendu"}},{"type":"Feature","geometry":{"type":"Point","coordinates":[2.321396,48.889649]},"properties":{"nom_voie":"AV DE CLICHY","code_postal":"75017","arrondissement":17,"code_iris":"751176801","prix_m2_median":9057.649667405763,"revenu_median_uc":25910.0,"nb_logements_sociaux":58,"nb_transactions":20,"c1_effort":0.34958122992689167,"c2_logsoc":1.0169491525423728,"itr_brut":0.35550633551887284,"itr_score":76.7,"itr_label":"Tendu"}},{"type":"Feature","geometry":{"type":"Point","coordinates":[2.326593,48.886004]},"properties":{"nom_voie":"AV DE CLICHY","code_postal":"75018","arrondissement":18,"code_iris":"751186905","prix_m2_median":10000.0,"revenu_median_uc":33340.0,"nb_logements_sociaux":210,"nb_transactions":4,"c1_effort":0.29994001199760045,"c2_logsoc":1.004739336492891,"itr_brut":0.30136152864213883,"itr_score":54.7,"itr_label":"Modere"}},{"type":"Feature","geometry":{"type":"Point","coordinates":[2.375971,48.889807]},"properties":{"nom_voie":"AV DE FLANDRE","code_postal":"75019","arrondissement":19,"code_iris":"751197305","prix_m2_median":7461.442307692308,"revenu_median_uc":28460.0,"nb_logements_sociaux":36,"nb_transactions":18,"c1_effort":0.2621729552948808,"c2_logsoc":1.027027027027027,"itr_brut":0.2692587108433911,"itr_score":36.1,"itr_label":"Accessible"}},{"type":"Feature","geometry":{"type":"Point","coordinates":[2.335129,48.865552]},"properties":{"nom_voie":"AV DE L OPERA","code_postal":"75001","arrondissement":1,"code_iris":"751010301","prix_m2_median":14117.64705882353,"revenu_median_uc":43160.0,"nb_logements_sociaux":161,"nb_transactions":3,"c1_effort":0.32710025622853406,"c2_logsoc":1.0061728395061729,"itr_brut":0.32911939361266085,"itr_score":68.3,"itr_label":"Tendu"}},{"type":"Feature","geometry":{"type":"Point","coordinates":[2.300211,48.857718]},"properties":{"nom_voie":"AV DE LA BOURDONNAIS","code_postal":"75007","arrondissement":7,"code_iris":"751072806","prix_m2_median":14285.714285714286,"revenu_median_uc":77180.0,"nb_logements_sociaux":0,"nb_transactions":17,"c1_effort":0.18509606485766114,"c2_logsoc":2.0,"itr_brut":0.3701921297153223,"itr_score":79.8,"itr_label":"Tendu"}},{"type":"Feature","geometry":{"type":"Point","coordinates":[2.307975,48.855843]},"properties":{"nom_voie":"AV DE LA MOTTE PICQUET","code_postal":"75007","arrondissement":7,"code_iris":"751072801","prix_m2_median":13938.115330520393,"revenu_median_uc":49140.0,"nb_logements_sociaux":0,"nb_transactions":10,"c1_effort":0.2836409306170206,"c2_logsoc":2.0,"itr_brut":0.5672818612340412,"itr_score":97.3,"itr_label":"Tres tendu"}},{"type":"Feature","geometry":{"type":"Point","coordinates":[2.299764,48.850155]},"properties":{"nom_voie":"AV DE LA MOTTE PICQUET","code_postal":"75015","arrondissement":15,"code_iris":"751155913","prix_m2_median":14338.364779874213,"revenu_median_uc":55060.0,"nb_logements_sociaux":0,"nb_transactions":7,"c1_effort":0.2604134540478426,"c2_logsoc":2.0,"itr_brut":0.5208269080956852,"itr_score":94.8,"itr_label":"Tres tendu"}},{"type":"Feature","geometry":{"type":"Point","coordinates":[2.377545,48.864795]},"properties":{"nom_voie":"AV DE LA REPUBLIQUE","code_postal":"75011","arrondissement":11,"code_iris":"751114213","prix_m2_median":9978.43822843823,"revenu_median_uc":36420.0,"nb_logements_sociaux":82,"nb_transactions":16,"c1_effort":0.2739823785952287,"c2_logsoc":1.0120481927710843,"itr_brut":0.2772833711084242,"itr_score":40.7,"itr_label":"Modere"}},{"type":"Feature","geometry":{"type":"Point","coordinates":[2.280874,48.854405]},"properties":{"nom_voie":"AV DE LAMBALLE","code_postal":"75016","arrondissement":16,"code_iris":"751166201","prix_m2_median":12272.727272727272,"revenu_median_uc":52550.0,"nb_logements_sociaux":0,"nb_transactions":3,"c1_effort":0.23354381108900613,"c2_logsoc":2.0,"itr_brut":0.46708762217801225,"itr_score":92.0,"itr_label":"Tres tendu"}},{"type":"Feature","geometry":{"type":"Point","coordinates":[2.291934,48.861416]},"properties":{"nom_voie":"AV DE NEW YORK","code_postal":"75016","arrondissement":16,"code_iris":"751166401","prix_m2_median":16899.986089859507,"revenu_median_uc":49360.0,"nb_logements_sociaux":0,"nb_transactions":6,"c1_effort":0.34238221413815856,"c2_logsoc":2.0,"itr_brut":0.6847644282763171,"itr_score":99.1,"itr_label":"Tres tendu"}},{"type":"Feature","geometry":{"type":"Point","coordinates":[2.327539,48.891871]},"properties":{"nom_voie":"AV DE SAINT OUEN","code_postal":"75018","arrondissement":18,"code_iris":"751186905","prix_m2_median":8934.077380952382,"revenu_median_uc":33340.0,"nb_logements_sociaux":210,"nb_transactions":22,"c1_effort":0.26796872768303487,"c2_logsoc":1.004739336492891,"itr_brut":0.26923872165309665,"itr_score":36.0,"itr_label":"Accessible"}},{"type":"Feature","geometry":{"type":"Point","coordinates":[2.403912,48.844703]},"properties":{"nom_voie":"AV DE SAINT-MANDE","code_postal":"75012","arrondissement":12,"code_iris":"751124507","prix_m2_median":8752.857142857143,"revenu_median_uc":32280.0,"nb_logements_sociaux":337,"nb_transactions":14,"c1_effort":0.2711541865816959,"c2_logsoc":1.0029585798816567,"itr_brut":0.27195641790294345,"itr_score":37.8,"itr_label":"Accessible"}},{"type":"Feature","geometry":{"type":"Point","coordinates":[2.326842,48.892181]},"properties":{"nom_voie":"AV DE SAINT-OUEN","code_postal":"75017","arrondissement":17,"code_iris":"751176801","prix_m2_median":9728.04347826087,"revenu_median_uc":27120.0,"nb_logements_sociaux":58,"nb_transactions":11,"c1_effort":0.35870366807746573,"c2_logsoc":1.0169491525423728,"itr_brut":0.36478339126521936,"itr_score":78.7,"itr_label":"Tendu"}},{"type":"Feature","geometry":{"type":"Point","coordinates":[2.311859,48.847338]},"properties":{"nom_voie":"AV DE SAXE","code_postal":"75007","arrondissement":7,"code_iris":"751072702","prix_m2_median":10000.0,"revenu_median_uc":51220.0,"nb_logements_sociaux":79,"nb_transactions":3,"c1_effort":0.1952362358453729,"c2_logsoc":1.0125,"itr_brut":0.19767668879344005,"itr_score":3.7,"itr_label":"Tres accessible"}},{"type":"Feature","geometry":{"type":"Point","coordinates":[2.310348,48.851544]},"properties":{"nom_voie":"AV DE SEGUR","code_postal":"75007","arrondissement":7,"code_iris":"751072705","prix_m2_median":14109.967307692306,"revenu_median_uc":68670.0,"nb_logements_sociaux":0,"nb_transactions":6,"c1_effort":0.20547498627773855,"c2_logsoc":2.0,"itr_brut":0.4109499725554771,"itr_score":86.9,"itr_label":"Tres tendu"}},{"type":"Feature","geometry":{"type":"Point","coordinates":[2.298553,48.853074]},"properties":{"nom_voie":"AV DE SUFFREN","code_postal":"75007","arrondissement":7,"code_iris":"751072807","prix_m2_median":17500.0,"revenu_median_uc":74290.0,"nb_logements_sociaux":8,"nb_transactions":5,"c1_effort":0.23556333288464126,"c2_logsoc":1.1111111111111112,"itr_brut":0.2617370365384903,"itr_score":30.4,"itr_label":"Accessible"}},{"type":"Feature","geometry":{"type":"Point","coordinates":[2.300764,48.850704]},"properties":{"nom_voie":"AV DE SUFFREN","code_postal":"75015","arrondissement":15,"code_iris":"751155812","prix_m2_median":10994.595098039215,"revenu_median_uc":50120.0,"nb_logements_sociaux":20,"nb_transactions":16,"c1_effort":0.2193654249409261,"c2_logsoc":1.0476190476190477,"itr_brut":0.22981139755716068,"itr_score":12.4,"itr_label":"Tres accessible"}},{"type":"Feature","geometry":{"type":"Point","coordinates":[2.308161,48.853863]},"properties":{"nom_voie":"AV DE TOURVILLE","code_postal":"75007","arrondissement":7,"code_iris":"751072705","prix_m2_median":16505.208333333336,"revenu_median_uc":68670.0,"nb_logements_sociaux":0,"nb_transactions":4,"c1_effort":0.24035544391048982,"c2_logsoc":2.0,"itr_brut":0.48071088782097965,"itr_score":93.0,"itr_label":"Tres tendu"}},{"type":"Feature","geometry":{"type":"Point","coordinates":[2.267134,48.842976]},"properties":{"nom_voie":"AV DE VERSAILLES","code_postal":"75016","arrondissement":16,"code_iris":"751166103","prix_m2_median":9231.898238747555,"revenu_median_uc":32840.0,"nb_logements_sociaux":27,"nb_transactions":30,"c1_effort":0.28111748595455405,"c2_logsoc":1.0357142857142858,"itr_brut":0.2911573961672167,"itr_score":49.7,"itr_label":"Modere"}},{"type":"Feature","geometry":{"type":"Point","coordinates":[2.303393,48.883866]},"properties":{"nom_voie":"AV DE VILLIERS","code_postal":"75017","arrondissement":17,"code_iris":"751176609","prix_m2_median":10429.36188811189,"revenu_median_uc":59060.0,"nb_logements_sociaux":16,"nb_transactions":16,"c1_effort":0.17658926325959853,"c2_logsoc":1.0588235294117647,"itr_brut":0.1869768669807514,"itr_score":2.2,"itr_label":"Tres accessible"}},{"type":"Feature","geometry":{"type":"Point","coordinates":[2.297422,48.876233]},"properties":{"nom_voie":"AV DE WAGRAM","code_postal":"75008","arrondissement":8,"code_iris":"751083001","prix_m2_median":14696.969696969696,"revenu_median_uc":57440.0,"nb_logements_sociaux":0,"nb_transactions":10,"c1_effort":0.25586646408373426,"c2_logsoc":2.0,"itr_brut":0.5117329281674685,"itr_score":94.3,"itr_label":"Tres tendu"}},{"type":"Feature","geometry":{"type":"Point","coordinates":[2.300529,48.88147]},"properties":{"nom_voie":"AV DE WAGRAM","code_postal":"75017","arrondissement":17,"code_iris":"751176510","prix_m2_median":10760.869565217392,"revenu_median_uc":47870.0,"nb_logements_sociaux":6,"nb_transactions":19,"c1_effort":0.22479359860491732,"c2_logsoc":1.1428571428571428,"itr_brut":0.2569069698341912,"itr_score":26.7,"itr_label":"Accessible"}},{"type":"Feature","geometry":{"type":"Point","coordinates":[2.333943,48.835185]},"properties":{"nom_voie":"AV DENFERT ROCHEREAU","code_postal":"75014","arrondissement":14,"code_iris":"751145302","prix_m2_median":10331.73076923077,"revenu_median_uc":46270.0,"nb_logements_sociaux":135,"nb_transactions":3,"c1_effort":0.2232922145932736,"c2_logsoc":1.0073529411764706,"itr_brut":0.2249340691123418,"itr_score":10.8,"itr_label":"Tres accessible"}},{"type":"Feature","geometry":{"type":"Point","coordinates":[2.351056,48.837753]},"properties":{"nom_voie":"AV DES GOBELINS","code_postal":"75005","arrondissement":5,"code_iris":"751051802","prix_m2_median":10219.642857142857,"revenu_median_uc":37280.0,"nb_logements_sociaux":111,"nb_transactions":4,"c1_effort":0.27413205088902515,"c2_logsoc":1.0089285714285714,"itr_brut":0.2765796584862486,"itr_score":39.8,"itr_label":"Accessible"}},{"type":"Feature","geometry":{"type":"Point","coordinates":[2.353891,48.833957]},"properties":{"nom_voie":"AV DES GOBELINS","code_postal":"75013","arrondissement":13,"code_iris":"751134905","prix_m2_median":10964.83704974271,"revenu_median_uc":36300.0,"nb_logements_sociaux":13,"nb_transactions":6,"c1_effort":0.3020616267146752,"c2_logsoc":1.0714285714285714,"itr_brut":0.3236374571942948,"itr_score":65.9,"itr_label":"Tendu"}},{"type":"Feature","geometry":{"type":"Point","coordinates":[2.291521,48.879314]},"properties":{"nom_voie":"AV DES TERNES","code_postal":"75017","arrondissement":17,"code_iris":"751176509","prix_m2_median":11519.538461538461,"revenu_median_uc":59200.0,"nb_logements_sociaux":0,"nb_transactions":14,"c1_effort":0.19458679833679832,"c2_logsoc":2.0,"itr_brut":0.38917359667359663,"itr_score":83.6,"itr_label":"Tres tendu"}},{"type":"Feature","geometry":{"type":"Point","coordinates":[2.397518,48.846139]},"properties":{"nom_voie":"AV DU BEL AIR","code_postal":"75012","arrondissement":12,"code_iris":"751124623","prix_m2_median":9235.754985754986,"revenu_median_uc":40850.0,"nb_logements_sociaux":30,"nb_transactions":6,"c1_effort":0.22608947333549537,"c2_logsoc":1.032258064516129,"itr_brut":0.23338268215276942,"itr_score":14.0,"itr_label":"Tres accessible"}},{"type":"Feature","geometry":{"type":"Point","coordinates":[2.27867,48.855262]},"properties":{"nom_voie":"AV DU COL BONNET","code_postal":"75016","arrondissement":16,"code_iris":"751166203","prix_m2_median":13053.030303030304,"revenu_median_uc":57440.0,"nb_logements_sociaux":0,"nb_transactions":4,"c1_effort":0.22724634928673929,"c2_logsoc":2.0,"itr_brut":0.45449269857347857,"itr_score":91.4,"itr_label":"Tres tendu"}},{"type":"Feature","geometry":{"type":"Point","coordinates":[2.405545,48.844736]},"properties":{"nom_voie":"AV DU DOC ARNOLD NETTER","code_postal":"75012","arrondissement":12,"code_iris":"751124507","prix_m2_median":8384.5,"revenu_median_uc":32280.0,"nb_logements_sociaux":337,"nb_transactions":9,"c1_effort":0.25974287484510533,"c2_logsoc":1.0029585798816567,"itr_brut":0.2605113448890257,"itr_score":29.7,"itr_label":"Accessible"}},{"type":"Feature","geometry":{"type":"Point","coordinates":[2.401671,48.836251]},"properties":{"nom_voie":"AV DU GAL MICHEL BIZOT","code_postal":"75012","arrondissement":12,"code_iris":"751124504","prix_m2_median":8452.558139534884,"revenu_median_uc":32840.0,"nb_logements_sociaux":185,"nb_transactions":20,"c1_effort":0.2573860578421097,"c2_logsoc":1.0053763440860215,"itr_brut":0.2587698538520135,"itr_score":28.1,"itr_label":"Accessible"}},{"type":"Feature","geometry":{"type":"Point","coordinates":[2.327876,48.828464]},"properties":{"nom_voie":"AV DU GENERAL LECLERC","code_postal":"75014","arrondissement":14,"code_iris":"751145507","prix_m2_median":9125.0,"revenu_median_uc":39750.0,"nb_logements_sociaux":43,"nb_transactions":22,"c1_effort":0.22955974842767296,"c2_logsoc":1.0227272727272727,"itr_brut":0.2347770154373928,"itr_score":14.5,"itr_label":"Tres accessible"}},{"type":"Feature","geometry":{"type":"Point","coordinates":[2.324904,48.832418]},"properties":{"nom_voie":"AV DU MAINE","code_postal":"75014","arrondissement":14,"code_iris":"751145513","prix_m2_median":9060.31746031746,"revenu_median_uc":38530.0,"nb_logements_sociaux":61,"nb_transactions":22,"c1_effort":0.23514968752446042,"c2_logsoc":1.0161290322580645,"itr_brut":0.23894242442001623,"itr_score":16.7,"itr_label":"Tres accessible"}},{"type":"Feature","geometry":{"type":"Point","coordinates":[2.311518,48.850664]},"properties":{"nom_voie":"AV DUQUESNE","code_postal":"75007","arrondissement":7,"code_iris":"751072704","prix_m2_median":11081.818181818182,"revenu_median_uc":56170.0,"nb_logements_sociaux":51,"nb_transactions":5,"c1_effort":0.19729069221680937,"c2_logsoc":1.0192307692307692,"itr_brut":0.20108474399020954,"itr_score":4.5,"itr_label":"Tres accessible"}},{"type":"Feature","geometry":{"type":"Point","coordinates":[2.302012,48.85583]},"properties":{"nom_voie":"AV EMILE DESCHANEL","code_postal":"75007","arrondissement":7,"code_iris":"751072806","prix_m2_median":21167.883211678833,"revenu_median_uc":77180.0,"nb_logements_sociaux":0,"nb_transactions":5,"c1_effort":0.2742664318693811,"c2_logsoc":2.0,"itr_brut":0.5485328637387622,"itr_score":96.4,"itr_label":"Tres tendu"}},{"type":"Feature","geometry":{"type":"Point","coordinates":[2.284891,48.846336]},"properties":{"nom_voie":"AV EMILE ZOLA","code_postal":"75015","arrondissement":15,"code_iris":"751156013","prix_m2_median":9672.897196261682,"revenu_median_uc":30370.0,"nb_logements_sociaux":16,"nb_transactions":11,"c1_effort":0.3185017186783563,"c2_logsoc":1.0588235294117647,"itr_brut":0.3372371138947302,"itr_score":71.4,"itr_label":"Tendu"}},{"type":"Feature","geometry":{"type":"Point","coordinates":[2.28473,48.839877]},"properties":{"nom_voie":"AV FELIX FAURE","code_postal":"75015","arrondissement":15,"code_iris":"751156003","prix_m2_median":8809.621920135938,"revenu_median_uc":27520.0,"nb_logements_sociaux":5,"nb_transactions":26,"c1_effort":0.32011707558633495,"c2_logsoc":1.1666666666666667,"itr_brut":0.3734699215173908,"itr_score":80.4,"itr_label":"Tres tendu"}},{"type":"Feature","geometry":{"type":"Point","coordinates":[2.285898,48.872515]},"properties":{"nom_voie":"AV FOCH","code_postal":"75016","arrondissement":16,"code_iris":"751166409","prix_m2_median":12067.857142857143,"revenu_median_uc":46510.0,"nb_logements_sociaux":0,"nb_transactions":18,"c1_effort":0.2594680099517769,"c2_logsoc":2.0,"itr_brut":0.5189360199035538,"itr_score":94.7,"itr_label":"Tres tendu"}},{"type":"Feature","geometry":{"type":"Point","coordinates":[2.398602,48.867463]},"properties":{"nom_voie":"AV GAMBETTA","code_postal":"75020","arrondissement":20,"code_iris":"751207909","prix_m2_median":8553.339858086616,"revenu_median_uc":33160.0,"nb_logements_sociaux":327,"nb_transactions":36,"c1_effort":0.25794149149839013,"c2_logsoc":1.0030487804878048,"itr_brut":0.2587278984846657,"itr_score":28.0,"itr_label":"Accessible"}},{"type":"Feature","geometry":{"type":"Point","coordinates":[2.279899,48.863699]},"properties":{"nom_voie":"AV GEORGES MANDEL","code_postal":"75016","arrondissement":16,"code_iris":"751166218","prix_m2_median":17570.152491941484,"revenu_median_uc":50080.0,"nb_logements_sociaux":69,"nb_transactions":6,"c1_effort":0.35084170311384755,"c2_logsoc":1.0142857142857142,"itr_brut":0.35585372744404536,"itr_score":76.9,"itr_label":"Tendu"}},{"type":"Feature","geometry":{"type":"Point","coordinates":[2.281949,48.87015]},"properties":{"nom_voie":"AV HUBERT GERMAIN","code_postal":"75016","arrondissement":16,"code_iris":"751166308","prix_m2_median":12962.962962962964,"revenu_median_uc":47920.0,"nb_logements_sociaux":57,"nb_transactions":7,"c1_effort":0.270512582699561,"c2_logsoc":1.0172413793103448,"itr_brut":0.2751765927461052,"itr_score":39.2,"itr_label":"Accessible"}},{"type":"Feature","geometry":{"type":"Point","coordinates":[2.382193,48.885781]},"properties":{"nom_voie":"AV JEAN JAURES","code_postal":"75019","arrondissement":19,"code_iris":"751197524","prix_m2_median":8157.356902356902,"revenu_median_uc":32180.0,"nb_logements_sociaux":328,"nb_transactions":40,"c1_effort":0.2534915134355781,"c2_logsoc":1.0030395136778116,"itr_brut":0.25426200435787466,"itr_score":24.7,"itr_label":"Accessible"}},{"type":"Feature","geometry":{"type":"Point","coordinates":[2.323351,48.826142]},"properties":{"nom_voie":"AV JEAN MOULIN","code_postal":"75014","arrondissement":14,"code_iris":"751145506","prix_m2_median":750.0,"revenu_median_uc":41890.0,"nb_logements_sociaux":76,"nb_transactions":33,"c1_effort":0.017904034375746003,"c2_logsoc":1.0129870129870129,"itr_brut":0.01813655430270374,"itr_score":0.1,"itr_label":"Tres accessible"}},{"type":"Feature","geometry":{"type":"Point","coordinates":[2.336192,48.889132]},"properties":{"nom_voie":"AV JUNOT","code_postal":"75018","arrondissement":18,"code_iris":"751186911","prix_m2_median":10849.056603773584,"revenu_median_uc":51150.0,"nb_logements_sociaux":3,"nb_transactions":3,"c1_effort":0.21210276840222062,"c2_logsoc":1.25,"itr_brut":0.2651284605027758,"itr_score":33.7,"itr_label":"Accessible"}},{"type":"Feature","geometry":{"type":"Point","coordinates":[2.289809,48.866741]},"properties":{"nom_voie":"AV KLEBER","code_postal":"75016","arrondissement":16,"code_iris":"751166404","prix_m2_median":12743.012422360247,"revenu_median_uc":45600.0,"nb_logements_sociaux":0,"nb_transactions":6,"c1_effort":0.2794520268061458,"c2_logsoc":2.0,"itr_brut":0.5589040536122916,"itr_score":97.0,"itr_label":"Tres tendu"}},{"type":"Feature","geometry":{"type":"Point","coordinates":[2.377798,48.853813]},"properties":{"nom_voie":"AV LEDRU ROLLIN","code_postal":"75011","arrondissement":11,"code_iris":"751114404","prix_m2_median":9437.5,"revenu_median_uc":37670.0,"nb_logements_sociaux":131,"nb_transactions":5,"c1_effort":0.25053092646668434,"c2_logsoc":1.0075757575757576,"itr_brut":0.2524288880308259,"itr_score":23.5,"itr_label":"Accessible"}},{"type":"Feature","geometry":{"type":"Point","coordinates":[2.373615,48.849576]},"properties":{"nom_voie":"AV LEDRU ROLLIN","code_postal":"75012","arrondissement":12,"code_iris":"751124806","prix_m2_median":10535.714285714286,"revenu_median_uc":38940.0,"nb_logements_sociaux":1,"nb_transactions":11,"c1_effort":0.27056277056277056,"c2_logsoc":1.5,"itr_brut":0.40584415584415584,"itr_score":85.8,"itr_label":"Tres tendu"}},{"type":"Feature","geometry":{"type":"Point","coordinates":[2.294675,48.876467]},"properties":{"nom_voie":"AV MAC MAHON","code_postal":"75017","arrondissement":17,"code_iris":"751176501","prix_m2_median":11364.91402116402,"revenu_median_uc":47010.0,"nb_logements_sociaux":29,"nb_transactions":6,"c1_effort":0.2417552440154014,"c2_logsoc":1.0333333333333334,"itr_brut":0.24981375214924814,"itr_score":22.1,"itr_label":"Accessible"}},{"type":"Feature","geometry":{"type":"Point","coordinates":[2.375201,48.878518]},"properties":{"nom_voie":"AV MATHURIN MOREAU","code_postal":"75019","arrondissement":19,"code_iris":"751197612","prix_m2_median":9057.142857142857,"revenu_median_uc":35460.0,"nb_logements_sociaux":55,"nb_transactions":7,"c1_effort":0.25541858029167674,"c2_logsoc":1.0178571428571428,"itr_brut":0.2599796263683138,"itr_score":29.0,"itr_label":"Accessible"}},{"type":"Feature","geometry":{"type":"Point","coordinates":[2.269385,48.853303]},"properties":{"nom_voie":"AV MOZART","code_postal":"75016","arrondissement":16,"code_iris":"751166126","prix_m2_median":11194.978354978355,"revenu_median_uc":55510.0,"nb_logements_sociaux":54,"nb_transactions":12,"c1_effort":0.20167498387638902,"c2_logsoc":1.018181818181818,"itr_brut":0.20534180176505062,"itr_score":5.0,"itr_label":"Tres accessible"}},{"type":"Feature","geometry":{"type":"Point","coordinates":[2.295647,48.881885]},"properties":{"nom_voie":"AV NIEL","code_postal":"75017","arrondissement":17,"code_iris":"751176509","prix_m2_median":10458.847736625514,"revenu_median_uc":59200.0,"nb_logements_sociaux":0,"nb_transactions":19,"c1_effort":0.17666972528083638,"c2_logsoc":2.0,"itr_brut":0.35333945056167276,"itr_score":76.3,"itr_label":"Tendu"}},{"type":"Feature","geometry":{"type":"Point","coordinates":[2.293048,48.85667]},"properties":{"nom_voie":"AV OCTAVE GREARD","code_postal":"75007","arrondissement":7,"code_iris":"751072807","prix_m2_median":12033.898305084746,"revenu_median_uc":74290.0,"nb_logements_sociaux":8,"nb_transactions":3,"c1_effort":0.1619854395623199,"c2_logsoc":1.1111111111111112,"itr_brut":0.17998382173591101,"itr_score":1.3,"itr_label":"Tres accessible"}},{"type":"Feature","geometry":{"type":"Point","coordinates":[2.370993,48.87063]},"properties":{"nom_voie":"AV PARMENTIER","code_postal":"75010","arrondissement":10,"code_iris":"751104003","prix_m2_median":9052.631578947368,"revenu_median_uc":29430.0,"nb_logements_sociaux":139,"nb_transactions":5,"c1_effort":0.3075987624514906,"c2_logsoc":1.0071428571428571,"itr_brut":0.30979589646900124,"itr_score":58.9,"itr_label":"Modere"}},{"type":"Feature","geometry":{"type":"Point","coordinates":[2.376263,48.86308]},"properties":{"nom_voie":"AV PARMENTIER","code_postal":"75011","arrondissement":11,"code_iris":"751114211","prix_m2_median":10557.627118644068,"revenu_median_uc":36170.0,"nb_logements_sociaux":56,"nb_transactions":25,"c1_effort":0.29188905498048295,"c2_logsoc":1.0175438596491229,"itr_brut":0.29700991559417567,"itr_score":52.6,"itr_label":"Modere"}},{"type":"Feature","geometry":{"type":"Point","coordinates":[2.280906,48.86027]},"properties":{"nom_voie":"AV PAUL DOUMER","code_postal":"75016","arrondissement":16,"code_iris":"751166220","prix_m2_median":12728.843537414967,"revenu_median_uc":49920.0,"nb_logements_sociaux":39,"nb_transactions":16,"c1_effort":0.25498484650270364,"c2_logsoc":1.025,"itr_brut":0.26135946766527124,"itr_score":30.3,"itr_label":"Accessible"}},{"type":"Feature","geometry":{"type":"Point","coordinates":[2.292639,48.864417]},"properties":{"nom_voie":"AV PDT WILSON","code_postal":"75016","arrondissement":16,"code_iris":"751166402","prix_m2_median":16040.372670807454,"revenu_median_uc":41740.0,"nb_logements_sociaux":17,"nb_transactions":6,"c1_effort":0.3842925891424881,"c2_logsoc":1.0555555555555556,"itr_brut":0.40564217742818187,"itr_score":85.7,"itr_label":"Tres tendu"}},{"type":"Feature","geometry":{"type":"Point","coordinates":[2.273171,48.849482]},"properties":{"nom_voie":"AV PERRICHONT","code_postal":"75016","arrondissement":16,"code_iris":"751166128","prix_m2_median":9338.983050847457,"revenu_median_uc":47770.0,"nb_logements_sociaux":106,"nb_transactions":3,"c1_effort":0.19549891251512366,"c2_logsoc":1.0093457943925233,"itr_brut":0.1973260051554519,"itr_score":3.6,"itr_label":"Tres accessible"}},{"type":"Feature","geometry":{"type":"Point","coordinates":[2.392541,48.853763]},"properties":{"nom_voie":"AV PHILIPPE AUGUSTE","code_postal":"75011","arrondissement":11,"code_iris":"751114411","prix_m2_median":9242.424242424242,"revenu_median_uc":29950.0,"nb_logements_sociaux":134,"nb_transactions":21,"c1_effort":0.3085951333029797,"c2_logsoc":1.0074074074074073,"itr_brut":0.31088102317929805,"itr_score":59.6,"itr_label":"Modere"}},{"type":"Feature","geometry":{"type":"Point","coordinates":[2.35255,48.900565]},"properties":{"nom_voie":"AV PTE DES POISSONNIERS","code_postal":"75018","arrondissement":18,"code_iris":"751187110","prix_m2_median":6388.888888888889,"revenu_median_uc":17020.0,"nb_logements_sociaux":2207,"nb_transactions":3,"c1_effort":0.37537537537537535,"c2_logsoc":1.0004528985507246,"itr_brut":0.3755453823388606,"itr_score":80.7,"itr_label":"Tres tendu"}},{"type":"Feature","geometry":{"type":"Point","coordinates":[2.28571,48.867528]},"properties":{"nom_voie":"AV RAYMOND POINCARE","code_postal":"75016","arrondissement":16,"code_iris":"751166308","prix_m2_median":12962.962962962964,"revenu_median_uc":47920.0,"nb_logements_sociaux":57,"nb_transactions":9,"c1_effort":0.270512582699561,"c2_logsoc":1.0172413793103448,"itr_brut":0.2751765927461052,"itr_score":39.2,"itr_label":"Accessible"}},{"type":"Feature","geometry":{"type":"Point","coordinates":[2.338928,48.824786]},"properties":{"nom_voie":"AV REILLE","code_postal":"75014","arrondissement":14,"code_iris":"751145403","prix_m2_median":10000.0,"revenu_median_uc":32150.0,"nb_logements_sociaux":25,"nb_transactions":3,"c1_effort":0.3110419906687403,"c2_logsoc":1.0384615384615385,"itr_brut":0.32300514415599957,"itr_score":65.6,"itr_label":"Tendu"}},{"type":"Feature","geometry":{"type":"Point","coordinates":[2.333965,48.828419]},"properties":{"nom_voie":"AV RENE COTY","code_postal":"75014","arrondissement":14,"code_iris":"751145405","prix_m2_median":9598.039215686274,"revenu_median_uc":31170.0,"nb_logements_sociaux":120,"nb_transactions":3,"c1_effort":0.3079255442953569,"c2_logsoc":1.0082644628099173,"itr_brut":0.3104703835044094,"itr_score":59.5,"itr_label":"Modere"}},{"type":"Feature","geometry":{"type":"Point","coordinates":[2.374536,48.880775]},"properties":{"nom_voie":"AV SECRETAN","code_postal":"75019","arrondissement":19,"code_iris":"751197301","prix_m2_median":7422.010416666666,"revenu_median_uc":22980.0,"nb_logements_sociaux":312,"nb_transactions":6,"c1_effort":0.3229769545982013,"c2_logsoc":1.0031948881789137,"itr_brut":0.3240088298525086,"itr_score":66.0,"itr_label":"Tendu"}},{"type":"Feature","geometry":{"type":"Point","coordinates":[2.377276,48.876568]},"properties":{"nom_voie":"AV SIMON BOLIVAR","code_postal":"75019","arrondissement":19,"code_iris":"751197608","prix_m2_median":9047.714514835607,"revenu_median_uc":24460.0,"nb_logements_sociaux":1,"nb_transactions":16,"c1_effort":0.36989838572508615,"c2_logsoc":1.5,"itr_brut":0.5548475785876292,"itr_score":96.7,"itr_label":"Tres tendu"}},{"type":"Feature","geometry":{"type":"Point","coordinates":[2.293362,48.886351]},"properties":{"nom_voie":"AV STEPHANE MALLARME","code_postal":"75017","arrondissement":17,"code_iris":"751176614","prix_m2_median":9670.47791893527,"revenu_median_uc":24760.0,"nb_logements_sociaux":1409,"nb_transactions":4,"c1_effort":0.3905685750781612,"c2_logsoc":1.000709219858156,"itr_brut":0.3908455740675783,"itr_score":83.8,"itr_label":"Tres tendu"}},{"type":"Feature","geometry":{"type":"Point","coordinates":[2.394148,48.874204]},"properties":{"nom_voie":"AV TAILLADE","code_postal":"75020","arrondissement":20,"code_iris":"751207714","prix_m2_median":8090.909090909091,"revenu_median_uc":29530.0,"nb_logements_sociaux":24,"nb_transactions":5,"c1_effort":0.27398947141581753,"c2_logsoc":1.04,"itr_brut":0.28494905027245027,"itr_score":45.5,"itr_label":"Modere"}},{"type":"Feature","geometry":{"type":"Point","coordinates":[2.271568,48.849633]},"properties":{"nom_voie":"AV THEOPHILE GAUTIER","code_postal":"75016","arrondissement":16,"code_iris":"751166127","prix_m2_median":11180.075621635478,"revenu_median_uc":40750.0,"nb_logements_sociaux":81,"nb_transactions":8,"c1_effort":0.27435768396651483,"c2_logsoc":1.0121951219512195,"itr_brut":0.2777035093807406,"itr_score":40.8,"itr_label":"Modere"}},{"type":"Feature","geometry":{"type":"Point","coordinates":[2.342867,48.881041]},"properties":{"nom_voie":"AV TRUDAINE","code_postal":"75009","arrondissement":9,"code_iris":"751093608","prix_m2_median":10526.315789473685,"revenu_median_uc":41320.0,"nb_logements_sociaux":147,"nb_transactions":7,"c1_effort":0.25475110816732055,"c2_logsoc":1.0067567567567568,"itr_brut":0.25647239943872135,"itr_score":26.2,"itr_label":"Accessible"}},{"type":"Feature","geometry":{"type":"Point","coordinates":[2.2832,48.868681]},"properties":{"nom_voie":"AV VICTOR HUGO","code_postal":"75016","arrondissement":16,"code_iris":"751166308","prix_m2_median":12667.672413793103,"revenu_median_uc":47920.0,"nb_logements_sociaux":57,"nb_transactions":22,"c1_effort":0.2643504259973519,"c2_logsoc":1.0172413793103448,"itr_brut":0.2689081919628235,"itr_score":35.6,"itr_label":"Accessible"}},{"type":"Feature","geometry":{"type":"Point","coordinates":[2.316232,48.831919]},"properties":{"nom_voie":"AV VILLEMAIN","code_postal":"75014","arrondissement":14,"code_iris":"751145616","prix_m2_median":11847.833333333334,"revenu_median_uc":28750.0,"nb_logements_sociaux":213,"nb_transactions":3,"c1_effort":0.4120985507246377,"c2_logsoc":1.0046728971962617,"itr_brut":0.41402424488690237,"itr_score":87.6,"itr_label":"Tres tendu"}},{"type":"Feature","geometry":{"type":"Point","coordinates":[2.348,48.835375]},"properties":{"nom_voie":"BD ARAGO","code_postal":"75013","arrondissement":13,"code_iris":"751135203","prix_m2_median":9908.256880733945,"revenu_median_uc":41470.0,"nb_logements_sociaux":79,"nb_transactions":15,"c1_effort":0.2389258953637315,"c2_logsoc":1.0125,"itr_brut":0.24191246905577812,"itr_score":17.8,"itr_label":"Tres accessible"}},{"type":"Feature","geometry":{"type":"Point","coordinates":[2.345858,48.830786]},"properties":{"nom_voie":"BD AUGUSTE BLANQUI","code_postal":"75013","arrondissement":13,"code_iris":"751135118","prix_m2_median":9085.765336509827,"revenu_median_uc":33530.0,"nb_logements_sociaux":155,"nb_transactions":8,"c1_effort":0.27097421224306073,"c2_logsoc":1.0064102564102564,"itr_brut":0.272711226424106,"itr_score":38.2,"itr_label":"Accessible"}},{"type":"Feature","geometry":{"type":"Point","coordinates":[2.349822,48.886721]},"properties":{"nom_voie":"BD BARBES","code_postal":"75018","arrondissement":18,"code_iris":"751187017","prix_m2_median":9007.575757575756,"revenu_median_uc":23200.0,"nb_logements_sociaux":230,"nb_transactions":14,"c1_effort":0.3882575757575757,"c2_logsoc":1.0043290043290043,"itr_brut":0.38993834448379894,"itr_score":83.7,"itr_label":"Tres tendu"}},{"type":"Feature","geometry":{"type":"Point","coordinates":[2.367213,48.859071]},"properties":{"nom_voie":"BD BEAUMARCHAIS","code_postal":"75003","arrondissement":3,"code_iris":"751031101","prix_m2_median":11629.303599374021,"revenu_median_uc":43050.0,"nb_logements_sociaux":127,"nb_transactions":8,"c1_effort":0.270134810670709,"c2_logsoc":1.0078125,"itr_brut":0.2722452388790739,"itr_score":38.0,"itr_label":"Accessible"}},{"type":"Feature","geometry":{"type":"Point","coordinates":[2.368419,48.857775]},"properties":{"nom_voie":"BD BEAUMARCHAIS","code_postal":"75011","arrondissement":11,"code_iris":"751114207","prix_m2_median":10254.435483870968,"revenu_median_uc":37950.0,"nb_logements_sociaux":21,"nb_transactions":5,"c1_effort":0.27020910365931405,"c2_logsoc":1.0454545454545454,"itr_brut":0.28249133564382833,"itr_score":43.7,"itr_label":"Modere"}},{"type":"Feature","geometry":{"type":"Point","coordinates":[2.305155,48.890782]},"properties":{"nom_voie":"BD BERTHIER","code_postal":"75017","arrondissement":17,"code_iris":"751176806","prix_m2_median":7993.571428571428,"revenu_median_uc":25910.0,"nb_logements_sociaux":731,"nb_transactions":6,"c1_effort":0.3085129845068093,"c2_logsoc":1.0013661202185793,"itr_brut":0.3089344503326383,"itr_score":58.2,"itr_label":"Modere"}},{"type":"Feature","geometry":{"type":"Point","coordinates":[2.31973,48.89597]},"properties":{"nom_voie":"BD BESSIERES","code_postal":"75017","arrondissement":17,"code_iris":"751176813","prix_m2_median":8368.055555555555,"revenu_median_uc":20720.0,"nb_logements_sociaux":842,"nb_transactions":8,"c1_effort":0.4038636851136851,"c2_logsoc":1.0011862396204034,"itr_brut":0.4043427642182091,"itr_score":85.6,"itr_label":"Tres tendu"}},{"type":"Feature","geometry":{"type":"Point","coordinates":[2.366445,48.849907]},"properties":{"nom_voie":"BD BOURDON","code_postal":"75004","arrondissement":4,"code_iris":"751041501","prix_m2_median":12061.494252873563,"revenu_median_uc":33650.0,"nb_logements_sociaux":333,"nb_transactions":3,"c1_effort":0.35843965090263186,"c2_logsoc":1.0029940119760479,"itr_brut":0.35951282351012476,"itr_score":77.4,"itr_label":"Tendu"}},{"type":"Feature","geometry":{"type":"Point","coordinates":[2.317905,48.825278]},"properties":{"nom_voie":"BD BRUNE","code_postal":"75014","arrondissement":14,"code_iris":"751145504","prix_m2_median":7317.073170731707,"revenu_median_uc":37920.0,"nb_logements_sociaux":33,"nb_transactions":5,"c1_effort":0.19296079036739736,"c2_logsoc":1.0294117647058822,"itr_brut":0.19863610773114432,"itr_score":3.9,"itr_label":"Tres accessible"}},{"type":"Feature","geometry":{"type":"Point","coordinates":[2.409578,48.856811]},"properties":{"nom_voie":"BD DAVOUT","code_postal":"75020","arrondissement":20,"code_iris":"751208019","prix_m2_median":6812.701482914248,"revenu_median_uc":20540.0,"nb_logements_sociaux":153,"nb_transactions":10,"c1_effort":0.33167972166086895,"c2_logsoc":1.0064935064935066,"itr_brut":0.33383348608723823,"itr_score":69.7,"itr_label":"Tendu"}},{"type":"Feature","geometry":{"type":"Point","coordinates":[2.380557,48.868525]},"properties":{"nom_voie":"BD DE BELLEVILLE","code_postal":"75011","arrondissement":11,"code_iris":"751114101","prix_m2_median":8832.08494208494,"revenu_median_uc":26400.0,"nb_logements_sociaux":44,"nb_transactions":8,"c1_effort":0.334548672048672,"c2_logsoc":1.0222222222222221,"itr_brut":0.34198308698308694,"itr_score":73.4,"itr_label":"Tendu"}},{"type":"Feature","geometry":{"type":"Point","coordinates":[2.351885,48.870222]},"properties":{"nom_voie":"BD DE BONNE NOUVELLE","code_postal":"75010","arrondissement":10,"code_iris":"751103803","prix_m2_median":9284.851063829788,"revenu_median_uc":36870.0,"nb_logements_sociaux":135,"nb_transactions":4,"c1_effort":0.2518267172180577,"c2_logsoc":1.0073529411764706,"itr_brut":0.2536783842564258,"itr_score":24.4,"itr_label":"Accessible"}},{"type":"Feature","geometry":{"type":"Point","coordinates":[2.395463,48.853378]},"properties":{"nom_voie":"BD DE CHARONNE","code_postal":"75011","arrondissement":11,"code_iris":"751114410","prix_m2_median":9169.720758693362,"revenu_median_uc":32000.0,"nb_logements_sociaux":275,"nb_transactions":8,"c1_effort":0.28655377370916757,"c2_logsoc":1.0036231884057971,"itr_brut":0.287592012019708,"itr_score":47.4,"itr_label":"Modere"}},{"type":"Feature","geometry":{"type":"Point","coordinates":[2.3978,48.852532]},"properties":{"nom_voie":"BD DE CHARONNE","code_postal":"75020","arrondissement":20,"code_iris":"751208004","prix_m2_median":8619.285714285714,"revenu_median_uc":32680.0,"nb_logements_sociaux":81,"nb_transactions":11,"c1_effort":0.26374803287287985,"c2_logsoc":1.0121951219512195,"itr_brut":0.2669644722981589,"itr_score":34.4,"itr_label":"Accessible"}},{"type":"Feature","geometry":{"type":"Point","coordinates":[2.333151,48.883234]},"properties":{"nom_voie":"BD DE CLICHY","code_postal":"75009","arrondissement":9,"code_iris":"751093308","prix_m2_median":9000.0,"revenu_median_uc":33570.0,"nb_logements_sociaux":102,"nb_transactions":3,"c1_effort":0.2680965147453083,"c2_logsoc":1.0097087378640777,"itr_brut":0.2706993935292434,"itr_score":37.3,"itr_label":"Accessible"}},{"type":"Feature","geometry":{"type":"Point","coordinates":[2.334698,48.883698]},"properties":{"nom_voie":"BD DE CLICHY","code_postal":"75018","arrondissement":18,"code_iris":"751186902","prix_m2_median":9389.794685990339,"revenu_median_uc":29590.0,"nb_logements_sociaux":104,"nb_transactions":8,"c1_effort":0.3173299995265407,"c2_logsoc":1.0095238095238095,"itr_brut":0.320352189998222,"itr_score":64.6,"itr_label":"Tendu"}},{"type":"Feature","geometry":{"type":"Point","coordinates":[2.305456,48.879095]},"properties":{"nom_voie":"BD DE COURCELLES","code_postal":"75008","arrondissement":8,"code_iris":"751083002","prix_m2_median":11500.0,"revenu_median_uc":49520.0,"nb_logements_sociaux":241,"nb_transactions":5,"c1_effort":0.23222940226171243,"c2_logsoc":1.0041322314049588,"itr_brut":0.23318902789089307,"itr_score":13.8,"itr_label":"Tres accessible"}},{"type":"Feature","geometry":{"type":"Point","coordinates":[2.303268,48.8796]},"properties":{"nom_voie":"BD DE COURCELLES","code_postal":"75017","arrondissement":17,"code_iris":"751176604","prix_m2_median":14357.142857142857,"revenu_median_uc":54550.0,"nb_logements_sociaux":0,"nb_transactions":4,"c1_effort":0.2631923530182009,"c2_logsoc":2.0,"itr_brut":0.5263847060364018,"itr_score":95.4,"itr_label":"Tres tendu"}},{"type":"Feature","geometry":{"type":"Point","coordinates":[2.35403,48.879645]},"properties":{"nom_voie":"BD DE DENAIN","code_postal":"75010","arrondissement":10,"code_iris":"751103704","prix_m2_median":6689.189189189189,"revenu_median_uc":42600.0,"nb_logements_sociaux":186,"nb_transactions":3,"c1_effort":0.15702322040350208,"c2_logsoc":1.0053475935828877,"itr_brut":0.15786291676929623,"itr_score":0.8,"itr_label":"Tres accessible"}},{"type":"Feature","geometry":{"type":"Point","coordinates":[2.294154,48.850954]},"properties":{"nom_voie":"BD DE GRENELLE","code_postal":"75015","arrondissement":15,"code_iris":"751155915","prix_m2_median":9907.407407407409,"revenu_median_uc":38670.0,"nb_logements_sociaux":54,"nb_transactions":24,"c1_effort":0.2562039670909596,"c2_logsoc":1.018181818181818,"itr_brut":0.26086222103806794,"itr_score":30.1,"itr_label":"Accessible"}},{"type":"Feature","geometry":{"type":"Point","coordinates":[2.362487,48.841703]},"properties":{"nom_voie":"BD DE L HOPITAL","code_postal":"75005","arrondissement":5,"code_iris":"751051805","prix_m2_median":8796.625,"revenu_median_uc":32890.0,"nb_logements_sociaux":195,"nb_transactions":12,"c1_effort":0.26745591365156585,"c2_logsoc":1.0051020408163265,"itr_brut":0.268820484639584,"itr_score":35.6,"itr_label":"Accessible"}},{"type":"Feature","geometry":{"type":"Point","coordinates":[2.359454,48.837153]},"properties":{"nom_voie":"BD DE L HOPITAL","code_postal":"75013","arrondissement":13,"code_iris":"751134907","prix_m2_median":9165.0,"revenu_median_uc":33600.0,"nb_logements_sociaux":36,"nb_transactions":7,"c1_effort":0.2727678571428571,"c2_logsoc":1.027027027027027,"itr_brut":0.28013996138996133,"itr_score":42.5,"itr_label":"Modere"}},{"type":"Feature","geometry":{"type":"Point","coordinates":[2.358791,48.88395]},"properties":{"nom_voie":"BD DE LA CHAPELLE","code_postal":"75010","arrondissement":10,"code_iris":"751103708","prix_m2_median":6818.181818181818,"revenu_median_uc":31690.0,"nb_logements_sociaux":63,"nb_transactions":5,"c1_effort":0.2151524713847213,"c2_logsoc":1.015625,"itr_brut":0.21851422875010756,"itr_score":8.4,"itr_label":"Tres accessible"}},{"type":"Feature","geometry":{"type":"Point","coordinates":[2.326914,48.870127]},"properties":{"nom_voie":"BD DE LA MADELEINE","code_postal":"75009","arrondissement":9,"code_iris":"751093403","prix_m2_median":13571.42857142857,"revenu_median_uc":44620.0,"nb_logements_sociaux":24,"nb_transactions":3,"c1_effort":0.3041557277325991,"c2_logsoc":1.04,"itr_brut":0.31632195684190306,"itr_score":62.4,"itr_label":"Tendu"}},{"type":"Feature","geometry":{"type":"Point","coordinates":[2.310326,48.86003]},"properties":{"nom_voie":"BD DE LA TOUR MAUBOURG","code_postal":"75007","arrondissement":7,"code_iris":"751072603","prix_m2_median":24285.714285714286,"revenu_median_uc":44420.0,"nb_logements_sociaux":0,"nb_transactions":7,"c1_effort":0.546729272528462,"c2_logsoc":2.0,"itr_brut":1.093458545056924,"itr_score":100.0,"itr_label":"Tres tendu"}},{"type":"Feature","geometry":{"type":"Point","coordinates":[2.372256,48.875982]},"properties":{"nom_voie":"BD DE LA VILLETTE","code_postal":"75010","arrondissement":10,"code_iris":"751104006","prix_m2_median":8485.714285714286,"revenu_median_uc":27960.0,"nb_logements_sociaux":173,"nb_transactions":8,"c1_effort":0.3034947884733293,"c2_logsoc":1.0057471264367817,"itr_brut":0.3052390113955898,"itr_score":56.8,"itr_label":"Modere"}},{"type":"Feature","geometry":{"type":"Point","coordinates":[2.370281,48.880152]},"properties":{"nom_voie":"BD DE LA VILLETTE","code_postal":"75019","arrondissement":19,"code_iris":"751197301","prix_m2_median":7250.0,"revenu_median_uc":22980.0,"nb_logements_sociaux":312,"nb_transactions":10,"c1_effort":0.3154917319408181,"c2_logsoc":1.0031948881789137,"itr_brut":0.3164996927457408,"itr_score":62.5,"itr_label":"Tendu"}},{"type":"Feature","geometry":{"type":"Point","coordinates":[2.355528,48.876828]},"properties":{"nom_voie":"BD DE MAGENTA","code_postal":"75010","arrondissement":10,"code_iris":"751103704","prix_m2_median":8426.339285714286,"revenu_median_uc":42600.0,"nb_logements_sociaux":186,"nb_transactions":16,"c1_effort":0.19780139168343394,"c2_logsoc":1.0053475935828877,"itr_brut":0.19885915313628652,"itr_score":4.0,"itr_label":"Tres accessible"}},{"type":"Feature","geometry":{"type":"Point","coordinates":[2.386835,48.861777]},"properties":{"nom_voie":"BD DE MENILMONTANT","code_postal":"75011","arrondissement":11,"code_iris":"751114201","prix_m2_median":9318.181818181818,"revenu_median_uc":20620.0,"nb_logements_sociaux":237,"nb_transactions":3,"c1_effort":0.4519001851688563,"c2_logsoc":1.004201680672269,"itr_brut":0.453798925442675,"itr_score":91.2,"itr_label":"Tres tendu"}},{"type":"Feature","geometry":{"type":"Point","coordinates":[2.387032,48.863284]},"properties":{"nom_voie":"BD DE MENILMONTANT","code_postal":"75020","arrondissement":20,"code_iris":"751207906","prix_m2_median":9165.408805031446,"revenu_median_uc":18300.0,"nb_logements_sociaux":105,"nb_transactions":8,"c1_effort":0.5008420112039041,"c2_logsoc":1.009433962264151,"itr_brut":0.5055669358379034,"itr_score":93.9,"itr_label":"Tres tendu"}},{"type":"Feature","geometry":{"type":"Point","coordinates":[2.262309,48.850984]},"properties":{"nom_voie":"BD DE MONTMORENCY","code_postal":"75016","arrondissement":16,"code_iris":"751166120","prix_m2_median":11894.799095022625,"revenu_median_uc":57080.0,"nb_logements_sociaux":0,"nb_transactions":6,"c1_effort":0.20838821119521067,"c2_logsoc":2.0,"itr_brut":0.41677642239042134,"itr_score":88.0,"itr_label":"Tres tendu"}},{"type":"Feature","geometry":{"type":"Point","coordinates":[2.400209,48.843356]},"properties":{"nom_voie":"BD DE PICPUS","code_postal":"75012","arrondissement":12,"code_iris":"751124615","prix_m2_median":10352.430555555555,"revenu_median_uc":33780.0,"nb_logements_sociaux":157,"nb_transactions":8,"c1_effort":0.3064662686665351,"c2_logsoc":1.0063291139240507,"itr_brut":0.3084059285948043,"itr_score":58.0,"itr_label":"Modere"}},{"type":"Feature","geometry":{"type":"Point","coordinates":[2.343281,48.838522]},"properties":{"nom_voie":"BD DE PORT-ROYAL","code_postal":"75005","arrondissement":5,"code_iris":"751051901","prix_m2_median":11582.244318181818,"revenu_median_uc":40770.0,"nb_logements_sociaux":32,"nb_transactions":6,"c1_effort":0.2840874250228555,"c2_logsoc":1.0303030303030303,"itr_brut":0.29269613487203294,"itr_score":50.6,"itr_label":"Modere"}},{"type":"Feature","geometry":{"type":"Point","coordinates":[2.347019,48.83705]},"properties":{"nom_voie":"BD DE PORT-ROYAL","code_postal":"75013","arrondissement":13,"code_iris":"751135207","prix_m2_median":8170.75,"revenu_median_uc":41390.0,"nb_logements_sociaux":25,"nb_transactions":5,"c1_effort":0.19740879439478135,"c2_logsoc":1.0384615384615385,"itr_brut":0.20500144033304218,"itr_score":4.7,"itr_label":"Tres accessible"}},{"type":"Feature","geometry":{"type":"Point","coordinates":[2.394853,48.839286]},"properties":{"nom_voie":"BD DE REUILLY","code_postal":"75012","arrondissement":12,"code_iris":"751124611","prix_m2_median":8571.90518783542,"revenu_median_uc":37750.0,"nb_logements_sociaux":36,"nb_transactions":22,"c1_effort":0.22707033610160055,"c2_logsoc":1.027027027027027,"itr_brut":0.2332073722124546,"itr_score":13.9,"itr_label":"Tres accessible"}},{"type":"Feature","geometry":{"type":"Point","coordinates":[2.35627,48.872926]},"properties":{"nom_voie":"BD DE STRASBOURG","code_postal":"75010","arrondissement":10,"code_iris":"751103906","prix_m2_median":8747.945205479453,"revenu_median_uc":33950.0,"nb_logements_sociaux":126,"nb_transactions":9,"c1_effort":0.2576714346238425,"c2_logsoc":1.0078740157480315,"itr_brut":0.2597003435578885,"itr_score":28.7,"itr_label":"Accessible"}},{"type":"Feature","geometry":{"type":"Point","coordinates":[2.316605,48.841198]},"properties":{"nom_voie":"BD DE VAUGIRARD","code_postal":"75015","arrondissement":15,"code_iris":"751155816","prix_m2_median":8817.135549872122,"revenu_median_uc":46170.0,"nb_logements_sociaux":140,"nb_transactions":6,"c1_effort":0.1909710970299355,"c2_logsoc":1.0070921985815602,"itr_brut":0.1923255019734102,"itr_score":3.1,"itr_label":"Tres accessible"}},{"type":"Feature","geometry":{"type":"Point","coordinates":[2.323473,48.882323]},"properties":{"nom_voie":"BD DES BATIGNOLLES","code_postal":"75008","arrondissement":8,"code_iris":"751083206","prix_m2_median":9047.619047619048,"revenu_median_uc":49050.0,"nb_logements_sociaux":15,"nb_transactions":3,"c1_effort":0.18445706519101016,"c2_logsoc":1.0625,"itr_brut":0.19598563176544828,"itr_score":3.4,"itr_label":"Tres accessible"}},{"type":"Feature","geometry":{"type":"Point","coordinates":[2.321366,48.88268]},"properties":{"nom_voie":"BD DES BATIGNOLLES","code_postal":"75017","arrondissement":17,"code_iris":"751176702","prix_m2_median":11351.351351351352,"revenu_median_uc":43680.0,"nb_logements_sociaux":135,"nb_transactions":3,"c1_effort":0.2598752598752599,"c2_logsoc":1.0073529411764706,"itr_brut":0.26178610737434266,"itr_score":30.5,"itr_label":"Accessible"}},{"type":"Feature","geometry":{"type":"Point","coordinates":[2.315588,48.848812]},"properties":{"nom_voie":"BD DES INVALIDES","code_postal":"75007","arrondissement":7,"code_iris":"751072701","prix_m2_median":15065.481927710844,"revenu_median_uc":46930.0,"nb_logements_sociaux":10,"nb_transactions":3,"c1_effort":0.3210202839912816,"c2_logsoc":1.0909090909090908,"itr_brut":0.35020394617230716,"itr_score":75.4,"itr_label":"Tendu"}},{"type":"Feature","geometry":{"type":"Point","coordinates":[2.383571,48.846867]},"properties":{"nom_voie":"BD DIDEROT","code_postal":"75012","arrondissement":12,"code_iris":"751124801","prix_m2_median":8741.195551436515,"revenu_median_uc":29910.0,"nb_logements_sociaux":308,"nb_transactions":10,"c1_effort":0.29224993485244116,"c2_logsoc":1.0032362459546926,"itr_brut":0.29319572752186657,"itr_score":50.9,"itr_label":"Modere"}},{"type":"Feature","geometry":{"type":"Point","coordinates":[2.326486,48.843433]},"properties":{"nom_voie":"BD DU MONTPARNASSE","code_postal":"75006","arrondissement":6,"code_iris":"751062301","prix_m2_median":12976.190476190477,"revenu_median_uc":55240.0,"nb_logements_sociaux":0,"nb_transactions":14,"c1_effort":0.23490569290714114,"c2_logsoc":2.0,"itr_brut":0.4698113858142823,"itr_score":92.3,"itr_label":"Tres tendu"}},{"type":"Feature","geometry":{"type":"Point","coordinates":[2.333371,48.840317]},"properties":{"nom_voie":"BD DU MONTPARNASSE","code_postal":"75014","arrondissement":14,"code_iris":"751145309","prix_m2_median":12055.614337568059,"revenu_median_uc":47640.0,"nb_logements_sociaux":44,"nb_transactions":8,"c1_effort":0.25305655620419937,"c2_logsoc":1.0222222222222221,"itr_brut":0.25868003523095934,"itr_score":27.8,"itr_label":"Accessible"}},{"type":"Feature","geometry":{"type":"Point","coordinates":[2.319021,48.84519]},"properties":{"nom_voie":"BD DU MONTPARNASSE","code_postal":"75015","arrondissement":15,"code_iris":"751155814","prix_m2_median":10439.560439560439,"revenu_median_uc":43770.0,"nb_logements_sociaux":84,"nb_transactions":5,"c1_effort":0.23850949142244549,"c2_logsoc":1.011764705882353,"itr_brut":0.24131548543918013,"itr_score":17.5,"itr_label":"Tres accessible"}},{"type":"Feature","geometry":{"type":"Point","coordinates":[2.365487,48.864158]},"properties":{"nom_voie":"BD DU TEMPLE","code_postal":"75003","arrondissement":3,"code_iris":"751031002","prix_m2_median":10795.454545454546,"revenu_median_uc":42150.0,"nb_logements_sociaux":98,"nb_transactions":3,"c1_effort":0.25611991804162626,"c2_logsoc":1.0101010101010102,"itr_brut":0.25870698792083463,"itr_score":27.9,"itr_label":"Accessible"}},{"type":"Feature","geometry":{"type":"Point","coordinates":[2.365979,48.865225]},"properties":{"nom_voie":"BD DU TEMPLE","code_postal":"75011","arrondissement":11,"code_iris":"751114106","prix_m2_median":11471.51590909091,"revenu_median_uc":37380.0,"nb_logements_sociaux":129,"nb_transactions":10,"c1_effort":0.3068891361447541,"c2_logsoc":1.0076923076923077,"itr_brut":0.30924982180740607,"itr_score":58.6,"itr_label":"Modere"}},{"type":"Feature","geometry":{"type":"Point","coordinates":[2.327536,48.840442]},"properties":{"nom_voie":"BD EDGAR QUINET","code_postal":"75014","arrondissement":14,"code_iris":"751145308","prix_m2_median":11318.181818181818,"revenu_median_uc":35040.0,"nb_logements_sociaux":29,"nb_transactions":7,"c1_effort":0.32300747198007473,"c2_logsoc":1.0333333333333334,"itr_brut":0.3337743877127439,"itr_score":69.6,"itr_label":"Tendu"}},{"type":"Feature","geometry":{"type":"Point","coordinates":[2.261666,48.843257]},"properties":{"nom_voie":"BD EXELMANS","code_postal":"75016","arrondissement":16,"code_iris":"751166109","prix_m2_median":9055.714285714286,"revenu_median_uc":47820.0,"nb_logements_sociaux":89,"nb_transactions":17,"c1_effort":0.18937085499193404,"c2_logsoc":1.011111111111111,"itr_brut":0.1914749756029555,"itr_score":2.6,"itr_label":"Tres accessible"}},{"type":"Feature","geometry":{"type":"Point","coordinates":[2.273419,48.86682]},"properties":{"nom_voie":"BD FLANDRIN","code_postal":"75016","arrondissement":16,"code_iris":"751166304","prix_m2_median":11280.0,"revenu_median_uc":56120.0,"nb_logements_sociaux":0,"nb_transactions":15,"c1_effort":0.20099786172487527,"c2_logsoc":2.0,"itr_brut":0.40199572344975054,"itr_score":85.2,"itr_label":"Tres tendu"}},{"type":"Feature","geometry":{"type":"Point","coordinates":[2.304138,48.846571]},"properties":{"nom_voie":"BD GARIBALDI","code_postal":"75015","arrondissement":15,"code_iris":"751155811","prix_m2_median":10194.174757281553,"revenu_median_uc":43130.0,"nb_logements_sociaux":16,"nb_transactions":5,"c1_effort":0.236359257066579,"c2_logsoc":1.0588235294117647,"itr_brut":0.2502627427763778,"itr_score":22.4,"itr_label":"Accessible"}},{"type":"Feature","geometry":{"type":"Point","coordinates":[2.287673,48.882724]},"properties":{"nom_voie":"BD GOUVION ST-CYR","code_postal":"75017","arrondissement":17,"code_iris":"751176507","prix_m2_median":10540.54054054054,"revenu_median_uc":44100.0,"nb_logements_sociaux":41,"nb_transactions":7,"c1_effort":0.23901452472881043,"c2_logsoc":1.0238095238095237,"itr_brut":0.24470534674616304,"itr_score":19.3,"itr_label":"Tres accessible"}},{"type":"Feature","geometry":{"type":"Point","coordinates":[2.313373,48.875127]},"properties":{"nom_voie":"BD HAUSSMANN","code_postal":"75008","arrondissement":8,"code_iris":"751083209","prix_m2_median":12456.596153846154,"revenu_median_uc":55720.0,"nb_logements_sociaux":39,"nb_transactions":7,"c1_effort":0.22355700204318296,"c2_logsoc":1.025,"itr_brut":0.2291459270942625,"itr_score":12.0,"itr_label":"Tres accessible"}},{"type":"Feature","geometry":{"type":"Point","coordinates":[2.364813,48.851957]},"properties":{"nom_voie":"BD HENRI IV","code_postal":"75004","arrondissement":4,"code_iris":"751041501","prix_m2_median":12158.687943262412,"revenu_median_uc":33650.0,"nb_logements_sociaux":333,"nb_transactions":6,"c1_effort":0.361328022088036,"c2_logsoc":1.0029940119760479,"itr_brut":0.36240984251344927,"itr_score":78.1,"itr_label":"Tendu"}},{"type":"Feature","geometry":{"type":"Point","coordinates":[2.343344,48.820108]},"properties":{"nom_voie":"BD JOURDAN","code_postal":"75014","arrondissement":14,"code_iris":"751145402","prix_m2_median":7475.091575091576,"revenu_median_uc":41170.0,"nb_logements_sociaux":94,"nb_transactions":6,"c1_effort":0.18156647012610094,"c2_logsoc":1.0105263157894737,"itr_brut":0.1834776961274283,"itr_score":1.6,"itr_label":"Tres accessible"}},{"type":"Feature","geometry":{"type":"Point","coordinates":[2.345656,48.820082]},"properties":{"nom_voie":"BD KELLERMANN","code_postal":"75013","arrondissement":13,"code_iris":"751135110","prix_m2_median":7517.241379310345,"revenu_median_uc":26250.0,"nb_logements_sociaux":579,"nb_transactions":3,"c1_effort":0.28637110016420364,"c2_logsoc":1.0017241379310344,"itr_brut":0.2868648434403488,"itr_score":46.8,"itr_label":"Modere"}},{"type":"Feature","geometry":{"type":"Point","coordinates":[2.293515,48.831132]},"properties":{"nom_voie":"BD LEFEBVRE","code_postal":"75015","arrondissement":15,"code_iris":"751155706","prix_m2_median":7818.181818181818,"revenu_median_uc":39560.0,"nb_logements_sociaux":2,"nb_transactions":9,"c1_effort":0.1976284584980237,"c2_logsoc":1.3333333333333333,"itr_brut":0.26350461133069825,"itr_score":32.5,"itr_label":"Accessible"}},{"type":"Feature","geometry":{"type":"Point","coordinates":[2.31743,48.876812]},"properties":{"nom_voie":"BD MALESHERBES","code_postal":"75008","arrondissement":8,"code_iris":"751083204","prix_m2_median":12060.0734375,"revenu_median_uc":62420.0,"nb_logements_sociaux":6,"nb_transactions":13,"c1_effort":0.19320848185677666,"c2_logsoc":1.1428571428571428,"itr_brut":0.2208096935506019,"itr_score":9.2,"itr_label":"Tres accessible"}},{"type":"Feature","geometry":{"type":"Point","coordinates":[2.307069,48.886158]},"properties":{"nom_voie":"BD MALESHERBES","code_postal":"75017","arrondissement":17,"code_iris":"751176602","prix_m2_median":9991.436657681941,"revenu_median_uc":50460.0,"nb_logements_sociaux":137,"nb_transactions":10,"c1_effort":0.1980070681268716,"c2_logsoc":1.0072463768115942,"itr_brut":0.19944190195387793,"itr_score":4.1,"itr_label":"Tres accessible"}},{"type":"Feature","geometry":{"type":"Point","coordinates":[2.345697,48.882812]},"properties":{"nom_voie":"BD MARGUERITE DE ROCHECHOUART","code_postal":"75009","arrondissement":9,"code_iris":"751093609","prix_m2_median":10194.813409234663,"revenu_median_uc":41260.0,"nb_logements_sociaux":11,"nb_transactions":6,"c1_effort":0.2470870918379705,"c2_logsoc":1.0833333333333333,"itr_brut":0.267677682824468,"itr_score":34.7,"itr_label":"Accessible"}},{"type":"Feature","geometry":{"type":"Point","coordinates":[2.342894,48.883038]},"properties":{"nom_voie":"BD MARGUERITE DE ROCHECHOUART","code_postal":"75018","arrondissement":18,"code_iris":"751187002","prix_m2_median":9036.764705882353,"revenu_median_uc":34060.0,"nb_logements_sociaux":0,"nb_transactions":5,"c1_effort":0.2653189872543263,"c2_logsoc":2.0,"itr_brut":0.5306379745086526,"itr_score":95.6,"itr_label":"Tres tendu"}},{"type":"Feature","geometry":{"type":"Point","coordinates":[2.366071,48.821037]},"properties":{"nom_voie":"BD MASSENA","code_postal":"75013","arrondissement":13,"code_iris":"751135004","prix_m2_median":5312.5,"revenu_median_uc":15710.0,"nb_logements_sociaux":0,"nb_transactions":7,"c1_effort":0.33816040738383196,"c2_logsoc":2.0,"itr_brut":0.6763208147676639,"itr_score":99.0,"itr_label":"Tres tendu"}},{"type":"Feature","geometry":{"type":"Point","coordinates":[2.365022,48.848328]},"properties":{"nom_voie":"BD MORLAND","code_postal":"75004","arrondissement":4,"code_iris":"751041501","prix_m2_median":12272.727272727272,"revenu_median_uc":33650.0,"nb_logements_sociaux":333,"nb_transactions":5,"c1_effort":0.36471700661893824,"c2_logsoc":1.0029940119760479,"itr_brut":0.3658089737046237,"itr_score":78.9,"itr_label":"Tendu"}},{"type":"Feature","geometry":{"type":"Point","coordinates":[2.408523,48.867609]},"properties":{"nom_voie":"BD MORTIER","code_postal":"75020","arrondissement":20,"code_iris":"751207802","prix_m2_median":7531.565656565657,"revenu_median_uc":28140.0,"nb_logements_sociaux":255,"nb_transactions":4,"c1_effort":0.2676462564522266,"c2_logsoc":1.00390625,"itr_brut":0.2686917496414931,"itr_score":35.4,"itr_label":"Accessible"}},{"type":"Feature","geometry":{"type":"Point","coordinates":[2.260552,48.840977]},"properties":{"nom_voie":"BD MURAT","code_postal":"75016","arrondissement":16,"code_iris":"751166102","prix_m2_median":9211.87275985663,"revenu_median_uc":29760.0,"nb_logements_sociaux":32,"nb_transactions":14,"c1_effort":0.30953873521023617,"c2_logsoc":1.0303030303030303,"itr_brut":0.3189186968832736,"itr_score":63.9,"itr_label":"Tendu"}},{"type":"Feature","geometry":{"type":"Point","coordinates":[2.333316,48.897452]},"properties":{"nom_voie":"BD NEY","code_postal":"75018","arrondissement":18,"code_iris":"751186924","prix_m2_median":7177.33918128655,"revenu_median_uc":22670.0,"nb_logements_sociaux":164,"nb_transactions":8,"c1_effort":0.3166007578864821,"c2_logsoc":1.006060606060606,"itr_brut":0.3185195503585214,"itr_score":63.7,"itr_label":"Tendu"}},{"type":"Feature","geometry":{"type":"Point","coordinates":[2.347036,48.894692]},"properties":{"nom_voie":"BD ORNANO","code_postal":"75018","arrondissement":18,"code_iris":"751187019","prix_m2_median":7691.176470588235,"revenu_median_uc":25530.0,"nb_logements_sociaux":170,"nb_transactions":23,"c1_effort":0.30126033962351095,"c2_logsoc":1.0058479532163742,"itr_brut":0.3030220959955783,"itr_score":55.3,"itr_label":"Modere"}},{"type":"Feature","geometry":{"type":"Point","coordinates":[2.297497,48.884216]},"properties":{"nom_voie":"BD PEREIRE","code_postal":"75017","arrondissement":17,"code_iris":"751176611","prix_m2_median":10671.79802955665,"revenu_median_uc":56810.0,"nb_logements_sociaux":43,"nb_transactions":26,"c1_effort":0.18785069582039518,"c2_logsoc":1.0227272727272727,"itr_brut":0.19212002981631324,"itr_score":3.0,"itr_label":"Tres accessible"}},{"type":"Feature","geometry":{"type":"Point","coordinates":[2.403098,48.834129]},"properties":{"nom_voie":"BD PONIATOWSKI","code_postal":"75012","arrondissement":12,"code_iris":"751124602","prix_m2_median":8617.021276595744,"revenu_median_uc":32840.0,"nb_logements_sociaux":231,"nb_transactions":7,"c1_effort":0.26239407054189234,"c2_logsoc":1.0043103448275863,"itr_brut":0.2635250794666419,"itr_score":32.5,"itr_label":"Accessible"}},{"type":"Feature","geometry":{"type":"Point","coordinates":[2.328711,48.844798]},"properties":{"nom_voie":"BD RASPAIL","code_postal":"75006","arrondissement":6,"code_iris":"751062303","prix_m2_median":16732.666045934202,"revenu_median_uc":50740.0,"nb_logements_sociaux":26,"nb_transactions":4,"c1_effort":0.3297726851780489,"c2_logsoc":1.037037037037037,"itr_brut":0.34198648833279144,"itr_score":73.4,"itr_label":"Tendu"}},{"type":"Feature","geometry":{"type":"Point","coordinates":[2.326417,48.853663]},"properties":{"nom_voie":"BD RASPAIL","code_postal":"75007","arrondissement":7,"code_iris":"751072501","prix_m2_median":27260.794392523363,"revenu_median_uc":61170.0,"nb_logements_sociaux":0,"nb_transactions":6,"c1_effort":0.445656275830037,"c2_logsoc":2.0,"itr_brut":0.891312551660074,"itr_score":99.8,"itr_label":"Tres tendu"}},{"type":"Feature","geometry":{"type":"Point","coordinates":[2.330232,48.839367]},"properties":{"nom_voie":"BD RASPAIL","code_postal":"75014","arrondissement":14,"code_iris":"751145308","prix_m2_median":10147.435897435898,"revenu_median_uc":35040.0,"nb_logements_sociaux":29,"nb_transactions":8,"c1_effort":0.28959577332865005,"c2_logsoc":1.0333333333333334,"itr_brut":0.2992489657729384,"itr_score":53.6,"itr_label":"Modere"}},{"type":"Feature","geometry":{"type":"Point","coordinates":[2.371905,48.860708]},"properties":{"nom_voie":"BD RICHARD LENOIR","code_postal":"75011","arrondissement":11,"code_iris":"751114208","prix_m2_median":10631.578947368422,"revenu_median_uc":42990.0,"nb_logements_sociaux":32,"nb_transactions":19,"c1_effort":0.24730353448170322,"c2_logsoc":1.0303030303030303,"itr_brut":0.2547975809811488,"itr_score":25.1,"itr_label":"Accessible"}},{"type":"Feature","geometry":{"type":"Point","coordinates":[2.351336,48.84968]},"properties":{"nom_voie":"BD SAINT GERMAIN","code_postal":"75005","arrondissement":5,"code_iris":"751051704","prix_m2_median":13093.023255813954,"revenu_median_uc":43520.0,"nb_logements_sociaux":34,"nb_transactions":7,"c1_effort":0.30085071819425446,"c2_logsoc":1.0285714285714285,"itr_brut":0.30944645299980456,"itr_score":58.7,"itr_label":"Modere"}},{"type":"Feature","geometry":{"type":"Point","coordinates":[2.323752,48.859125]},"properties":{"nom_voie":"BD SAINT GERMAIN","code_postal":"75007","arrondissement":7,"code_iris":"751072604","prix_m2_median":18363.636363636364,"revenu_median_uc":58780.0,"nb_logements_sociaux":253,"nb_transactions":6,"c1_effort":0.3124130038046336,"c2_logsoc":1.0039370078740157,"itr_brut":0.31364297626055737,"itr_score":60.8,"itr_label":"Tendu"}},{"type":"Feature","geometry":{"type":"Point","coordinates":[2.357312,48.838902]},"properties":{"nom_voie":"BD SAINT MARCEL","code_postal":"75005","arrondissement":5,"code_iris":"751051801","prix_m2_median":11509.433962264151,"revenu_median_uc":41360.0,"nb_logements_sociaux":10,"nb_transactions":7,"c1_effort":0.27827451552863036,"c2_logsoc":1.0909090909090908,"itr_brut":0.30357219875850583,"itr_score":55.7,"itr_label":"Modere"}},{"type":"Feature","geometry":{"type":"Point","coordinates":[2.357148,48.83813]},"properties":{"nom_voie":"BD SAINT MARCEL","code_postal":"75013","arrondissement":13,"code_iris":"751134906","prix_m2_median":9666.666666666666,"revenu_median_uc":38020.0,"nb_logements_sociaux":2,"nb_transactions":5,"c1_effort":0.25425214799228474,"c2_logsoc":1.3333333333333333,"itr_brut":0.33900286398971297,"itr_score":72.2,"itr_label":"Tendu"}},{"type":"Feature","geometry":{"type":"Point","coordinates":[2.358556,48.86824]},"properties":{"nom_voie":"BD SAINT MARTIN","code_postal":"75003","arrondissement":3,"code_iris":"751030901","prix_m2_median":10648.321678321678,"revenu_median_uc":36130.0,"nb_logements_sociaux":126,"nb_transactions":6,"c1_effort":0.29472243781681917,"c2_logsoc":1.0078740157480315,"itr_brut":0.297043086933487,"itr_score":52.7,"itr_label":"Modere"}},{"type":"Feature","geometry":{"type":"Point","coordinates":[2.339467,48.84384]},"properties":{"nom_voie":"BD SAINT MICHEL","code_postal":"75005","arrondissement":5,"code_iris":"751051905","prix_m2_median":11642.857142857143,"revenu_median_uc":57290.0,"nb_logements_sociaux":30,"nb_transactions":7,"c1_effort":0.2032266912699798,"c2_logsoc":1.032258064516129,"itr_brut":0.20978239098836624,"itr_score":5.9,"itr_label":"Tres accessible"}},{"type":"Feature","geometry":{"type":"Point","coordinates":[2.341126,48.848648]},"properties":{"nom_voie":"BD SAINT MICHEL","code_postal":"75006","arrondissement":6,"code_iris":"751062101","prix_m2_median":17192.092457420928,"revenu_median_uc":44890.0,"nb_logements_sociaux":0,"nb_transactions":4,"c1_effort":0.3829826789356411,"c2_logsoc":2.0,"itr_brut":0.7659653578712822,"itr_score":99.5,"itr_label":"Tres tendu"}},{"type":"Feature","geometry":{"type":"Point","coordinates":[2.403143,48.879164]},"properties":{"nom_voie":"BD SERURIER","code_postal":"75019","arrondissement":19,"code_iris":"751197501","prix_m2_median":6410.25641025641,"revenu_median_uc":25190.0,"nb_logements_sociaux":86,"nb_transactions":7,"c1_effort":0.2544762370089881,"c2_logsoc":1.0114942528735633,"itr_brut":0.2574012512274822,"itr_score":27.0,"itr_label":"Accessible"}},{"type":"Feature","geometry":{"type":"Point","coordinates":[2.409019,48.841725]},"properties":{"nom_voie":"BD SOULT","code_postal":"75012","arrondissement":12,"code_iris":"751124503","prix_m2_median":7667.218253968254,"revenu_median_uc":32190.0,"nb_logements_sociaux":12,"nb_transactions":10,"c1_effort":0.23818633904840802,"c2_logsoc":1.0769230769230769,"itr_brut":0.2565083651290548,"itr_score":26.3,"itr_label":"Accessible"}},{"type":"Feature","geometry":{"type":"Point","coordinates":[2.263139,48.854893]},"properties":{"nom_voie":"BD SUCHET","code_postal":"75016","arrondissement":16,"code_iris":"751166121","prix_m2_median":9857.142857142857,"revenu_median_uc":35630.0,"nb_logements_sociaux":231,"nb_transactions":5,"c1_effort":0.27665290084599653,"c2_logsoc":1.0043103448275863,"itr_brut":0.2778453702461948,"itr_score":41.0,"itr_label":"Modere"}},{"type":"Feature","geometry":{"type":"Point","coordinates":[2.367215,48.834782]},"properties":{"nom_voie":"BD VINCENT AURIOL","code_postal":"75013","arrondissement":13,"code_iris":"751134901","prix_m2_median":8416.53448275862,"revenu_median_uc":26450.0,"nb_logements_sociaux":781,"nb_transactions":8,"c1_effort":0.31820546248614817,"c2_logsoc":1.0012787723785166,"itr_brut":0.31861237484226856,"itr_score":63.8,"itr_label":"Tendu"}},{"type":"Feature","geometry":{"type":"Point","coordinates":[2.380739,48.857421]},"properties":{"nom_voie":"BD VOLTAIRE","code_postal":"75011","arrondissement":11,"code_iris":"751114206","prix_m2_median":10184.022556390977,"revenu_median_uc":27770.0,"nb_logements_sociaux":40,"nb_transactions":44,"c1_effort":0.36672749572887925,"c2_logsoc":1.024390243902439,"itr_brut":0.3756720687954373,"itr_score":80.9,"itr_label":"Tres tendu"}},{"type":"Feature","geometry":{"type":"Point","coordinates":[2.345075,48.879496]},"properties":{"nom_voie":"CITE CONDORCET","code_postal":"75009","arrondissement":9,"code_iris":"751093605","prix_m2_median":11000.0,"revenu_median_uc":41840.0,"nb_logements_sociaux":0,"nb_transactions":3,"c1_effort":0.26290630975143403,"c2_logsoc":2.0,"itr_brut":0.5258126195028681,"itr_score":95.3,"itr_label":"Tres tendu"}},{"type":"Feature","geometry":{"type":"Point","coordinates":[2.346759,48.874916]},"properties":{"nom_voie":"CITE DE TREVISE","code_postal":"75009","arrondissement":9,"code_iris":"751093503","prix_m2_median":10154.566563467492,"revenu_median_uc":43620.0,"nb_logements_sociaux":105,"nb_transactions":4,"c1_effort":0.2327961156228219,"c2_logsoc":1.009433962264151,"itr_brut":0.23499230539284854,"itr_score":14.6,"itr_label":"Tres accessible"}},{"type":"Feature","geometry":{"type":"Point","coordinates":[2.386987,48.843573]},"properties":{"nom_voie":"CITE MOYNET","code_postal":"75012","arrondissement":12,"code_iris":"751124619","prix_m2_median":2232.1428571428573,"revenu_median_uc":28970.0,"nb_logements_sociaux":97,"nb_transactions":3,"c1_effort":0.07705015040189359,"c2_logsoc":1.010204081632653,"itr_brut":0.07783637642640269,"itr_score":0.3,"itr_label":"Tres accessible"}},{"type":"Feature","geometry":{"type":"Point","coordinates":[2.403658,48.847138]},"properties":{"nom_voie":"CRS DE VINCENNES","code_postal":"75012","arrondissement":12,"code_iris":"751124514","prix_m2_median":7805.347619047619,"revenu_median_uc":40670.0,"nb_logements_sociaux":267,"nb_transactions":12,"c1_effort":0.19191904644818342,"c2_logsoc":1.0037313432835822,"itr_brut":0.19263516229313934,"itr_score":3.2,"itr_label":"Tres accessible"}},{"type":"Feature","geometry":{"type":"Point","coordinates":[2.405292,48.848109]},"properties":{"nom_voie":"CRS DE VINCENNES","code_postal":"75020","arrondissement":20,"code_iris":"751208002","prix_m2_median":6020.136778115502,"revenu_median_uc":25510.0,"nb_logements_sociaux":3,"nb_transactions":4,"c1_effort":0.23599124963212476,"c2_logsoc":1.25,"itr_brut":0.29498906204015596,"itr_score":51.5,"itr_label":"Modere"}},{"type":"Feature","geometry":{"type":"Point","coordinates":[2.392256,48.85233]},"properties":{"nom_voie":"IMP DES JARDINIERS","code_postal":"75011","arrondissement":11,"code_iris":"751114409","prix_m2_median":8979.591836734693,"revenu_median_uc":33550.0,"nb_logements_sociaux":271,"nb_transactions":3,"c1_effort":0.2676480428236868,"c2_logsoc":1.0036764705882353,"itr_brut":0.26863204298112686,"itr_score":35.2,"itr_label":"Accessible"}},{"type":"Feature","geometry":{"type":"Point","coordinates":[2.395277,48.852005]},"properties":{"nom_voie":"IMP DU BUREAU","code_postal":"75011","arrondissement":11,"code_iris":"751114410","prix_m2_median":8823.529411764706,"revenu_median_uc":32000.0,"nb_logements_sociaux":275,"nb_transactions":3,"c1_effort":0.2757352941176471,"c2_logsoc":1.0036231884057971,"itr_brut":0.2767343350383632,"itr_score":40.0,"itr_label":"Accessible"}},{"type":"Feature","geometry":{"type":"Point","coordinates":[2.371238,48.861065]},"properties":{"nom_voie":"IMP SAINT SEBASTIEN","code_postal":"75011","arrondissement":11,"code_iris":"751114208","prix_m2_median":13331.333333333334,"revenu_median_uc":42990.0,"nb_logements_sociaux":32,"nb_transactions":4,"c1_effort":0.3101031247576956,"c2_logsoc":1.0303030303030303,"itr_brut":0.3195001891442924,"itr_score":64.1,"itr_label":"Tendu"}},{"type":"Feature","geometry":{"type":"Point","coordinates":[2.374094,48.863519]},"properties":{"nom_voie":"PAS BESLAY","code_postal":"75011","arrondissement":11,"code_iris":"751114210","prix_m2_median":10906.25,"revenu_median_uc":32220.0,"nb_logements_sociaux":140,"nb_transactions":3,"c1_effort":0.33849317194289263,"c2_logsoc":1.0070921985815602,"itr_brut":0.34089383273681384,"itr_score":72.6,"itr_label":"Tendu"}},{"type":"Feature","geometry":{"type":"Point","coordinates":[2.376449,48.855352]},"properties":{"nom_voie":"PAS BULLOURDE","code_postal":"75011","arrondissement":11,"code_iris":"751114309","prix_m2_median":10208.333333333332,"revenu_median_uc":30470.0,"nb_logements_sociaux":101,"nb_transactions":8,"c1_effort":0.33502899026364724,"c2_logsoc":1.0098039215686274,"itr_brut":0.3383135882074085,"itr_score":71.9,"itr_label":"Tendu"}},{"type":"Feature","geometry":{"type":"Point","coordinates":[2.346096,48.887796]},"properties":{"nom_voie":"PAS COTTIN","code_postal":"75018","arrondissement":18,"code_iris":"751187009","prix_m2_median":9629.62962962963,"revenu_median_uc":34190.0,"nb_logements_sociaux":125,"nb_transactions":3,"c1_effort":0.2816504717645402,"c2_logsoc":1.007936507936508,"itr_brut":0.28388579296902067,"itr_score":45.0,"itr_label":"Modere"}},{"type":"Feature","geometry":{"type":"Point","coordinates":[2.38655,48.85688]},"properties":{"nom_voie":"PAS COURTOIS","code_postal":"75011","arrondissement":11,"code_iris":"751114304","prix_m2_median":9687.5,"revenu_median_uc":31240.0,"nb_logements_sociaux":20,"nb_transactions":3,"c1_effort":0.3100992317541613,"c2_logsoc":1.0476190476190477,"itr_brut":0.32486586183769284,"itr_score":66.6,"itr_label":"Tendu"}},{"type":"Feature","geometry":{"type":"Point","coordinates":[2.360584,48.873982]},"properties":{"nom_voie":"PAS DES RECOLLETS","code_postal":"75010","arrondissement":10,"code_iris":"751103910","prix_m2_median":8416.666666666668,"revenu_median_uc":37970.0,"nb_logements_sociaux":151,"nb_transactions":4,"c1_effort":0.2216662277236415,"c2_logsoc":1.006578947368421,"itr_brut":0.22312455816919177,"itr_score":10.0,"itr_label":"Tres accessible"}},{"type":"Feature","geometry":{"type":"Point","coordinates":[2.292029,48.878264]},"properties":{"nom_voie":"PAS DOISY","code_postal":"75017","arrondissement":17,"code_iris":"751176503","prix_m2_median":10500.0,"revenu_median_uc":47480.0,"nb_logements_sociaux":13,"nb_transactions":4,"c1_effort":0.22114574557708508,"c2_logsoc":1.0714285714285714,"itr_brut":0.2369418702611626,"itr_score":16.0,"itr_label":"Tres accessible"}},{"type":"Feature","geometry":{"type":"Point","coordinates":[2.347314,48.896159]},"properties":{"nom_voie":"PAS DUHESME","code_postal":"75018","arrondissement":18,"code_iris":"751187026","prix_m2_median":6375.0,"revenu_median_uc":23630.0,"nb_logements_sociaux":221,"nb_transactions":4,"c1_effort":0.2697841726618705,"c2_logsoc":1.0045045045045045,"itr_brut":0.2709994166828699,"itr_score":37.5,"itr_label":"Accessible"}},{"type":"Feature","geometry":{"type":"Point","coordinates":[2.352799,48.86862]},"properties":{"nom_voie":"PAS LEMOINE","code_postal":"75002","arrondissement":2,"code_iris":"751020801","prix_m2_median":8857.142857142857,"revenu_median_uc":33070.0,"nb_logements_sociaux":113,"nb_transactions":3,"c1_effort":0.2678301438507063,"c2_logsoc":1.0087719298245614,"itr_brut":0.2701795310774669,"itr_score":36.9,"itr_label":"Accessible"}},{"type":"Feature","geometry":{"type":"Point","coordinates":[2.346949,48.889972]},"properties":{"nom_voie":"PAS RAMEY","code_postal":"75018","arrondissement":18,"code_iris":"751187010","prix_m2_median":10000.0,"revenu_median_uc":31340.0,"nb_logements_sociaux":92,"nb_transactions":3,"c1_effort":0.3190810465858328,"c2_logsoc":1.010752688172043,"itr_brut":0.32251202558137937,"itr_score":65.4,"itr_label":"Tendu"}},{"type":"Feature","geometry":{"type":"Point","coordinates":[2.297614,48.881466]},"properties":{"nom_voie":"PAS ROUX","code_postal":"75017","arrondissement":17,"code_iris":"751176511","prix_m2_median":9967.787114845938,"revenu_median_uc":48630.0,"nb_logements_sociaux":24,"nb_transactions":4,"c1_effort":0.2049719743953514,"c2_logsoc":1.04,"itr_brut":0.21317085337116545,"itr_score":6.4,"itr_label":"Tres accessible"}},{"type":"Feature","geometry":{"type":"Point","coordinates":[2.373297,48.854214]},"properties":{"nom_voie":"PAS THIERE","code_postal":"75011","arrondissement":11,"code_iris":"751114311","prix_m2_median":9775.0,"revenu_median_uc":32950.0,"nb_logements_sociaux":38,"nb_transactions":5,"c1_effort":0.2966616084977238,"c2_logsoc":1.0256410256410255,"itr_brut":0.30426831640792185,"itr_score":56.3,"itr_label":"Modere"}},{"type":"Feature","geometry":{"type":"Point","coordinates":[2.316252,48.888527]},"properties":{"nom_voie":"PL CHARLES FILLION","code_postal":"75017","arrondissement":17,"code_iris":"751176712","prix_m2_median":11203.703703703704,"revenu_median_uc":46780.0,"nb_logements_sociaux":9,"nb_transactions":3,"c1_effort":0.23949772774056657,"c2_logsoc":1.1,"itr_brut":0.26344750051462323,"itr_score":32.4,"itr_label":"Accessible"}},{"type":"Feature","geometry":{"type":"Point","coordinates":[2.396373,48.849293]},"properties":{"nom_voie":"PL DE LA NATION","code_postal":"75011","arrondissement":11,"code_iris":"751114401","prix_m2_median":9971.264367816093,"revenu_median_uc":39790.0,"nb_logements_sociaux":54,"nb_transactions":6,"c1_effort":0.2505972447302361,"c2_logsoc":1.018181818181818,"itr_brut":0.2551535582707858,"itr_score":25.4,"itr_label":"Accessible"}},{"type":"Feature","geometry":{"type":"Point","coordinates":[2.366288,48.855505]},"properties":{"nom_voie":"PL DES VOSGES","code_postal":"75004","arrondissement":4,"code_iris":"751041504","prix_m2_median":14495.495495495496,"revenu_median_uc":40580.0,"nb_logements_sociaux":53,"nb_transactions":4,"c1_effort":0.357207873225616,"c2_logsoc":1.0185185185185186,"itr_brut":0.3638228338409052,"itr_score":78.5,"itr_label":"Tendu"}},{"type":"Feature","geometry":{"type":"Point","coordinates":[2.297539,48.884817]},"properties":{"nom_voie":"PL DU MAL JUIN","code_postal":"75017","arrondissement":17,"code_iris":"751176608","prix_m2_median":10260.686131386861,"revenu_median_uc":71370.0,"nb_logements_sociaux":10,"nb_transactions":3,"c1_effort":0.14376749518546814,"c2_logsoc":1.0909090909090908,"itr_brut":0.15683726747505614,"itr_score":0.7,"itr_label":"Tres accessible"}},{"type":"Feature","geometry":{"type":"Point","coordinates":[2.362835,48.855365]},"properties":{"nom_voie":"PL DU MARCHE SAINTE CATHERINE","code_postal":"75004","arrondissement":4,"code_iris":"751041404","prix_m2_median":11286.0,"revenu_median_uc":34390.0,"nb_logements_sociaux":13,"nb_transactions":5,"c1_effort":0.3281767955801105,"c2_logsoc":1.0714285714285714,"itr_brut":0.35161799526440407,"itr_score":75.8,"itr_label":"Tendu"}},{"type":"Feature","geometry":{"type":"Point","coordinates":[2.351155,48.877876]},"properties":{"nom_voie":"PL FRANZ LISZT","code_postal":"75010","arrondissement":10,"code_iris":"751103705","prix_m2_median":8313.559322033898,"revenu_median_uc":44620.0,"nb_logements_sociaux":0,"nb_transactions":3,"c1_effort":0.18631912420515234,"c2_logsoc":2.0,"itr_brut":0.3726382484103047,"itr_score":80.1,"itr_label":"Tres tendu"}},{"type":"Feature","geometry":{"type":"Point","coordinates":[2.36863,48.828483]},"properties":{"nom_voie":"PL SOUHAM","code_postal":"75013","arrondissement":13,"code_iris":"751135025","prix_m2_median":7028.985507246377,"revenu_median_uc":26310.0,"nb_logements_sociaux":0,"nb_transactions":3,"c1_effort":0.2671602245247578,"c2_logsoc":2.0,"itr_brut":0.5343204490495156,"itr_score":95.9,"itr_label":"Tres tendu"}},{"type":"Feature","geometry":{"type":"Point","coordinates":[2.279477,48.846971]},"properties":{"nom_voie":"QUAI ANDRE CITROEN","code_postal":"75015","arrondissement":15,"code_iris":"751156014","prix_m2_median":9727.963302752294,"revenu_median_uc":25160.0,"nb_logements_sociaux":209,"nb_transactions":8,"c1_effort":0.3866440104432549,"c2_logsoc":1.0047619047619047,"itr_brut":0.3884851723977466,"itr_score":83.4,"itr_label":"Tres tendu"}},{"type":"Feature","geometry":{"type":"Point","coordinates":[2.303111,48.862059]},"properties":{"nom_voie":"QUAI D ORSAY","code_postal":"75007","arrondissement":7,"code_iris":"751072811","prix_m2_median":19295.45112781955,"revenu_median_uc":66870.0,"nb_logements_sociaux":0,"nb_transactions":4,"c1_effort":0.28855168428023853,"c2_logsoc":2.0,"itr_brut":0.5771033685604771,"itr_score":97.5,"itr_label":"Tres tendu"}},{"type":"Feature","geometry":{"type":"Point","coordinates":[2.354455,48.85296]},"properties":{"nom_voie":"QUAI DE BOURBON","code_postal":"75004","arrondissement":4,"code_iris":"751041601","prix_m2_median":20021.404109589042,"revenu_median_uc":44050.0,"nb_logements_sociaux":28,"nb_transactions":6,"c1_effort":0.4545154167897626,"c2_logsoc":1.0344827586206897,"itr_brut":0.47018836219630616,"itr_score":92.4,"itr_label":"Tres tendu"}},{"type":"Feature","geometry":{"type":"Point","coordinates":[2.28579,48.851666]},"properties":{"nom_voie":"QUAI DE GRENELLE","code_postal":"75015","arrondissement":15,"code_iris":"751155908","prix_m2_median":9375.0,"revenu_median_uc":38590.0,"nb_logements_sociaux":37,"nb_transactions":11,"c1_effort":0.24293858512568023,"c2_logsoc":1.0263157894736843,"itr_brut":0.24933170578688235,"itr_score":21.8,"itr_label":"Accessible"}},{"type":"Feature","geometry":{"type":"Point","coordinates":[2.367218,48.873108]},"properties":{"nom_voie":"QUAI DE JEMMAPES","code_postal":"75010","arrondissement":10,"code_iris":"751103901","prix_m2_median":10315.78947368421,"revenu_median_uc":31660.0,"nb_logements_sociaux":128,"nb_transactions":13,"c1_effort":0.3258303687202846,"c2_logsoc":1.0077519379844961,"itr_brut":0.32835618553206974,"itr_score":67.9,"itr_label":"Tendu"}},{"type":"Feature","geometry":{"type":"Point","coordinates":[2.387386,48.889345]},"properties":{"nom_voie":"QUAI DE LA GARONNE","code_postal":"75019","arrondissement":19,"code_iris":"751197411","prix_m2_median":8506.862745098038,"revenu_median_uc":27130.0,"nb_logements_sociaux":88,"nb_transactions":3,"c1_effort":0.31355926078503643,"c2_logsoc":1.0112359550561798,"itr_brut":0.3170823985466661,"itr_score":62.9,"itr_label":"Tendu"}},{"type":"Feature","geometry":{"type":"Point","coordinates":[2.376516,48.88581]},"properties":{"nom_voie":"QUAI DE LA LOIRE","code_postal":"75019","arrondissement":19,"code_iris":"751197304","prix_m2_median":8280.76923076923,"revenu_median_uc":25780.0,"nb_logements_sociaux":10,"nb_transactions":6,"c1_effort":0.3212090469654473,"c2_logsoc":1.0909090909090908,"itr_brut":0.35040986941685154,"itr_score":75.6,"itr_label":"Tendu"}},{"type":"Feature","geometry":{"type":"Point","coordinates":[2.382358,48.88915]},"properties":{"nom_voie":"QUAI DE LA MARNE","code_postal":"75019","arrondissement":19,"code_iris":"751197313","prix_m2_median":8413.120347394542,"revenu_median_uc":25750.0,"nb_logements_sociaux":224,"nb_transactions":6,"c1_effort":0.3267231202871667,"c2_logsoc":1.0044444444444445,"itr_brut":0.3281752230439986,"itr_score":67.7,"itr_label":"Tendu"}},{"type":"Feature","geometry":{"type":"Point","coordinates":[2.364098,48.872921]},"properties":{"nom_voie":"QUAI DE VALMY","code_postal":"75010","arrondissement":10,"code_iris":"751103910","prix_m2_median":9686.274509803921,"revenu_median_uc":37970.0,"nb_logements_sociaux":151,"nb_transactions":8,"c1_effort":0.25510335817234453,"c2_logsoc":1.006578947368421,"itr_brut":0.25678166973926786,"itr_score":26.6,"itr_label":"Accessible"}},{"type":"Feature","geometry":{"type":"Point","coordinates":[2.363587,48.848657]},"properties":{"nom_voie":"QUAI HENRI IV","code_postal":"75004","arrondissement":4,"code_iris":"751041501","prix_m2_median":12110.091743119267,"revenu_median_uc":33650.0,"nb_logements_sociaux":333,"nb_transactions":3,"c1_effort":0.3598838556647628,"c2_logsoc":1.0029940119760479,"itr_brut":0.36096135223860937,"itr_score":77.8,"itr_label":"Tendu"}},{"type":"Feature","geometry":{"type":"Point","coordinates":[2.270457,48.843463]},"properties":{"nom_voie":"QUAI LOUIS BLERIOT","code_postal":"75016","arrondissement":16,"code_iris":"751166115","prix_m2_median":9807.692307692309,"revenu_median_uc":37750.0,"nb_logements_sociaux":184,"nb_transactions":12,"c1_effort":0.2598064187468161,"c2_logsoc":1.0054054054054054,"itr_brut":0.26121077776706914,"itr_score":30.1,"itr_label":"Accessible"}},{"type":"Feature","geometry":{"type":"Point","coordinates":[2.345663,48.853147]},"properties":{"nom_voie":"QUAI SAINT MICHEL","code_postal":"75005","arrondissement":5,"code_iris":"751052003","prix_m2_median":12989.024390243903,"revenu_median_uc":33270.0,"nb_logements_sociaux":36,"nb_transactions":5,"c1_effort":0.3904125154867419,"c2_logsoc":1.027027027027027,"itr_brut":0.40096420509449165,"itr_score":85.1,"itr_label":"Tres tendu"}},{"type":"Feature","geometry":{"type":"Point","coordinates":[2.331376,48.858414]},"properties":{"nom_voie":"QUAI VOLTAIRE","code_postal":"75007","arrondissement":7,"code_iris":"751072506","prix_m2_median":26464.285714285714,"revenu_median_uc":49130.0,"nb_logements_sociaux":18,"nb_transactions":3,"c1_effort":0.5386583699223634,"c2_logsoc":1.0526315789473684,"itr_brut":0.567008810444593,"itr_score":97.2,"itr_label":"Tres tendu"}},{"type":"Feature","geometry":{"type":"Point","coordinates":[2.270982,48.864413]},"properties":{"nom_voie":"RUE ADOLPHE YVON","code_postal":"75016","arrondissement":16,"code_iris":"751166305","prix_m2_median":13354.41478439425,"revenu_median_uc":41130.0,"nb_logements_sociaux":135,"nb_transactions":3,"c1_effort":0.32468793543385,"c2_logsoc":1.0073529411764706,"itr_brut":0.3270753467238048,"itr_score":67.5,"itr_label":"Tendu"}},{"type":"Feature","geometry":{"type":"Point","coordinates":[2.355746,48.886109]},"properties":{"nom_voie":"RUE AFFRE","code_postal":"75018","arrondissement":18,"code_iris":"751187104","prix_m2_median":5729.166666666667,"revenu_median_uc":20120.0,"nb_logements_sociaux":184,"nb_transactions":3,"c1_effort":0.2847498343273691,"c2_logsoc":1.0054054054054054,"itr_brut":0.28628902262103056,"itr_score":46.2,"itr_label":"Modere"}},{"type":"Feature","geometry":{"type":"Point","coordinates":[2.273866,48.851391]},"properties":{"nom_voie":"RUE AGAR","code_postal":"75016","arrondissement":16,"code_iris":"751166127","prix_m2_median":7856.060606060606,"revenu_median_uc":40750.0,"nb_logements_sociaux":81,"nb_transactions":4,"c1_effort":0.19278676333891057,"c2_logsoc":1.0121951219512195,"itr_brut":0.1951378214284095,"itr_score":3.3,"itr_label":"Tres accessible"}},{"type":"Feature","geometry":{"type":"Point","coordinates":[2.372197,48.825505]},"properties":{"nom_voie":"RUE ALBERT","code_postal":"75013","arrondissement":13,"code_iris":"751135012","prix_m2_median":8821.742021276596,"revenu_median_uc":24440.0,"nb_logements_sociaux":57,"nb_transactions":10,"c1_effort":0.36095507452031894,"c2_logsoc":1.0172413793103448,"itr_brut":0.3671784378741175,"itr_score":79.3,"itr_label":"Tendu"}},{"type":"Feature","geometry":{"type":"Point","coordinates":[2.362612,48.869932]},"properties":{"nom_voie":"RUE ALBERT THOMAS","code_postal":"75010","arrondissement":10,"code_iris":"751103903","prix_m2_median":11440.384615384615,"revenu_median_uc":38920.0,"nb_logements_sociaux":47,"nb_transactions":3,"c1_effort":0.2939461617519171,"c2_logsoc":1.0208333333333333,"itr_brut":0.3000700401217487,"itr_score":53.8,"itr_label":"Modere"}},{"type":"Feature","geometry":{"type":"Point","coordinates":[2.392564,48.853724]},"properties":{"nom_voie":"RUE ALEXANDRE DUMAS","code_postal":"75011","arrondissement":11,"code_iris":"751114411","prix_m2_median":9584.21052631579,"revenu_median_uc":29950.0,"nb_logements_sociaux":134,"nb_transactions":10,"c1_effort":0.3200070292592918,"c2_logsoc":1.0074074074074073,"itr_brut":0.3223774516982495,"itr_score":65.3,"itr_label":"Tendu"}},{"type":"Feature","geometry":{"type":"Point","coordinates":[2.398024,48.8549]},"properties":{"nom_voie":"RUE ALEXANDRE DUMAS","code_postal":"75020","arrondissement":20,"code_iris":"751208016","prix_m2_median":7738.0952380952385,"revenu_median_uc":24940.0,"nb_logements_sociaux":200,"nb_transactions":3,"c1_effort":0.31026845381296064,"c2_logsoc":1.0049751243781095,"itr_brut":0.31181207796128385,"itr_score":60.1,"itr_label":"Tendu"}},{"type":"Feature","geometry":{"type":"Point","coordinates":[2.3657,48.879655]},"properties":{"nom_voie":"RUE ALEXANDRE PARODI","code_postal":"75010","arrondissement":10,"code_iris":"751104009","prix_m2_median":11029.494444444445,"revenu_median_uc":33030.0,"nb_logements_sociaux":172,"nb_transactions":3,"c1_effort":0.3339235375248091,"c2_logsoc":1.0057803468208093,"itr_brut":0.335853731383334,"itr_score":70.8,"itr_label":"Tendu"}},{"type":"Feature","geometry":{"type":"Point","coordinates":[2.36732,48.871206]},"properties":{"nom_voie":"RUE ALIBERT","code_postal":"75010","arrondissement":10,"code_iris":"751103901","prix_m2_median":10658.97435897436,"revenu_median_uc":31660.0,"nb_logements_sociaux":128,"nb_transactions":5,"c1_effort":0.33667006819249395,"c2_logsoc":1.0077519379844961,"itr_brut":0.33927991368235827,"itr_score":72.2,"itr_label":"Tendu"}},{"type":"Feature","geometry":{"type":"Point","coordinates":[2.307534,48.858978]},"properties":{"nom_voie":"RUE AMELIE","code_postal":"75007","arrondissement":7,"code_iris":"751072804","prix_m2_median":11960.0,"revenu_median_uc":44420.0,"nb_logements_sociaux":87,"nb_transactions":3,"c1_effort":0.26924808644754616,"c2_logsoc":1.0113636363636365,"itr_brut":0.272307723793541,"itr_score":38.1,"itr_label":"Accessible"}},{"type":"Feature","geometry":{"type":"Point","coordinates":[2.368349,48.860535]},"properties":{"nom_voie":"RUE AMELOT","code_postal":"75011","arrondissement":11,"code_iris":"751114207","prix_m2_median":12229.861111111111,"revenu_median_uc":41940.0,"nb_logements_sociaux":21,"nb_transactions":12,"c1_effort":0.29160374609230116,"c2_logsoc":1.0454545454545454,"itr_brut":0.3048584618237694,"itr_score":56.5,"itr_label":"Modere"}},{"type":"Feature","geometry":{"type":"Point","coordinates":[2.30238,48.885368]},"properties":{"nom_voie":"RUE AMPERE","code_postal":"75017","arrondissement":17,"code_iris":"751176610","prix_m2_median":11442.5,"revenu_median_uc":59260.0,"nb_logements_sociaux":50,"nb_transactions":9,"c1_effort":0.19308977387782653,"c2_logsoc":1.0196078431372548,"itr_brut":0.19687584787543094,"itr_score":3.5,"itr_label":"Tres accessible"}},{"type":"Feature","geometry":{"type":"Point","coordinates":[2.3376,48.883247]},"properties":{"nom_voie":"RUE ANDRE ANTOINE","code_postal":"75018","arrondissement":18,"code_iris":"751186901","prix_m2_median":11567.292644757434,"revenu_median_uc":32200.0,"nb_logements_sociaux":106,"nb_transactions":6,"c1_effort":0.3592326908309762,"c2_logsoc":1.0093457943925233,"itr_brut":0.3625900056985554,"itr_score":78.2,"itr_label":"Tendu"}},{"type":"Feature","geometry":{"type":"Point","coordinates":[2.341332,48.885269]},"properties":{"nom_voie":"RUE ANDRE BARSACQ","code_postal":"75018","arrondissement":18,"code_iris":"751187005","prix_m2_median":11740.591397849461,"revenu_median_uc":33510.0,"nb_logements_sociaux":41,"nb_transactions":4,"c1_effort":0.3503608295389275,"c2_logsoc":1.0238095238095237,"itr_brut":0.35870275405175905,"itr_score":77.3,"itr_label":"Tendu"}},{"type":"Feature","geometry":{"type":"Point","coordinates":[2.345929,48.885904]},"properties":{"nom_voie":"RUE ANDRE DEL SARTE","code_postal":"75018","arrondissement":18,"code_iris":"751187006","prix_m2_median":8913.04347826087,"revenu_median_uc":33520.0,"nb_logements_sociaux":12,"nb_transactions":5,"c1_effort":0.2659022517380928,"c2_logsoc":1.0769230769230769,"itr_brut":0.28635627110256145,"itr_score":46.3,"itr_label":"Modere"}},{"type":"Feature","geometry":{"type":"Point","coordinates":[2.375429,48.891681]},"properties":{"nom_voie":"RUE ARCHEREAU","code_postal":"75019","arrondissement":19,"code_iris":"751197315","prix_m2_median":6601.593137254902,"revenu_median_uc":24790.0,"nb_logements_sociaux":0,"nb_transactions":10,"c1_effort":0.26630065095824534,"c2_logsoc":2.0,"itr_brut":0.5326013019164907,"itr_score":95.7,"itr_label":"Tres tendu"}},{"type":"Feature","geometry":{"type":"Point","coordinates":[2.380721,48.882324]},"properties":{"nom_voie":"RUE ARMAND CARREL","code_postal":"75019","arrondissement":19,"code_iris":"751197613","prix_m2_median":10270.739064856713,"revenu_median_uc":31350.0,"nb_logements_sociaux":229,"nb_transactions":4,"c1_effort":0.3276152811756527,"c2_logsoc":1.0043478260869565,"itr_brut":0.3290396954416338,"itr_score":68.2,"itr_label":"Tendu"}},{"type":"Feature","geometry":{"type":"Point","coordinates":[2.327693,48.895241]},"properties":{"nom_voie":"RUE ARTHUR BRIERE","code_postal":"75017","arrondissement":17,"code_iris":"751176809","prix_m2_median":8449.092558983666,"revenu_median_uc":27120.0,"nb_logements_sociaux":66,"nb_transactions":4,"c1_effort":0.3115447108769788,"c2_logsoc":1.0149253731343284,"itr_brut":0.3161946319348442,"itr_score":62.4,"itr_label":"Tendu"}},{"type":"Feature","geometry":{"type":"Point","coordinates":[2.371235,48.872034]},"properties":{"nom_voie":"RUE ARTHUR GROUSSIER","code_postal":"75010","arrondissement":10,"code_iris":"751104003","prix_m2_median":8258.620689655172,"revenu_median_uc":29430.0,"nb_logements_sociaux":139,"nb_transactions":3,"c1_effort":0.2806191195941275,"c2_logsoc":1.0071428571428571,"itr_brut":0.28262354187694266,"itr_score":43.8,"itr_label":"Modere"}},{"type":"Feature","geometry":{"type":"Point","coordinates":[2.390598,48.878443]},"properties":{"nom_voie":"RUE ARTHUR ROZIER","code_postal":"75019","arrondissement":19,"code_iris":"751197508","prix_m2_median":8409.09090909091,"revenu_median_uc":15630.0,"nb_logements_sociaux":81,"nb_transactions":5,"c1_effort":0.5380096550921888,"c2_logsoc":1.0121951219512195,"itr_brut":0.5445707484469716,"itr_score":96.3,"itr_label":"Tres tendu"}},{"type":"Feature","geometry":{"type":"Point","coordinates":[2.35581,48.864684]},"properties":{"nom_voie":"RUE AU MAIRE","code_postal":"75003","arrondissement":3,"code_iris":"751030904","prix_m2_median":10121.428571428572,"revenu_median_uc":31160.0,"nb_logements_sociaux":63,"nb_transactions":10,"c1_effort":0.32482119933981296,"c2_logsoc":1.015625,"itr_brut":0.3298965305794975,"itr_score":68.6,"itr_label":"Tendu"}},{"type":"Feature","geometry":{"type":"Point","coordinates":[2.335761,48.885172]},"properties":{"nom_voie":"RUE AUDRAN","code_postal":"75018","arrondissement":18,"code_iris":"751186901","prix_m2_median":10900.0,"revenu_median_uc":32200.0,"nb_logements_sociaux":106,"nb_transactions":3,"c1_effort":0.3385093167701863,"c2_logsoc":1.0093457943925233,"itr_brut":0.341672955244674,"itr_score":73.1,"itr_label":"Tendu"}},{"type":"Feature","geometry":{"type":"Point","coordinates":[2.371131,48.868704]},"properties":{"nom_voie":"RUE AUGUSTE BARBIER","code_postal":"75011","arrondissement":11,"code_iris":"751114115","prix_m2_median":10272.727272727272,"revenu_median_uc":35490.0,"nb_logements_sociaux":16,"nb_transactions":3,"c1_effort":0.2894541356079817,"c2_logsoc":1.0588235294117647,"itr_brut":0.3064808494672748,"itr_score":57.1,"itr_label":"Modere"}},{"type":"Feature","geometry":{"type":"Point","coordinates":[2.294728,48.850637]},"properties":{"nom_voie":"RUE AUGUSTE BARTHOLDI","code_postal":"75015","arrondissement":15,"code_iris":"751155915","prix_m2_median":9885.627530364372,"revenu_median_uc":38670.0,"nb_logements_sociaux":54,"nb_transactions":6,"c1_effort":0.2556407429626163,"c2_logsoc":1.018181818181818,"itr_brut":0.26028875647102745,"itr_score":29.2,"itr_label":"Accessible"}},{"type":"Feature","geometry":{"type":"Point","coordinates":[2.288833,48.835075]},"properties":{"nom_voie":"RUE AUGUSTE CHABRIERES","code_postal":"75015","arrondissement":15,"code_iris":"751155709","prix_m2_median":7916.666666666666,"revenu_median_uc":38530.0,"nb_logements_sociaux":70,"nb_transactions":4,"c1_effort":0.205467601003547,"c2_logsoc":1.0140845070422535,"itr_brut":0.20836151087683638,"itr_score":5.7,"itr_label":"Tres accessible"}},{"type":"Feature","geometry":{"type":"Point","coordinates":[2.344849,48.888188]},"properties":{"nom_voie":"RUE BACHELET","code_postal":"75018","arrondissement":18,"code_iris":"751187009","prix_m2_median":1807.8947368421052,"revenu_median_uc":34190.0,"nb_logements_sociaux":125,"nb_transactions":7,"c1_effort":0.05287788057449854,"c2_logsoc":1.007936507936508,"itr_brut":0.05329754629334377,"itr_score":0.2,"itr_label":"Tres accessible"}},{"type":"Feature","geometry":{"type":"Point","coordinates":[2.278208,48.838439]},"properties":{"nom_voie":"RUE BALARD","code_postal":"75015","arrondissement":15,"code_iris":"751156007","prix_m2_median":8500.0,"revenu_median_uc":27520.0,"nb_logements_sociaux":171,"nb_transactions":5,"c1_effort":0.30886627906976744,"c2_logsoc":1.005813953488372,"itr_brut":0.3106620132504056,"itr_score":59.6,"itr_label":"Modere"}},{"type":"Feature","geometry":{"type":"Point","coordinates":[2.317658,48.853162]},