{"type": "FeatureCollection", "count": 2340, "features": [{"type": "Feature", "geometry": {"type": "Point", "coordinates": [2.373233, 48.878889]}, "properties": {"nom_voie": "ALL ANNE DE BEAUJEU", "code_postal": "75019", "arrondissement": 19, "code_iris": "751197611", "prix_m2_median": 9822.2222, "revenu_median_uc": 30400.0, "nb_logements_sociaux": 51, "nb_transactions": 3, "c1_effort": 0.3231, "c2_logsoc": 1.0192, "c3_volume": 1.3863, "itr_brut": 0.4565, "itr_score": 15.62, "itr_label": "Très accessible"}}, {"type": "Feature", "geometry": {"type": "Point", "coordinates": [2.378821, 48.89379]}, "properties": {"nom_voie": "ALL DES EIDERS", "code_postal": "75019", "arrondissement": 19, "code_iris": "751197406", "prix_m2_median": 7564.1026, "revenu_median_uc": 19230.0, "nb_logements_sociaux": 222, "nb_transactions": 15, "c1_effort": 0.3933, "c2_logsoc": 1.0045, "c3_volume": 2.7726, "itr_brut": 1.0955, "itr_score": 37.84, "itr_label": "Accessible"}}, {"type": "Feature", "geometry": {"type": "Point", "coordinates": [2.379184, 48.873278]}, "properties": {"nom_voie": "ALL GABRIELLE DESTREES", "code_postal": "75019", "arrondissement": 19, "code_iris": "751197605", "prix_m2_median": 8397.6776, "revenu_median_uc": 21270.0, "nb_logements_sociaux": 6, "nb_transactions": 6, "c1_effort": 0.3948, "c2_logsoc": 1.1429, "c3_volume": 1.9459, "itr_brut": 0.878, "itr_score": 30.28, "itr_label": "Accessible"}}, {"type": "Feature", "geometry": {"type": "Point", "coordinates": [2.384231, 48.869706]}, "properties": {"nom_voie": "ALL GEORGES ROUAULT", "code_postal": "75020", "arrondissement": 20, "code_iris": "751207707", "prix_m2_median": 9226.5625, "revenu_median_uc": 23740.0, "nb_logements_sociaux": 0, "nb_transactions": 4, "c1_effort": 0.3887, "c2_logsoc": 2.0, "c3_volume": 1.6094, "itr_brut": 1.251, "itr_score": 43.25, "itr_label": "Modéré"}}, {"type": "Feature", "geometry": {"type": "Point", "coordinates": [2.377924, 48.875488]}, "properties": {"nom_voie": "ALL LOUISE LABE", "code_postal": "75019", "arrondissement": 19, "code_iris": "751197607", "prix_m2_median": 9597.7011, "revenu_median_uc": 36600.0, "nb_logements_sociaux": 83, "nb_transactions": 11, "c1_effort": 0.2622, "c2_logsoc": 1.0119, "c3_volume": 2.4849, "itr_brut": 0.6594, "itr_score": 22.68, "itr_label": "Accessible"}}, {"type": "Feature", "geometry": {"type": "Point", "coordinates": [2.376561, 48.874667]}, "properties": {"nom_voie": "ALL PERNETTE DU GUILLET", "code_postal": "75019", "arrondissement": 19, "code_iris": "751197607", "prix_m2_median": 8239.4366, "revenu_median_uc": 36600.0, "nb_logements_sociaux": 83, "nb_transactions": 3, "c1_effort": 0.2251, "c2_logsoc": 1.0119, "c3_volume": 1.3863, "itr_brut": 0.3158, "itr_score": 10.73, "itr_label": "Très accessible"}}, {"type": "Feature", "geometry": {"type": "Point", "coordinates": [2.370954, 48.85945]}, "properties": {"nom_voie": "ALL VERTE", "code_postal": "75011", "arrondissement": 11, "code_iris": "751114207", "prix_m2_median": 11609.7561, "revenu_median_uc": 41940.0, "nb_logements_sociaux": 21, "nb_transactions": 3, "c1_effort": 0.2768, "c2_logsoc": 1.0455, "c3_volume": 1.3863, "itr_brut": 0.4012, "itr_score": 13.7, "itr_label": "Très accessible"}}, {"type": "Feature", "geometry": {"type": "Point", "coordinates": [2.355189, 48.86544]}, "properties": {"nom_voie": "ARTS ET METIERS", "code_postal": "75003", "arrondissement": 3, "code_iris": "751030905", "prix_m2_median": 17874.3961, "revenu_median_uc": 36390.0, "nb_logements_sociaux": 85, "nb_transactions": 4, "c1_effort": 0.4912, "c2_logsoc": 1.0116, "c3_volume": 1.6094, "itr_brut": 0.7997, "itr_score": 27.56, "itr_label": "Accessible"}}, {"type": "Feature", "geometry": {"type": "Point", "coordinates": [2.281097, 48.856521]}, "properties": {"nom_voie": "AV ALPHONSE XIII", "code_postal": "75016", "arrondissement": 16, "code_iris": "751166212", "prix_m2_median": 11069.0941, "revenu_median_uc": 48560.0, "nb_logements_sociaux": 10, "nb_transactions": 7, "c1_effort": 0.2279, "c2_logsoc": 1.0909, "c3_volume": 2.0794, "itr_brut": 0.5171, "itr_score": 17.73, "itr_label": "Très accessible"}}, {"type": "Feature", "geometry": {"type": "Point", "coordinates": [2.303681, 48.858176]}, "properties": {"nom_voie": "AV BOSQUET", "code_postal": "75007", "arrondissement": 7, "code_iris": "751072805", "prix_m2_median": 13951.498, "revenu_median_uc": 41040.0, "nb_logements_sociaux": 0, "nb_transactions": 28, "c1_effort": 0.3399, "c2_logsoc": 2.0, "c3_volume": 3.3673, "itr_brut": 2.2894, "itr_score": 79.37, "itr_label": "Tendu"}}, {"type": "Feature", "geometry": {"type": "Point", "coordinates": [2.280878, 48.870521]}, "properties": {"nom_voie": "AV BUGEAUD", "code_postal": "75016", "arrondissement": 16, "code_iris": "751166307", "prix_m2_median": 12051.2821, "revenu_median_uc": 56170.0, "nb_logements_sociaux": 18, "nb_transactions": 13, "c1_effort": 0.2146, "c2_logsoc": 1.0526, "c3_volume": 2.6391, "itr_brut": 0.596, "itr_score": 20.47, "itr_label": "Accessible"}}, {"type": "Feature", "geometry": {"type": "Point", "coordinates": [2.293203, 48.875984]}, "properties": {"nom_voie": "AV CARNOT", "code_postal": "75017", "arrondissement": 17, "code_iris": "751176501", "prix_m2_median": 12349.3976, "revenu_median_uc": 47010.0, "nb_logements_sociaux": 29, "nb_transactions": 11, "c1_effort": 0.2627, "c2_logsoc": 1.0333, "c3_volume": 2.4849, "itr_brut": 0.6745, "itr_score": 23.2, "itr_label": "Accessible"}}, {"type": "Feature", "geometry": {"type": "Point", "coordinates": [2.297549, 48.854117]}, "properties": {"nom_voie": "AV CHARLES FLOQUET", "code_postal": "75007", "arrondissement": 7, "code_iris": "751072807", "prix_m2_median": 21109.9388, "revenu_median_uc": 74290.0, "nb_logements_sociaux": 8, "nb_transactions": 6, "c1_effort": 0.2842, "c2_logsoc": 1.1111, "c3_volume": 1.9459, "itr_brut": 0.6144, "itr_score": 21.11, "itr_label": "Accessible"}}, {"type": "Feature", "geometry": {"type": "Point", "coordinates": [2.370422, 48.875145]}, "properties": {"nom_voie": "AV CLAUDE VELLEFAUX", "code_postal": "75010", "arrondissement": 10, "code_iris": "751104006", "prix_m2_median": 9482.7586, "revenu_median_uc": 27960.0, "nb_logements_sociaux": 173, "nb_transactions": 25, "c1_effort": 0.3392, "c2_logsoc": 1.0057, "c3_volume": 3.2581, "itr_brut": 1.1113, "itr_score": 38.4, "itr_label": "Accessible"}}, {"type": "Feature", "geometry": {"type": "Point", "coordinates": [2.317042, 48.847991]}, "properties": {"nom_voie": "AV CONSTANT COQUELIN", "code_postal": "75007", "arrondissement": 7, "code_iris": "751072701", "prix_m2_median": 5623.7479, "revenu_median_uc": 46930.0, "nb_logements_sociaux": 10, "nb_transactions": 4, "c1_effort": 0.1198, "c2_logsoc": 1.0909, "c3_volume": 1.6094, "itr_brut": 0.2104, "itr_score": 7.06, "itr_label": "Très accessible"}}, {"type": "Feature", "geometry": {"type": "Point", "coordinates": [2.382844, 48.895549]}, "properties": {"nom_voie": "AV CORENTIN CARIOU", "code_postal": "75019", "arrondissement": 19, "code_iris": "751197407", "prix_m2_median": 8375.5556, "revenu_median_uc": 17190.0, "nb_logements_sociaux": 0, "nb_transactions": 10, "c1_effort": 0.4872, "c2_logsoc": 2.0, "c3_volume": 2.3979, "itr_brut": 2.3367, "itr_score": 81.01, "itr_label": "Très tendu"}}, {"type": "Feature", "geometry": {"type": "Point", "coordinates": [2.284578, 48.864648]}, "properties": {"nom_voie": "AV D EYLAU", "code_postal": "75016", "arrondissement": 16, "code_iris": "751166301", "prix_m2_median": 12117.9002, "revenu_median_uc": 46950.0, "nb_logements_sociaux": 223, "nb_transactions": 10, "c1_effort": 0.2581, "c2_logsoc": 1.0045, "c3_volume": 2.3979, "itr_brut": 0.6217, "itr_score": 21.37, "itr_label": "Accessible"}}, {"type": "Feature", "geometry": {"type": "Point", "coordinates": [2.294854, 48.86629]}, "properties": {"nom_voie": "AV D IENA", "code_postal": "75016", "arrondissement": 16, "code_iris": "751166402", "prix_m2_median": 14293.7853, "revenu_median_uc": 41740.0, "nb_logements_sociaux": 17, "nb_transactions": 9, "c1_effort": 0.3424, "c2_logsoc": 1.0556, "c3_volume": 2.3026, "itr_brut": 0.8323, "itr_score": 28.69, "itr_label": "Accessible"}}, {"type": "Feature", "geometry": {"type": "Point", "coordinates": [2.356765, 48.827081]}, "properties": {"nom_voie": "AV D ITALIE", "code_postal": "75013", "arrondissement": 13, "code_iris": "751135124", "prix_m2_median": 8587.0647, "revenu_median_uc": 38500.0, "nb_logements_sociaux": 20, "nb_transactions": 74, "c1_effort": 0.223, "c2_logsoc": 1.0476, "c3_volume": 4.3175, "itr_brut": 1.0088, "itr_score": 34.83, "itr_label": "Accessible"}}, {"type": "Feature", "geometry": {"type": "Point", "coordinates": [2.365251, 48.823927]}, "properties": {"nom_voie": "AV D IVRY", "code_postal": "75013", "arrondissement": 13, "code_iris": "751135008", "prix_m2_median": 6666.6667, "revenu_median_uc": 20650.0, "nb_logements_sociaux": 24, "nb_transactions": 19, "c1_effort": 0.3228, "c2_logsoc": 1.04, "c3_volume": 2.9957, "itr_brut": 1.0058, "itr_score": 34.73, "itr_label": "Accessible"}}, {"type": "Feature", "geometry": {"type": "Point", "coordinates": [2.317526, 48.847548]}, "properties": {"nom_voie": "AV DANIEL LESUEUR", "code_postal": "75007", "arrondissement": 7, "code_iris": "751072701", "prix_m2_median": 11280.0, "revenu_median_uc": 46930.0, "nb_logements_sociaux": 10, "nb_transactions": 3, "c1_effort": 0.2404, "c2_logsoc": 1.0909, "c3_volume": 1.3863, "itr_brut": 0.3635, "itr_score": 12.39, "itr_label": "Très accessible"}}, {"type": "Feature", "geometry": {"type": "Point", "coordinates": [2.391022, 48.841027]}, "properties": {"nom_voie": "AV DAUMESNIL", "code_postal": "75012", "arrondissement": 12, "code_iris": "751124608", "prix_m2_median": 10735.2941, "revenu_median_uc": 25780.0, "nb_logements_sociaux": 84, "nb_transactions": 83, "c1_effort": 0.4164, "c2_logsoc": 1.0118, "c3_volume": 4.4308, "itr_brut": 1.8668, "itr_score": 64.67, "itr_label": "Tendu"}}, {"type": "Feature", "geometry": {"type": "Point", "coordinates": [2.395939, 48.850358]}, "properties": {"nom_voie": "AV DE BOUVINES", "code_postal": "75011", "arrondissement": 11, "code_iris": "751114401", "prix_m2_median": 9937.5, "revenu_median_uc": 39790.0, "nb_logements_sociaux": 54, "nb_transactions": 8, "c1_effort": 0.2497, "c2_logsoc": 1.0182, "c3_volume": 2.1972, "itr_brut": 0.5587, "itr_score": 19.18, "itr_label": "Très accessible"}}, {"type": "Feature", "geometry": {"type": "Point", "coordinates": [2.311587, 48.850801]}, "properties": {"nom_voie": "AV DE BRETEUIL", "code_postal": "75007", "arrondissement": 7, "code_iris": "751072704", "prix_m2_median": 16790.5455, "revenu_median_uc": 56170.0, "nb_logements_sociaux": 51, "nb_transactions": 15, "c1_effort": 0.2989, "c2_logsoc": 1.0192, "c3_volume": 2.7726, "itr_brut": 0.8447, "itr_score": 29.12, "itr_label": "Accessible"}}, {"type": "Feature", "geometry": {"type": "Point", "coordinates": [2.311128, 48.845942]}, "properties": {"nom_voie": "AV DE BRETEUIL", "code_postal": "75015", "arrondissement": 15, "code_iris": "751155813", "prix_m2_median": 13750.4797, "revenu_median_uc": 59060.0, "nb_logements_sociaux": 12, "nb_transactions": 4, "c1_effort": 0.2328, "c2_logsoc": 1.0769, "c3_volume": 1.6094, "itr_brut": 0.4035, "itr_score": 13.78, "itr_label": "Très accessible"}}, {"type": "Feature", "geometry": {"type": "Point", "coordinates": [2.286561, 48.859519]}, "properties": {"nom_voie": "AV DE CAMOENS", "code_postal": "75016", "arrondissement": 16, "code_iris": "751166221", "prix_m2_median": 12952.381, "revenu_median_uc": 56380.0, "nb_logements_sociaux": 0, "nb_transactions": 3, "c1_effort": 0.2297, "c2_logsoc": 2.0, "c3_volume": 1.3863, "itr_brut": 0.637, "itr_score": 21.9, "itr_label": "Accessible"}}, {"type": "Feature", "geometry": {"type": "Point", "coordinates": [2.360259, 48.8261]}, "properties": {"nom_voie": "AV DE CHOISY", "code_postal": "75013", "arrondissement": 13, "code_iris": "751135028", "prix_m2_median": 8292.4953, "revenu_median_uc": 25260.0, "nb_logements_sociaux": 596, "nb_transactions": 58, "c1_effort": 0.3283, "c2_logsoc": 1.0017, "c3_volume": 4.0775, "itr_brut": 1.3408, "itr_score": 46.38, "itr_label": "Modéré"}}, {"type": "Feature", "geometry": {"type": "Point", "coordinates": [2.321404, 48.889465]}, "properties": {"nom_voie": "AV DE CLICHY", "code_postal": "75017", "arrondissement": 17, "code_iris": "751176806", "prix_m2_median": 9935.1852, "revenu_median_uc": 25910.0, "nb_logements_sociaux": 731, "nb_transactions": 67, "c1_effort": 0.3834, "c2_logsoc": 1.0014, "c3_volume": 4.2195, "itr_brut": 1.6202, "itr_score": 56.09, "itr_label": "Modéré"}}, {"type": "Feature", "geometry": {"type": "Point", "coordinates": [2.326573, 48.886452]}, "properties": {"nom_voie": "AV DE CLICHY", "code_postal": "75018", "arrondissement": 18, "code_iris": "751186905", "prix_m2_median": 10692.3077, "revenu_median_uc": 33340.0, "nb_logements_sociaux": 210, "nb_transactions": 13, "c1_effort": 0.3207, "c2_logsoc": 1.0047, "c3_volume": 2.6391, "itr_brut": 0.8504, "itr_score": 29.32, "itr_label": "Accessible"}}, {"type": "Feature", "geometry": {"type": "Point", "coordinates": [2.376274, 48.889955]}, "properties": {"nom_voie": "AV DE FLANDRE", "code_postal": "75019", "arrondissement": 19, "code_iris": "751197305", "prix_m2_median": 8648.6486, "revenu_median_uc": 28460.0, "nb_logements_sociaux": 36, "nb_transactions": 77, "c1_effort": 0.3039, "c2_logsoc": 1.027, "c3_volume": 4.3567, "itr_brut": 1.3597, "itr_score": 47.03, "itr_label": "Modéré"}}, {"type": "Feature", "geometry": {"type": "Point", "coordinates": [2.301559, 48.87445]}, "properties": {"nom_voie": "AV DE FRIEDLAND", "code_postal": "75008", "arrondissement": 8, "code_iris": "751083001", "prix_m2_median": 12788.5714, "revenu_median_uc": 34340.0, "nb_logements_sociaux": 0, "nb_transactions": 6, "c1_effort": 0.3724, "c2_logsoc": 2.0, "c3_volume": 1.9459, "itr_brut": 1.4494, "itr_score": 50.15, "itr_label": "Modéré"}}, {"type": "Feature", "geometry": {"type": "Point", "coordinates": [2.337873, 48.843601]}, "properties": {"nom_voie": "AV DE L OBSERVATOIRE", "code_postal": "75006", "arrondissement": 6, "code_iris": "751062201", "prix_m2_median": 19365.3846, "revenu_median_uc": 54270.0, "nb_logements_sociaux": 28, "nb_transactions": 4, "c1_effort": 0.3568, "c2_logsoc": 1.0345, "c3_volume": 1.6094, "itr_brut": 0.5941, "itr_score": 20.41, "itr_label": "Accessible"}}, {"type": "Feature", "geometry": {"type": "Point", "coordinates": [2.300853, 48.857311]}, "properties": {"nom_voie": "AV DE LA BOURDONNAIS", "code_postal": "75007", "arrondissement": 7, "code_iris": "751072806", "prix_m2_median": 14262.5, "revenu_median_uc": 77180.0, "nb_logements_sociaux": 0, "nb_transactions": 43, "c1_effort": 0.1848, "c2_logsoc": 2.0, "c3_volume": 3.7842, "itr_brut": 1.3986, "itr_score": 48.39, "itr_label": "Modéré"}}, {"type": "Feature", "geometry": {"type": "Point", "coordinates": [2.288161, 48.876489]}, "properties": {"nom_voie": "AV DE LA GRANDE ARMEE", "code_postal": "75017", "arrondissement": 17, "code_iris": "751176502", "prix_m2_median": 11071.4286, "revenu_median_uc": 61040.0, "nb_logements_sociaux": 0, "nb_transactions": 5, "c1_effort": 0.1814, "c2_logsoc": 2.0, "c3_volume": 1.7918, "itr_brut": 0.65, "itr_score": 22.35, "itr_label": "Accessible"}}, {"type": "Feature", "geometry": {"type": "Point", "coordinates": [2.308043, 48.855698]}, "properties": {"nom_voie": "AV DE LA MOTTE PICQUET", "code_postal": "75007", "arrondissement": 7, "code_iris": "751072801", "prix_m2_median": 14409.4829, "revenu_median_uc": 49140.0, "nb_logements_sociaux": 0, "nb_transactions": 16, "c1_effort": 0.2932, "c2_logsoc": 2.0, "c3_volume": 2.8332, "itr_brut": 1.6616, "itr_score": 57.53, "itr_label": "Modéré"}}, {"type": "Feature", "geometry": {"type": "Point", "coordinates": [2.299643, 48.850451]}, "properties": {"nom_voie": "AV DE LA MOTTE PICQUET", "code_postal": "75015", "arrondissement": 15, "code_iris": "751155914", "prix_m2_median": 13794.5593, "revenu_median_uc": 48250.0, "nb_logements_sociaux": 14, "nb_transactions": 14, "c1_effort": 0.2859, "c2_logsoc": 1.0667, "c3_volume": 2.7081, "itr_brut": 0.8258, "itr_score": 28.47, "itr_label": "Accessible"}}, {"type": "Feature", "geometry": {"type": "Point", "coordinates": [2.377156, 48.864778]}, "properties": {"nom_voie": "AV DE LA REPUBLIQUE", "code_postal": "75011", "arrondissement": 11, "code_iris": "751114213", "prix_m2_median": 10797.5036, "revenu_median_uc": 36420.0, "nb_logements_sociaux": 82, "nb_transactions": 52, "c1_effort": 0.2965, "c2_logsoc": 1.012, "c3_volume": 3.9703, "itr_brut": 1.1913, "itr_score": 41.17, "itr_label": "Modéré"}}, {"type": "Feature", "geometry": {"type": "Point", "coordinates": [2.353649, 48.8321]}, "properties": {"nom_voie": "AV DE LA SOEUR ROSALIE", "code_postal": "75013", "arrondissement": 13, "code_iris": "751135201", "prix_m2_median": 10945.4383, "revenu_median_uc": 37630.0, "nb_logements_sociaux": 267, "nb_transactions": 4, "c1_effort": 0.2909, "c2_logsoc": 1.0037, "c3_volume": 1.6094, "itr_brut": 0.4699, "itr_score": 16.09, "itr_label": "Très accessible"}}, {"type": "Feature", "geometry": {"type": "Point", "coordinates": [2.280482, 48.854445]}, "properties": {"nom_voie": "AV DE LAMBALLE", "code_postal": "75016", "arrondissement": 16, "code_iris": "751166201", "prix_m2_median": 10924.0357, "revenu_median_uc": 52550.0, "nb_logements_sociaux": 0, "nb_transactions": 10, "c1_effort": 0.2079, "c2_logsoc": 2.0, "c3_volume": 2.3979, "itr_brut": 0.9969, "itr_score": 34.42, "itr_label": "Accessible"}}, {"type": "Feature", "geometry": {"type": "Point", "coordinates": [2.380434, 48.883712]}, "properties": {"nom_voie": "AV DE LAUMIERE", "code_postal": "75019", "arrondissement": 19, "code_iris": "751197614", "prix_m2_median": 10731.7073, "revenu_median_uc": 27870.0, "nb_logements_sociaux": 14, "nb_transactions": 19, "c1_effort": 0.3851, "c2_logsoc": 1.0667, "c3_volume": 2.9957, "itr_brut": 1.2304, "itr_score": 42.54, "itr_label": "Modéré"}}, {"type": "Feature", "geometry": {"type": "Point", "coordinates": [2.303352, 48.848856]}, "properties": {"nom_voie": "AV DE LOWENDAL", "code_postal": "75015", "arrondissement": 15, "code_iris": "751155812", "prix_m2_median": 10315.2174, "revenu_median_uc": 50120.0, "nb_logements_sociaux": 20, "nb_transactions": 10, "c1_effort": 0.2058, "c2_logsoc": 1.0476, "c3_volume": 2.3979, "itr_brut": 0.517, "itr_score": 17.73, "itr_label": "Très accessible"}}, {"type": "Feature", "geometry": {"type": "Point", "coordinates": [2.283942, 48.875112]}, "properties": {"nom_voie": "AV DE MALAKOFF", "code_postal": "75016", "arrondissement": 16, "code_iris": "751166407", "prix_m2_median": 11136.3636, "revenu_median_uc": 48940.0, "nb_logements_sociaux": 28, "nb_transactions": 17, "c1_effort": 0.2276, "c2_logsoc": 1.0345, "c3_volume": 2.8904, "itr_brut": 0.6804, "itr_score": 23.41, "itr_label": "Accessible"}}, {"type": "Feature", "geometry": {"type": "Point", "coordinates": [2.313024, 48.876412]}, "properties": {"nom_voie": "AV DE MESSINE", "code_postal": "75008", "arrondissement": 8, "code_iris": "751083202", "prix_m2_median": 15911.4704, "revenu_median_uc": 57980.0, "nb_logements_sociaux": 22, "nb_transactions": 4, "c1_effort": 0.2744, "c2_logsoc": 1.0435, "c3_volume": 1.6094, "itr_brut": 0.4609, "itr_score": 15.77, "itr_label": "Très accessible"}}, {"type": "Feature", "geometry": {"type": "Point", "coordinates": [2.277811, 48.865546]}, "properties": {"nom_voie": "AV DE MONTESPAN", "code_postal": "75016", "arrondissement": 16, "code_iris": "751166303", "prix_m2_median": 13529.4118, "revenu_median_uc": 56460.0, "nb_logements_sociaux": 11, "nb_transactions": 5, "c1_effort": 0.2396, "c2_logsoc": 1.0833, "c3_volume": 1.7918, "itr_brut": 0.4651, "itr_score": 15.92, "itr_label": "Très accessible"}}, {"type": "Feature", "geometry": {"type": "Point", "coordinates": [2.294089, 48.862521]}, "properties": {"nom_voie": "AV DE NEW YORK", "code_postal": "75016", "arrondissement": 16, "code_iris": "751166401", "prix_m2_median": 14041.6667, "revenu_median_uc": 49360.0, "nb_logements_sociaux": 0, "nb_transactions": 9, "c1_effort": 0.2845, "c2_logsoc": 2.0, "c3_volume": 2.3026, "itr_brut": 1.3101, "itr_score": 45.31, "itr_label": "Modéré"}}, {"type": "Feature", "geometry": {"type": "Point", "coordinates": [2.288061, 48.882177]}, "properties": {"nom_voie": "AV DE PETERHOF", "code_postal": "75017", "arrondissement": 17, "code_iris": "751176507", "prix_m2_median": 11492.7083, "revenu_median_uc": 44100.0, "nb_logements_sociaux": 41, "nb_transactions": 3, "c1_effort": 0.2606, "c2_logsoc": 1.0238, "c3_volume": 1.3863, "itr_brut": 0.3699, "itr_score": 12.61, "itr_label": "Très accessible"}}, {"type": "Feature", "geometry": {"type": "Point", "coordinates": [2.327745, 48.892331]}, "properties": {"nom_voie": "AV DE SAINT OUEN", "code_postal": "75018", "arrondissement": 18, "code_iris": "751186905", "prix_m2_median": 10216.2162, "revenu_median_uc": 33340.0, "nb_logements_sociaux": 210, "nb_transactions": 33, "c1_effort": 0.3064, "c2_logsoc": 1.0047, "c3_volume": 3.5264, "itr_brut": 1.0857, "itr_score": 37.5, "itr_label": "Accessible"}}, {"type": "Feature", "geometry": {"type": "Point", "coordinates": [2.404962, 48.844692]}, "properties": {"nom_voie": "AV DE SAINT-MANDE", "code_postal": "75012", "arrondissement": 12, "code_iris": "751124512", "prix_m2_median": 10000.0, "revenu_median_uc": 32950.0, "nb_logements_sociaux": 129, "nb_transactions": 29, "c1_effort": 0.3035, "c2_logsoc": 1.0077, "c3_volume": 3.4012, "itr_brut": 1.0402, "itr_score": 35.92, "itr_label": "Accessible"}}, {"type": "Feature", "geometry": {"type": "Point", "coordinates": [2.32645, 48.891389]}, "properties": {"nom_voie": "AV DE SAINT-OUEN", "code_postal": "75017", "arrondissement": 17, "code_iris": "751176801", "prix_m2_median": 10000.0, "revenu_median_uc": 35370.0, "nb_logements_sociaux": 58, "nb_transactions": 29, "c1_effort": 0.2827, "c2_logsoc": 1.0169, "c3_volume": 3.4012, "itr_brut": 0.9779, "itr_score": 33.75, "itr_label": "Accessible"}}, {"type": "Feature", "geometry": {"type": "Point", "coordinates": [2.284407, 48.882343]}, "properties": {"nom_voie": "AV DE SALONIQUE", "code_postal": "75017", "arrondissement": 17, "code_iris": "751176506", "prix_m2_median": 9907.3529, "revenu_median_uc": 42660.0, "nb_logements_sociaux": 0, "nb_transactions": 4, "c1_effort": 0.2322, "c2_logsoc": 2.0, "c3_volume": 1.6094, "itr_brut": 0.7476, "itr_score": 25.74, "itr_label": "Accessible"}}, {"type": "Feature", "geometry": {"type": "Point", "coordinates": [2.310463, 48.848052]}, "properties": {"nom_voie": "AV DE SAXE", "code_postal": "75007", "arrondissement": 7, "code_iris": "751072703", "prix_m2_median": 14232.1429, "revenu_median_uc": 66680.0, "nb_logements_sociaux": 0, "nb_transactions": 6, "c1_effort": 0.2134, "c2_logsoc": 2.0, "c3_volume": 1.9459, "itr_brut": 0.8307, "itr_score": 28.63, "itr_label": "Accessible"}}, {"type": "Feature", "geometry": {"type": "Point", "coordinates": [2.310307, 48.8478]}, "properties": {"nom_voie": "AV DE SAXE", "code_postal": "75015", "arrondissement": 15, "code_iris": "751155813", "prix_m2_median": 2362.5, "revenu_median_uc": 59060.0, "nb_logements_sociaux": 12, "nb_transactions": 4, "c1_effort": 0.04, "c2_logsoc": 1.0769, "c3_volume": 1.6094, "itr_brut": 0.0693, "itr_score": 2.16, "itr_label": "Très accessible"}}, {"type": "Feature", "geometry": {"type": "Point", "coordinates": [2.309489, 48.85068]}, "properties": {"nom_voie": "AV DE SEGUR", "code_postal": "75007", "arrondissement": 7, "code_iris": "751072704", "prix_m2_median": 12428.5714, "revenu_median_uc": 56170.0, "nb_logements_sociaux": 51, "nb_transactions": 23, "c1_effort": 0.2213, "c2_logsoc": 1.0192, "c3_volume": 3.1781, "itr_brut": 0.7167, "itr_score": 24.67, "itr_label": "Accessible"}}, {"type": "Feature", "geometry": {"type": "Point", "coordinates": [2.304531, 48.849352]}, "properties": {"nom_voie": "AV DE SUFFREN", "code_postal": "75007", "arrondissement": 7, "code_iris": "751072703", "prix_m2_median": 93.617, "revenu_median_uc": 66680.0, "nb_logements_sociaux": 0, "nb_transactions": 21, "c1_effort": 0.0014, "c2_logsoc": 2.0, "c3_volume": 3.091, "itr_brut": 0.0087, "itr_score": 0.05, "itr_label": "Très accessible"}}, {"type": "Feature", "geometry": {"type": "Point", "coordinates": [2.298008, 48.852401]}, "properties": {"nom_voie": "AV DE SUFFREN", "code_postal": "75015", "arrondissement": 15, "code_iris": "751155917", "prix_m2_median": 13052.8812, "revenu_median_uc": 41260.0, "nb_logements_sociaux": 39, "nb_transactions": 50, "c1_effort": 0.3164, "c2_logsoc": 1.025, "c3_volume": 3.9318, "itr_brut": 1.275, "itr_score": 44.09, "itr_label": "Modéré"}}, {"type": "Feature", "geometry": {"type": "Point", "coordinates": [2.397726, 48.850297]}, "properties": {"nom_voie": "AV DE TAILLEBOURG", "code_postal": "75011", "arrondissement": 11, "code_iris": "751114401", "prix_m2_median": 10975.3396, "revenu_median_uc": 39790.0, "nb_logements_sociaux": 54, "nb_transactions": 4, "c1_effort": 0.2758, "c2_logsoc": 1.0182, "c3_volume": 1.6094, "itr_brut": 0.452, "itr_score": 15.46, "itr_label": "Très accessible"}}, {"type": "Feature", "geometry": {"type": "Point", "coordinates": [2.307891, 48.85385]}, "properties": {"nom_voie": "AV DE TOURVILLE", "code_postal": "75007", "arrondissement": 7, "code_iris": "751072705", "prix_m2_median": 14421.8447, "revenu_median_uc": 68670.0, "nb_logements_sociaux": 0, "nb_transactions": 5, "c1_effort": 0.21, "c2_logsoc": 2.0, "c3_volume": 1.7918, "itr_brut": 0.7526, "itr_score": 25.92, "itr_label": "Accessible"}}, {"type": "Feature", "geometry": {"type": "Point", "coordinates": [2.362925, 48.876418]}, "properties": {"nom_voie": "AV DE VERDUN", "code_postal": "75010", "arrondissement": 10, "code_iris": "751104008", "prix_m2_median": 8854.1667, "revenu_median_uc": 27310.0, "nb_logements_sociaux": 151, "nb_transactions": 3, "c1_effort": 0.3242, "c2_logsoc": 1.0066, "c3_volume": 1.3863, "itr_brut": 0.4524, "itr_score": 15.48, "itr_label": "Très accessible"}}, {"type": "Feature", "geometry": {"type": "Point", "coordinates": [2.26876, 48.843813]}, "properties": {"nom_voie": "AV DE VERSAILLES", "code_postal": "75016", "arrondissement": 16, "code_iris": "751166115", "prix_m2_median": 10146.6245, "revenu_median_uc": 37750.0, "nb_logements_sociaux": 184, "nb_transactions": 94, "c1_effort": 0.2688, "c2_logsoc": 1.0054, "c3_volume": 4.5539, "itr_brut": 1.2306, "itr_score": 42.54, "itr_label": "Modéré"}}, {"type": "Feature", "geometry": {"type": "Point", "coordinates": [2.288092, 48.881508]}, "properties": {"nom_voie": "AV DE VERZY", "code_postal": "75017", "arrondissement": 17, "code_iris": "751176507", "prix_m2_median": 11818.1818, "revenu_median_uc": 44100.0, "nb_logements_sociaux": 41, "nb_transactions": 3, "c1_effort": 0.268, "c2_logsoc": 1.0238, "c3_volume": 1.3863, "itr_brut": 0.3804, "itr_score": 12.97, "itr_label": "Très accessible"}}, {"type": "Feature", "geometry": {"type": "Point", "coordinates": [2.313578, 48.852346]}, "properties": {"nom_voie": "AV DE VILLARS", "code_postal": "75007", "arrondissement": 7, "code_iris": "751072705", "prix_m2_median": 15658.6905, "revenu_median_uc": 68670.0, "nb_logements_sociaux": 0, "nb_transactions": 4, "c1_effort": 0.228, "c2_logsoc": 2.0, "c3_volume": 1.6094, "itr_brut": 0.734, "itr_score": 25.27, "itr_label": "Accessible"}}, {"type": "Feature", "geometry": {"type": "Point", "coordinates": [2.299334, 48.884492]}, "properties": {"nom_voie": "AV DE VILLIERS", "code_postal": "75017", "arrondissement": 17, "code_iris": "751176613", "prix_m2_median": 11619.5911, "revenu_median_uc": 48840.0, "nb_logements_sociaux": 0, "nb_transactions": 28, "c1_effort": 0.2379, "c2_logsoc": 2.0, "c3_volume": 3.3673, "itr_brut": 1.6022, "itr_score": 55.47, "itr_label": "Modéré"}}, {"type": "Feature", "geometry": {"type": "Point", "coordinates": [2.297425, 48.876272]}, "properties": {"nom_voie": "AV DE WAGRAM", "code_postal": "75008", "arrondissement": 8, "code_iris": "751083001", "prix_m2_median": 13076.9231, "revenu_median_uc": 57440.0, "nb_logements_sociaux": 0, "nb_transactions": 9, "c1_effort": 0.2277, "c2_logsoc": 2.0, "c3_volume": 2.3026, "itr_brut": 1.0484, "itr_score": 36.21, "itr_label": "Accessible"}}, {"type": "Feature", "geometry": {"type": "Point", "coordinates": [2.300368, 48.881425]}, "properties": {"nom_voie": "AV DE WAGRAM", "code_postal": "75017", "arrondissement": 17, "code_iris": "751176606", "prix_m2_median": 11868.6818, "revenu_median_uc": 69150.0, "nb_logements_sociaux": 0, "nb_transactions": 44, "c1_effort": 0.1716, "c2_logsoc": 2.0, "c3_volume": 3.8067, "itr_brut": 1.3067, "itr_score": 45.19, "itr_label": "Modéré"}}, {"type": "Feature", "geometry": {"type": "Point", "coordinates": [2.333673, 48.835458]}, "properties": {"nom_voie": "AV DENFERT ROCHEREAU", "code_postal": "75014", "arrondissement": 14, "code_iris": "751145302", "prix_m2_median": 12226.2841, "revenu_median_uc": 46270.0, "nb_logements_sociaux": 135, "nb_transactions": 6, "c1_effort": 0.2642, "c2_logsoc": 1.0074, "c3_volume": 1.9459, "itr_brut": 0.518, "itr_score": 17.76, "itr_label": "Très accessible"}}, {"type": "Feature", "geometry": {"type": "Point", "coordinates": [2.306032, 48.887007]}, "properties": {"nom_voie": "AV DES CHASSEURS", "code_postal": "75017", "arrondissement": 17, "code_iris": "751176611", "prix_m2_median": 11463.8889, "revenu_median_uc": 57320.0, "nb_logements_sociaux": 43, "nb_transactions": 6, "c1_effort": 0.2, "c2_logsoc": 1.0227, "c3_volume": 1.9459, "itr_brut": 0.398, "itr_score": 13.59, "itr_label": "Très accessible"}}, {"type": "Feature", "geometry": {"type": "Point", "coordinates": [2.351213, 48.837869]}, "properties": {"nom_voie": "AV DES GOBELINS", "code_postal": "75005", "arrondissement": 5, "code_iris": "751051802", "prix_m2_median": 12352.9412, "revenu_median_uc": 38710.0, "nb_logements_sociaux": 111, "nb_transactions": 11, "c1_effort": 0.3191, "c2_logsoc": 1.0089, "c3_volume": 2.4849, "itr_brut": 0.8001, "itr_score": 27.57, "itr_label": "Accessible"}}, {"type": "Feature", "geometry": {"type": "Point", "coordinates": [2.353184, 48.835021]}, "properties": {"nom_voie": "AV DES GOBELINS", "code_postal": "75013", "arrondissement": 13, "code_iris": "751134905", "prix_m2_median": 10980.0, "revenu_median_uc": 36300.0, "nb_logements_sociaux": 13, "nb_transactions": 21, "c1_effort": 0.3025, "c2_logsoc": 1.0714, "c3_volume": 3.091, "itr_brut": 1.0018, "itr_score": 34.58, "itr_label": "Accessible"}}, {"type": "Feature", "geometry": {"type": "Point", "coordinates": [2.290073, 48.879708]}, "properties": {"nom_voie": "AV DES TERNES", "code_postal": "75017", "arrondissement": 17, "code_iris": "751176507", "prix_m2_median": 11785.7143, "revenu_median_uc": 44100.0, "nb_logements_sociaux": 41, "nb_transactions": 33, "c1_effort": 0.2672, "c2_logsoc": 1.0238, "c3_volume": 3.5264, "itr_brut": 0.9649, "itr_score": 33.3, "itr_label": "Accessible"}}, {"type": "Feature", "geometry": {"type": "Point", "coordinates": [2.397199, 48.846437]}, "properties": {"nom_voie": "AV DU BEL AIR", "code_postal": "75012", "arrondissement": 12, "code_iris": "751124623", "prix_m2_median": 10153.4591, "revenu_median_uc": 40850.0, "nb_logements_sociaux": 30, "nb_transactions": 11, "c1_effort": 0.2486, "c2_logsoc": 1.0323, "c3_volume": 2.4849, "itr_brut": 0.6376, "itr_score": 21.92, "itr_label": "Accessible"}}, {"type": "Feature", "geometry": {"type": "Point", "coordinates": [2.278602, 48.855057]}, "properties": {"nom_voie": "AV DU COL BONNET", "code_postal": "75016", "arrondissement": 16, "code_iris": "751166203", "prix_m2_median": 12547.8056, "revenu_median_uc": 57440.0, "nb_logements_sociaux": 0, "nb_transactions": 8, "c1_effort": 0.2185, "c2_logsoc": 2.0, "c3_volume": 2.1972, "itr_brut": 0.96, "itr_score": 33.13, "itr_label": "Accessible"}}, {"type": "Feature", "geometry": {"type": "Point", "coordinates": [2.404923, 48.843843]}, "properties": {"nom_voie": "AV DU DOC ARNOLD NETTER", "code_postal": "75012", "arrondissement": 12, "code_iris": "751124506", "prix_m2_median": 10411.6059, "revenu_median_uc": 40000.0, "nb_logements_sociaux": 348, "nb_transactions": 40, "c1_effort": 0.2603, "c2_logsoc": 1.0029, "c3_volume": 3.7136, "itr_brut": 0.9694, "itr_score": 33.46, "itr_label": "Accessible"}}, {"type": "Feature", "geometry": {"type": "Point", "coordinates": [2.259506, 48.844886]}, "properties": {"nom_voie": "AV DU GAL BALFOURIER", "code_postal": "75016", "arrondissement": 16, "code_iris": "751166110", "prix_m2_median": 9885.1351, "revenu_median_uc": 38510.0, "nb_logements_sociaux": 404, "nb_transactions": 5, "c1_effort": 0.2567, "c2_logsoc": 1.0025, "c3_volume": 1.7918, "itr_brut": 0.4611, "itr_score": 15.78, "itr_label": "Très accessible"}}, {"type": "Feature", "geometry": {"type": "Point", "coordinates": [2.402089, 48.836392]}, "properties": {"nom_voie": "AV DU GAL MICHEL BIZOT", "code_postal": "75012", "arrondissement": 12, "code_iris": "751124602", "prix_m2_median": 10225.8772, "revenu_median_uc": 32840.0, "nb_logements_sociaux": 231, "nb_transactions": 70, "c1_effort": 0.3114, "c2_logsoc": 1.0043, "c3_volume": 4.2627, "itr_brut": 1.3331, "itr_score": 46.11, "itr_label": "Modéré"}}, {"type": "Feature", "geometry": {"type": "Point", "coordinates": [2.327891, 48.828596]}, "properties": {"nom_voie": "AV DU GENERAL LECLERC", "code_postal": "75014", "arrondissement": 14, "code_iris": "751145512", "prix_m2_median": 10258.2237, "revenu_median_uc": 37840.0, "nb_logements_sociaux": 47, "nb_transactions": 50, "c1_effort": 0.2711, "c2_logsoc": 1.0208, "c3_volume": 3.9318, "itr_brut": 1.0881, "itr_score": 37.59, "itr_label": "Accessible"}}, {"type": "Feature", "geometry": {"type": "Point", "coordinates": [2.324279, 48.834264]}, "properties": {"nom_voie": "AV DU MAINE", "code_postal": "75014", "arrondissement": 14, "code_iris": "751145513", "prix_m2_median": 11274.1935, "revenu_median_uc": 38530.0, "nb_logements_sociaux": 61, "nb_transactions": 57, "c1_effort": 0.2926, "c2_logsoc": 1.0161, "c3_volume": 4.0604, "itr_brut": 1.2073, "itr_score": 41.73, "itr_label": "Modéré"}}, {"type": "Feature", "geometry": {"type": "Point", "coordinates": [2.320368, 48.843631]}, "properties": {"nom_voie": "AV DU MAINE", "code_postal": "75015", "arrondissement": 15, "code_iris": "751155817", "prix_m2_median": 9823.7392, "revenu_median_uc": 38980.0, "nb_logements_sociaux": 39, "nb_transactions": 8, "c1_effort": 0.252, "c2_logsoc": 1.025, "c3_volume": 2.1972, "itr_brut": 0.5676, "itr_score": 19.48, "itr_label": "Très accessible"}}, {"type": "Feature", "geometry": {"type": "Point", "coordinates": [2.397535, 48.864257]}, "properties": {"nom_voie": "AV DU PERE LACHAISE", "code_postal": "75020", "arrondissement": 20, "code_iris": "751207904", "prix_m2_median": 10298.3871, "revenu_median_uc": 31800.0, "nb_logements_sociaux": 23, "nb_transactions": 4, "c1_effort": 0.3238, "c2_logsoc": 1.0417, "c3_volume": 1.6094, "itr_brut": 0.5429, "itr_score": 18.63, "itr_label": "Très accessible"}}, {"type": "Feature", "geometry": {"type": "Point", "coordinates": [2.309629, 48.852317]}, "properties": {"nom_voie": "AV DUQUESNE", "code_postal": "75007", "arrondissement": 7, "code_iris": "751072705", "prix_m2_median": 13636.3636, "revenu_median_uc": 68670.0, "nb_logements_sociaux": 0, "nb_transactions": 15, "c1_effort": 0.1986, "c2_logsoc": 2.0, "c3_volume": 2.7726, "itr_brut": 1.1012, "itr_score": 38.04, "itr_label": "Accessible"}}, {"type": "Feature", "geometry": {"type": "Point", "coordinates": [2.29838, 48.85797]}, "properties": {"nom_voie": "AV ELISEE RECLUS", "code_postal": "75007", "arrondissement": 7, "code_iris": "751072806", "prix_m2_median": 18066.872, "revenu_median_uc": 77180.0, "nb_logements_sociaux": 0, "nb_transactions": 6, "c1_effort": 0.2341, "c2_logsoc": 2.0, "c3_volume": 1.9459, "itr_brut": 0.911, "itr_score": 31.43, "itr_label": "Accessible"}}, {"type": "Feature", "geometry": {"type": "Point", "coordinates": [2.300141, 48.852247]}, "properties": {"nom_voie": "AV EMILE ACOLLAS", "code_postal": "75007", "arrondissement": 7, "code_iris": "751072807", "prix_m2_median": 13509.5698, "revenu_median_uc": 74290.0, "nb_logements_sociaux": 8, "nb_transactions": 6, "c1_effort": 0.1818, "c2_logsoc": 1.1111, "c3_volume": 1.9459, "itr_brut": 0.3932, "itr_score": 13.42, "itr_label": "Très accessible"}}, {"type": "Feature", "geometry": {"type": "Point", "coordinates": [2.271384, 48.852985]}, "properties": {"nom_voie": "AV EMILE BERGERAT", "code_postal": "75016", "arrondissement": 16, "code_iris": "751166125", "prix_m2_median": 16367.0974, "revenu_median_uc": 57170.0, "nb_logements_sociaux": 13, "nb_transactions": 3, "c1_effort": 0.2863, "c2_logsoc": 1.0714, "c3_volume": 1.3863, "itr_brut": 0.4252, "itr_score": 14.53, "itr_label": "Très accessible"}}, {"type": "Feature", "geometry": {"type": "Point", "coordinates": [2.302398, 48.855558]}, "properties": {"nom_voie": "AV EMILE DESCHANEL", "code_postal": "75007", "arrondissement": 7, "code_iris": "751072806", "prix_m2_median": 21238.4937, "revenu_median_uc": 77180.0, "nb_logements_sociaux": 0, "nb_transactions": 9, "c1_effort": 0.2752, "c2_logsoc": 2.0, "c3_volume": 2.3026, "itr_brut": 1.2673, "itr_score": 43.82, "itr_label": "Modéré"}}, {"type": "Feature", "geometry": {"type": "Point", "coordinates": [2.286353, 48.846394]}, "properties": {"nom_voie": "AV EMILE ZOLA", "code_postal": "75015", "arrondissement": 15, "code_iris": "751156015", "prix_m2_median": 10581.3953, "revenu_median_uc": 30370.0, "nb_logements_sociaux": 27, "nb_transactions": 27, "c1_effort": 0.3484, "c2_logsoc": 1.0357, "c3_volume": 3.3322, "itr_brut": 1.2025, "itr_score": 41.56, "itr_label": "Modéré"}}, {"type": "Feature", "geometry": {"type": "Point", "coordinates": [2.262512, 48.847561]}, "properties": {"nom_voie": "AV ERLANGER", "code_postal": "75016", "arrondissement": 16, "code_iris": "751166111", "prix_m2_median": 11355.9322, "revenu_median_uc": 51340.0, "nb_logements_sociaux": 0, "nb_transactions": 3, "c1_effort": 0.2212, "c2_logsoc": 2.0, "c3_volume": 1.3863, "itr_brut": 0.6133, "itr_score": 21.07, "itr_label": "Accessible"}}, {"type": "Feature", "geometry": {"type": "Point", "coordinates": [2.284627, 48.839826]}, "properties": {"nom_voie": "AV FELIX FAURE", "code_postal": "75015", "arrondissement": 15, "code_iris": "751156006", "prix_m2_median": 10202.6786, "revenu_median_uc": 34630.0, "nb_logements_sociaux": 189, "nb_transactions": 67, "c1_effort": 0.2946, "c2_logsoc": 1.0053, "c3_volume": 4.2195, "itr_brut": 1.2497, "itr_score": 43.21, "itr_label": "Modéré"}}, {"type": "Feature", "geometry": {"type": "Point", "coordinates": [2.284993, 48.872741]}, "properties": {"nom_voie": "AV FOCH", "code_postal": "75016", "arrondissement": 16, "code_iris": "751166407", "prix_m2_median": 13860.5442, "revenu_median_uc": 48940.0, "nb_logements_sociaux": 28, "nb_transactions": 55, "c1_effort": 0.2832, "c2_logsoc": 1.0345, "c3_volume": 4.0254, "itr_brut": 1.1794, "itr_score": 40.76, "itr_label": "Modéré"}}, {"type": "Feature", "geometry": {"type": "Point", "coordinates": [2.299344, 48.860023]}, "properties": {"nom_voie": "AV FRANCO RUSSE", "code_postal": "75007", "arrondissement": 7, "code_iris": "751072809", "prix_m2_median": 16821.5385, "revenu_median_uc": 52430.0, "nb_logements_sociaux": 0, "nb_transactions": 3, "c1_effort": 0.3208, "c2_logsoc": 2.0, "c3_volume": 1.3863, "itr_brut": 0.8896, "itr_score": 30.68, "itr_label": "Accessible"}}, {"type": "Feature", "geometry": {"type": "Point", "coordinates": [2.309958, 48.870502]}, "properties": {"nom_voie": "AV FRANKLIN D ROOSEVELT", "code_postal": "75008", "arrondissement": 8, "code_iris": "751083004", "prix_m2_median": 15555.5556, "revenu_median_uc": 43570.0, "nb_logements_sociaux": 18, "nb_transactions": 7, "c1_effort": 0.357, "c2_logsoc": 1.0526, "c3_volume": 2.0794, "itr_brut": 0.7815, "itr_score": 26.92, "itr_label": "Accessible"}}, {"type": "Feature", "geometry": {"type": "Point", "coordinates": [2.303764, 48.854611]}, "properties": {"nom_voie": "AV FREDERIC LE PLAY", "code_postal": "75007", "arrondissement": 7, "code_iris": "751072806", "prix_m2_median": 17663.5514, "revenu_median_uc": 77180.0, "nb_logements_sociaux": 0, "nb_transactions": 3, "c1_effort": 0.2289, "c2_logsoc": 2.0, "c3_volume": 1.3863, "itr_brut": 0.6345, "itr_score": 21.81, "itr_label": "Accessible"}}, {"type": "Feature", "geometry": {"type": "Point", "coordinates": [2.28507, 48.856642]}, "properties": {"nom_voie": "AV FREMIET", "code_postal": "75016", "arrondissement": 16, "code_iris": "751166213", "prix_m2_median": 10882.3529, "revenu_median_uc": 58540.0, "nb_logements_sociaux": 60, "nb_transactions": 3, "c1_effort": 0.1859, "c2_logsoc": 1.0164, "c3_volume": 1.3863, "itr_brut": 0.2619, "itr_score": 8.85, "itr_label": "Très accessible"}}, {"type": "Feature", "geometry": {"type": "Point", "coordinates": [2.338088, 48.881399]}, "properties": {"nom_voie": "AV FROCHOT", "code_postal": "75009", "arrondissement": 9, "code_iris": "751093310", "prix_m2_median": 23833.3333, "revenu_median_uc": 47750.0, "nb_logements_sociaux": 44, "nb_transactions": 3, "c1_effort": 0.4991, "c2_logsoc": 1.0222, "c3_volume": 1.3863, "itr_brut": 0.7073, "itr_score": 24.34, "itr_label": "Accessible"}}, {"type": "Feature", "geometry": {"type": "Point", "coordinates": [2.255896, 48.843853]}, "properties": {"nom_voie": "AV GAL SARRAIL", "code_postal": "75016", "arrondissement": 16, "code_iris": "751166108", "prix_m2_median": 10340.6667, "revenu_median_uc": 24890.0, "nb_logements_sociaux": 874, "nb_transactions": 3, "c1_effort": 0.4155, "c2_logsoc": 1.0011, "c3_volume": 1.3863, "itr_brut": 0.5766, "itr_score": 19.8, "itr_label": "Très accessible"}}, {"type": "Feature", "geometry": {"type": "Point", "coordinates": [2.398254, 48.867436]}, "properties": {"nom_voie": "AV GAMBETTA", "code_postal": "75020", "arrondissement": 20, "code_iris": "751207909", "prix_m2_median": 9609.9746, "revenu_median_uc": 33160.0, "nb_logements_sociaux": 327, "nb_transactions": 66, "c1_effort": 0.2898, "c2_logsoc": 1.003, "c3_volume": 4.2047, "itr_brut": 1.2223, "itr_score": 42.25, "itr_label": "Modéré"}}, {"type": "Feature", "geometry": {"type": "Point", "coordinates": [2.281861, 48.863764]}, "properties": {"nom_voie": "AV GEORGES MANDEL", "code_postal": "75016", "arrondissement": 16, "code_iris": "751166301", "prix_m2_median": 15000.0, "revenu_median_uc": 46950.0, "nb_logements_sociaux": 223, "nb_transactions": 17, "c1_effort": 0.3195, "c2_logsoc": 1.0045, "c3_volume": 2.8904, "itr_brut": 0.9276, "itr_score": 32.0, "itr_label": "Accessible"}}, {"type": "Feature", "geometry": {"type": "Point", "coordinates": [2.297561, 48.886412]}, "properties": {"nom_voie": "AV GOURGAUD", "code_postal": "75017", "arrondissement": 17, "code_iris": "751176612", "prix_m2_median": 11197.963, "revenu_median_uc": 56810.0, "nb_logements_sociaux": 1, "nb_transactions": 7, "c1_effort": 0.1971, "c2_logsoc": 1.5, "c3_volume": 2.0794, "itr_brut": 0.6148, "itr_score": 21.13, "itr_label": "Accessible"}}, {"type": "Feature", "geometry": {"type": "Point", "coordinates": [2.274018, 48.864142]}, "properties": {"nom_voie": "AV HENRI MARTIN", "code_postal": "75016", "arrondissement": 16, "code_iris": "751166209", "prix_m2_median": 12708.3333, "revenu_median_uc": 64760.0, "nb_logements_sociaux": 0, "nb_transactions": 17, "c1_effort": 0.1962, "c2_logsoc": 2.0, "c3_volume": 2.8904, "itr_brut": 1.1344, "itr_score": 39.2, "itr_label": "Accessible"}}, {"type": "Feature", "geometry": {"type": "Point", "coordinates": [2.302069, 48.876721]}, "properties": {"nom_voie": "AV HOCHE", "code_postal": "75008", "arrondissement": 8, "code_iris": "751083002", "prix_m2_median": 16521.251, "revenu_median_uc": 49520.0, "nb_logements_sociaux": 241, "nb_transactions": 10, "c1_effort": 0.3336, "c2_logsoc": 1.0041, "c3_volume": 2.3979, "itr_brut": 0.8033, "itr_score": 27.68, "itr_label": "Accessible"}}, {"type": "Feature", "geometry": {"type": "Point", "coordinates": [2.265126, 48.8569]}, "properties": {"nom_voie": "AV INGRES", "code_postal": "75016", "arrondissement": 16, "code_iris": "751166206", "prix_m2_median": 11530.9524, "revenu_median_uc": 56540.0, "nb_logements_sociaux": 0, "nb_transactions": 4, "c1_effort": 0.2039, "c2_logsoc": 2.0, "c3_volume": 1.6094, "itr_brut": 0.6565, "itr_score": 22.58, "itr_label": "Accessible"}}, {"type": "Feature", "geometry": {"type": "Point", "coordinates": [2.381076, 48.865505]}, "properties": {"nom_voie": "AV JEAN AICARD", "code_postal": "75011", "arrondissement": 11, "code_iris": "751114214", "prix_m2_median": 11219.7917, "revenu_median_uc": 29530.0, "nb_logements_sociaux": 69, "nb_transactions": 5, "c1_effort": 0.3799, "c2_logsoc": 1.0143, "c3_volume": 1.7918, "itr_brut": 0.6905, "itr_score": 23.76, "itr_label": "Accessible"}}, {"type": "Feature", "geometry": {"type": "Point", "coordinates": [2.382491, 48.88601]}, "properties": {"nom_voie": "AV JEAN JAURES", "code_postal": "75019", "arrondissement": 19, "code_iris": "751197402", "prix_m2_median": 9668.6992, "revenu_median_uc": 26120.0, "nb_logements_sociaux": 393, "nb_transactions": 110, "c1_effort": 0.3702, "c2_logsoc": 1.0025, "c3_volume": 4.7095, "itr_brut": 1.7477, "itr_score": 60.53, "itr_label": "Tendu"}}, {"type": "Feature", "geometry": {"type": "Point", "coordinates": [2.323105, 48.826092]}, "properties": {"nom_voie": "AV JEAN MOULIN", "code_postal": "75014", "arrondissement": 14, "code_iris": "751145506", "prix_m2_median": 10319.0476, "revenu_median_uc": 41890.0, "nb_logements_sociaux": 76, "nb_transactions": 28, "c1_effort": 0.2463, "c2_logsoc": 1.013, "c3_volume": 3.3673, "itr_brut": 0.8403, "itr_score": 28.97, "itr_label": "Accessible"}}, {"type": "Feature", "geometry": {"type": "Point", "coordinates": [2.336167, 48.888496]}, "properties": {"nom_voie": "AV JUNOT", "code_postal": "75018", "arrondissement": 18, "code_iris": "751186911", "prix_m2_median": 12965.5, "revenu_median_uc": 51150.0, "nb_logements_sociaux": 3, "nb_transactions": 17, "c1_effort": 0.2535, "c2_logsoc": 1.25, "c3_volume": 2.8904, "itr_brut": 0.9158, "itr_score": 31.6, "itr_label": "Accessible"}}, {"type": "Feature", "geometry": {"type": "Point", "coordinates": [2.290388, 48.867327]}, "properties": {"nom_voie": "AV KLEBER", "code_postal": "75016", "arrondissement": 16, "code_iris": "751166403", "prix_m2_median": 12898.5185, "revenu_median_uc": 45600.0, "nb_logements_sociaux": 42, "nb_transactions": 21, "c1_effort": 0.2829, "c2_logsoc": 1.0233, "c3_volume": 3.091, "itr_brut": 0.8947, "itr_score": 30.86, "itr_label": "Accessible"}}, {"type": "Feature", "geometry": {"type": "Point", "coordinates": [2.290344, 48.874699]}, "properties": {"nom_voie": "AV LA GRANDE ARMEE", "code_postal": "75016", "arrondissement": 16, "code_iris": "751166407", "prix_m2_median": 11230.7692, "revenu_median_uc": 48940.0, "nb_logements_sociaux": 28, "nb_transactions": 6, "c1_effort": 0.2295, "c2_logsoc": 1.0345, "c3_volume": 1.9459, "itr_brut": 0.4619, "itr_score": 15.81, "itr_label": "Très accessible"}}, {"type": "Feature", "geometry": {"type": "Point", "coordinates": [2.286403, 48.883402]}, "properties": {"nom_voie": "AV LA PORTE DE VILLIERS", "code_postal": "75017", "arrondissement": 17, "code_iris": "751176506", "prix_m2_median": 8014.7059, "revenu_median_uc": 42660.0, "nb_logements_sociaux": 0, "nb_transactions": 5, "c1_effort": 0.1879, "c2_logsoc": 2.0, "c3_volume": 1.7918, "itr_brut": 0.6733, "itr_score": 23.16, "itr_label": "Accessible"}}, {"type": "Feature", "geometry": {"type": "Point", "coordinates": [2.377695, 48.854061]}, "properties": {"nom_voie": "AV LEDRU ROLLIN", "code_postal": "75011", "arrondissement": 11, "code_iris": "751114308", "prix_m2_median": 12200.7853, "revenu_median_uc": 29420.0, "nb_logements_sociaux": 113, "nb_transactions": 12, "c1_effort": 0.4147, "c2_logsoc": 1.0088, "c3_volume": 2.5649, "itr_brut": 1.073, "itr_score": 37.06, "itr_label": "Accessible"}}, {"type": "Feature", "geometry": {"type": "Point", "coordinates": [2.373018, 48.84904]}, "properties": {"nom_voie": "AV LEDRU ROLLIN", "code_postal": "75012", "arrondissement": 12, "code_iris": "751124807", "prix_m2_median": 11098.6367, "revenu_median_uc": 35280.0, "nb_logements_sociaux": 134, "nb_transactions": 30, "c1_effort": 0.3146, "c2_logsoc": 1.0074, "c3_volume": 3.434, "itr_brut": 1.0883, "itr_score": 37.59, "itr_label": "Accessible"}}, {"type": "Feature", "geometry": {"type": "Point", "coordinates": [2.271381, 48.847338]}, "properties": {"nom_voie": "AV LEON HEUZEY", "code_postal": "75016", "arrondissement": 16, "code_iris": "751166117", "prix_m2_median": 12341.883, "revenu_median_uc": 48130.0, "nb_logements_sociaux": 0, "nb_transactions": 4, "c1_effort": 0.2564, "c2_logsoc": 2.0, "c3_volume": 1.6094, "itr_brut": 0.8254, "itr_score": 28.45, "itr_label": "Accessible"}}, {"type": "Feature", "geometry": {"type": "Point", "coordinates": [2.294273, 48.876381]}, "properties": {"nom_voie": "AV MAC MAHON", "code_postal": "75017", "arrondissement": 17, "code_iris": "751176501", "prix_m2_median": 13229.1667, "revenu_median_uc": 47010.0, "nb_logements_sociaux": 29, "nb_transactions": 10, "c1_effort": 0.2814, "c2_logsoc": 1.0333, "c3_volume": 2.3979, "itr_brut": 0.6973, "itr_score": 24.0, "itr_label": "Accessible"}}, {"type": "Feature", "geometry": {"type": "Point", "coordinates": [2.260135, 48.85143]}, "properties": {"nom_voie": "AV MAL LYAUTEY", "code_postal": "75016", "arrondissement": 16, "code_iris": "751166121", "prix_m2_median": 14965.9091, "revenu_median_uc": 35630.0, "nb_logements_sociaux": 231, "nb_transactions": 6, "c1_effort": 0.42, "c2_logsoc": 1.0043, "c3_volume": 1.9459, "itr_brut": 0.8209, "itr_score": 28.29, "itr_label": "Accessible"}}, {"type": "Feature", "geometry": {"type": "Point", "coordinates": [2.298091, 48.868809]}, "properties": {"nom_voie": "AV MARCEAU", "code_postal": "75016", "arrondissement": 16, "code_iris": "751166402", "prix_m2_median": 17500.0, "revenu_median_uc": 41740.0, "nb_logements_sociaux": 17, "nb_transactions": 7, "c1_effort": 0.4193, "c2_logsoc": 1.0556, "c3_volume": 2.0794, "itr_brut": 0.9203, "itr_score": 31.75, "itr_label": "Accessible"}}, {"type": "Feature", "geometry": {"type": "Point", "coordinates": [2.375532, 48.878375]}, "properties": {"nom_voie": "AV MATHURIN MOREAU", "code_postal": "75019", "arrondissement": 19, "code_iris": "751197609", "prix_m2_median": 10267.8571, "revenu_median_uc": 30840.0, "nb_logements_sociaux": 32, "nb_transactions": 17, "c1_effort": 0.3329, "c2_logsoc": 1.0303, "c3_volume": 2.8904, "itr_brut": 0.9915, "itr_score": 34.23, "itr_label": "Accessible"}}, {"type": "Feature", "geometry": {"type": "Point", "coordinates": [2.272098, 48.853232]}, "properties": {"nom_voie": "AV MILLERET DE BROU", "code_postal": "75016", "arrondissement": 16, "code_iris": "751166125", "prix_m2_median": 11927.6471, "revenu_median_uc": 57170.0, "nb_logements_sociaux": 13, "nb_transactions": 3, "c1_effort": 0.2086, "c2_logsoc": 1.0714, "c3_volume": 1.3863, "itr_brut": 0.3099, "itr_score": 10.52, "itr_label": "Très accessible"}}, {"type": "Feature", "geometry": {"type": "Point", "coordinates": [2.269654, 48.854235]}, "properties": {"nom_voie": "AV MOZART", "code_postal": "75016", "arrondissement": 16, "code_iris": "751166205", "prix_m2_median": 11671.7391, "revenu_median_uc": 66470.0, "nb_logements_sociaux": 27, "nb_transactions": 49, "c1_effort": 0.1756, "c2_logsoc": 1.0357, "c3_volume": 3.912, "itr_brut": 0.7115, "itr_score": 24.49, "itr_label": "Accessible"}}, {"type": "Feature", "geometry": {"type": "Point", "coordinates": [2.295442, 48.88161]}, "properties": {"nom_voie": "AV NIEL", "code_postal": "75017", "arrondissement": 17, "code_iris": "751176509", "prix_m2_median": 11589.9582, "revenu_median_uc": 59200.0, "nb_logements_sociaux": 0, "nb_transactions": 23, "c1_effort": 0.1958, "c2_logsoc": 2.0, "c3_volume": 3.1781, "itr_brut": 1.2444, "itr_score": 43.02, "itr_label": "Modéré"}}, {"type": "Feature", "geometry": {"type": "Point", "coordinates": [2.370373, 48.87112]}, "properties": {"nom_voie": "AV PARMENTIER", "code_postal": "75010", "arrondissement": 10, "code_iris": "751104003", "prix_m2_median": 10631.6489, "revenu_median_uc": 29430.0, "nb_logements_sociaux": 139, "nb_transactions": 20, "c1_effort": 0.3613, "c2_logsoc": 1.0071, "c3_volume": 3.0445, "itr_brut": 1.1077, "itr_score": 38.27, "itr_label": "Accessible"}}, {"type": "Feature", "geometry": {"type": "Point", "coordinates": [2.375034, 48.864644]}, "properties": {"nom_voie": "AV PARMENTIER", "code_postal": "75011", "arrondissement": 11, "code_iris": "751114115", "prix_m2_median": 11250.0, "revenu_median_uc": 35490.0, "nb_logements_sociaux": 16, "nb_transactions": 77, "c1_effort": 0.317, "c2_logsoc": 1.0588, "c3_volume": 4.3567, "itr_brut": 1.4623, "itr_score": 50.6, "itr_label": "Modéré"}}, {"type": "Feature", "geometry": {"type": "Point", "coordinates": [2.280932, 48.860232]}, "properties": {"nom_voie": "AV PAUL DOUMER", "code_postal": "75016", "arrondissement": 16, "code_iris": "751166220", "prix_m2_median": 12664.4494, "revenu_median_uc": 49920.0, "nb_logements_sociaux": 39, "nb_transactions": 46, "c1_effort": 0.2537, "c2_logsoc": 1.025, "c3_volume": 3.8501, "itr_brut": 1.0012, "itr_score": 34.56, "itr_label": "Accessible"}}, {"type": "Feature", "geometry": {"type": "Point", "coordinates": [2.292615, 48.864266]}, "properties": {"nom_voie": "AV PDT WILSON", "code_postal": "75016", "arrondissement": 16, "code_iris": "751166402", "prix_m2_median": 16835.2941, "revenu_median_uc": 41740.0, "nb_logements_sociaux": 17, "nb_transactions": 7, "c1_effort": 0.4033, "c2_logsoc": 1.0556, "c3_volume": 2.0794, "itr_brut": 0.8853, "itr_score": 30.53, "itr_label": "Accessible"}}, {"type": "Feature", "geometry": {"type": "Point", "coordinates": [2.272964, 48.849608]}, "properties": {"nom_voie": "AV PERRICHONT", "code_postal": "75016", "arrondissement": 16, "code_iris": "751166128", "prix_m2_median": 10956.5438, "revenu_median_uc": 47770.0, "nb_logements_sociaux": 106, "nb_transactions": 8, "c1_effort": 0.2294, "c2_logsoc": 1.0093, "c3_volume": 2.1972, "itr_brut": 0.5087, "itr_score": 17.44, "itr_label": "Très accessible"}}, {"type": "Feature", "geometry": {"type": "Point", "coordinates": [2.391965, 48.854859]}, "properties": {"nom_voie": "AV PHILIPPE AUGUSTE", "code_postal": "75011", "arrondissement": 11, "code_iris": "751114301", "prix_m2_median": 9988.3721, "revenu_median_uc": 23680.0, "nb_logements_sociaux": 244, "nb_transactions": 74, "c1_effort": 0.4218, "c2_logsoc": 1.0041, "c3_volume": 4.3175, "itr_brut": 1.8286, "itr_score": 63.34, "itr_label": "Tendu"}}, {"type": "Feature", "geometry": {"type": "Point", "coordinates": [2.35255, 48.900565]}, "properties": {"nom_voie": "AV PTE DES POISSONNIERS", "code_postal": "75018", "arrondissement": 18, "code_iris": "751187110", "prix_m2_median": 6817.5119, "revenu_median_uc": 17020.0, "nb_logements_sociaux": 2207, "nb_transactions": 14, "c1_effort": 0.4006, "c2_logsoc": 1.0005, "c3_volume": 2.7081, "itr_brut": 1.0852, "itr_score": 37.49, "itr_label": "Accessible"}}, {"type": "Feature", "geometry": {"type": "Point", "coordinates": [2.33045, 48.88483]}, "properties": {"nom_voie": "AV RACHEL", "code_postal": "75018", "arrondissement": 18, "code_iris": "751186903", "prix_m2_median": 11596.3411, "revenu_median_uc": 35750.0, "nb_logements_sociaux": 127, "nb_transactions": 6, "c1_effort": 0.3244, "c2_logsoc": 1.0078, "c3_volume": 1.9459, "itr_brut": 0.6361, "itr_score": 21.87, "itr_label": "Accessible"}}, {"type": "Feature", "geometry": {"type": "Point", "coordinates": [2.266863, 48.859117]}, "properties": {"nom_voie": "AV RAPHAEL", "code_postal": "75016", "arrondissement": 16, "code_iris": "751166207", "prix_m2_median": 16153.8462, "revenu_median_uc": 57470.0, "nb_logements_sociaux": 0, "nb_transactions": 3, "c1_effort": 0.2811, "c2_logsoc": 2.0, "c3_volume": 1.3863, "itr_brut": 0.7793, "itr_score": 26.85, "itr_label": "Accessible"}}, {"type": "Feature", "geometry": {"type": "Point", "coordinates": [2.300616, 48.859026]}, "properties": {"nom_voie": "AV RAPP", "code_postal": "75007", "arrondissement": 7, "code_iris": "751072808", "prix_m2_median": 14511.2465, "revenu_median_uc": 59570.0, "nb_logements_sociaux": 0, "nb_transactions": 18, "c1_effort": 0.2436, "c2_logsoc": 2.0, "c3_volume": 2.9444, "itr_brut": 1.4345, "itr_score": 49.63, "itr_label": "Modéré"}}, {"type": "Feature", "geometry": {"type": "Point", "coordinates": [2.285663, 48.86717]}, "properties": {"nom_voie": "AV RAYMOND POINCARE", "code_postal": "75016", "arrondissement": 16, "code_iris": "751166308", "prix_m2_median": 12407.5226, "revenu_median_uc": 47920.0, "nb_logements_sociaux": 57, "nb_transactions": 16, "c1_effort": 0.2589, "c2_logsoc": 1.0172, "c3_volume": 2.8332, "itr_brut": 0.7462, "itr_score": 25.7, "itr_label": "Accessible"}}, {"type": "Feature", "geometry": {"type": "Point", "coordinates": [2.337825, 48.824739]}, "properties": {"nom_voie": "AV REILLE", "code_postal": "75014", "arrondissement": 14, "code_iris": "751145402", "prix_m2_median": 10347.4359, "revenu_median_uc": 32150.0, "nb_logements_sociaux": 94, "nb_transactions": 12, "c1_effort": 0.3218, "c2_logsoc": 1.0105, "c3_volume": 2.5649, "itr_brut": 0.8342, "itr_score": 28.76, "itr_label": "Accessible"}}, {"type": "Feature", "geometry": {"type": "Point", "coordinates": [2.284093, 48.85611]}, "properties": {"nom_voie": "AV RENE BOYLESVE", "code_postal": "75016", "arrondissement": 16, "code_iris": "751166213", "prix_m2_median": 15086.6667, "revenu_median_uc": 58540.0, "nb_logements_sociaux": 60, "nb_transactions": 5, "c1_effort": 0.2577, "c2_logsoc": 1.0164, "c3_volume": 1.7918, "itr_brut": 0.4693, "itr_score": 16.07, "itr_label": "Très accessible"}}, {"type": "Feature", "geometry": {"type": "Point", "coordinates": [2.33405, 48.828968]}, "properties": {"nom_voie": "AV RENE COTY", "code_postal": "75014", "arrondissement": 14, "code_iris": "751145405", "prix_m2_median": 8375.0, "revenu_median_uc": 31170.0, "nb_logements_sociaux": 120, "nb_transactions": 41, "c1_effort": 0.2687, "c2_logsoc": 1.0083, "c3_volume": 3.7377, "itr_brut": 1.0126, "itr_score": 34.96, "itr_label": "Accessible"}}, {"type": "Feature", "geometry": {"type": "Point", "coordinates": [2.366039, 48.871953]}, "properties": {"nom_voie": "AV RICHERAND", "code_postal": "75010", "arrondissement": 10, "code_iris": "751103909", "prix_m2_median": 11747.8992, "revenu_median_uc": 30910.0, "nb_logements_sociaux": 106, "nb_transactions": 6, "c1_effort": 0.3801, "c2_logsoc": 1.0093, "c3_volume": 1.9459, "itr_brut": 0.7465, "itr_score": 25.71, "itr_label": "Accessible"}}, {"type": "Feature", "geometry": {"type": "Point", "coordinates": [2.274707, 48.863452]}, "properties": {"nom_voie": "AV RODIN", "code_postal": "75016", "arrondissement": 16, "code_iris": "751166209", "prix_m2_median": 13821.4286, "revenu_median_uc": 64760.0, "nb_logements_sociaux": 0, "nb_transactions": 3, "c1_effort": 0.2134, "c2_logsoc": 2.0, "c3_volume": 1.3863, "itr_brut": 0.5917, "itr_score": 20.32, "itr_label": "Accessible"}}, {"type": "Feature", "geometry": {"type": "Point", "coordinates": [2.374399, 48.880766]}, "properties": {"nom_voie": "AV SECRETAN", "code_postal": "75019", "arrondissement": 19, "code_iris": "751197301", "prix_m2_median": 10263.1579, "revenu_median_uc": 22980.0, "nb_logements_sociaux": 312, "nb_transactions": 47, "c1_effort": 0.4466, "c2_logsoc": 1.0032, "c3_volume": 3.8712, "itr_brut": 1.7345, "itr_score": 60.07, "itr_label": "Tendu"}}, {"type": "Feature", "geometry": {"type": "Point", "coordinates": [2.377827, 48.876696]}, "properties": {"nom_voie": "AV SIMON BOLIVAR", "code_postal": "75019", "arrondissement": 19, "code_iris": "751197609", "prix_m2_median": 10368.4211, "revenu_median_uc": 30840.0, "nb_logements_sociaux": 32, "nb_transactions": 79, "c1_effort": 0.3362, "c2_logsoc": 1.0303, "c3_volume": 4.382, "itr_brut": 1.5179, "itr_score": 52.53, "itr_label": "Modéré"}}, {"type": "Feature", "geometry": {"type": "Point", "coordinates": [2.286727, 48.867548]}, "properties": {"nom_voie": "AV ST HONORE D EYLAU", "code_postal": "75016", "arrondissement": 16, "code_iris": "751166405", "prix_m2_median": 15086.7246, "revenu_median_uc": 50770.0, "nb_logements_sociaux": 24, "nb_transactions": 3, "c1_effort": 0.2972, "c2_logsoc": 1.04, "c3_volume": 1.3863, "itr_brut": 0.4284, "itr_score": 14.64, "itr_label": "Très accessible"}}, {"type": "Feature", "geometry": {"type": "Point", "coordinates": [2.293209, 48.886275]}, "properties": {"nom_voie": "AV STEPHANE MALLARME", "code_postal": "75017", "arrondissement": 17, "code_iris": "751176614", "prix_m2_median": 9122.807, "revenu_median_uc": 24760.0, "nb_logements_sociaux": 1409, "nb_transactions": 3, "c1_effort": 0.3684, "c2_logsoc": 1.0007, "c3_volume": 1.3863, "itr_brut": 0.5111, "itr_score": 17.52, "itr_label": "Très accessible"}}, {"type": "Feature", "geometry": {"type": "Point", "coordinates": [2.359282, 48.832698]}, "properties": {"nom_voie": "AV STEPHEN PICHON", "code_postal": "75013", "arrondissement": 13, "code_iris": "751134903", "prix_m2_median": 9500.0, "revenu_median_uc": 32830.0, "nb_logements_sociaux": 118, "nb_transactions": 7, "c1_effort": 0.2894, "c2_logsoc": 1.0084, "c3_volume": 2.0794, "itr_brut": 0.6068, "itr_score": 20.85, "itr_label": "Accessible"}}, {"type": "Feature", "geometry": {"type": "Point", "coordinates": [2.394014, 48.874433]}, "properties": {"nom_voie": "AV TAILLADE", "code_postal": "75020", "arrondissement": 20, "code_iris": "751207714", "prix_m2_median": 10046.5116, "revenu_median_uc": 29530.0, "nb_logements_sociaux": 24, "nb_transactions": 5, "c1_effort": 0.3402, "c2_logsoc": 1.04, "c3_volume": 1.7918, "itr_brut": 0.634, "itr_score": 21.79, "itr_label": "Accessible"}}, {"type": "Feature", "geometry": {"type": "Point", "coordinates": [2.269993, 48.854105]}, "properties": {"nom_voie": "AV THEODORE ROUSSEAU", "code_postal": "75016", "arrondissement": 16, "code_iris": "751166125", "prix_m2_median": 12150.0, "revenu_median_uc": 57170.0, "nb_logements_sociaux": 13, "nb_transactions": 4, "c1_effort": 0.2125, "c2_logsoc": 1.0714, "c3_volume": 1.6094, "itr_brut": 0.3665, "itr_score": 12.49, "itr_label": "Très accessible"}}, {"type": "Feature", "geometry": {"type": "Point", "coordinates": [2.272845, 48.850004]}, "properties": {"nom_voie": "AV THEOPHILE GAUTIER", "code_postal": "75016", "arrondissement": 16, "code_iris": "751166128", "prix_m2_median": 10834.7826, "revenu_median_uc": 47770.0, "nb_logements_sociaux": 106, "nb_transactions": 32, "c1_effort": 0.2268, "c2_logsoc": 1.0093, "c3_volume": 3.4965, "itr_brut": 0.8005, "itr_score": 27.58, "itr_label": "Accessible"}}, {"type": "Feature", "geometry": {"type": "Point", "coordinates": [2.343353, 48.88117]}, "properties": {"nom_voie": "AV TRUDAINE", "code_postal": "75009", "arrondissement": 9, "code_iris": "751093608", "prix_m2_median": 12413.7931, "revenu_median_uc": 41320.0, "nb_logements_sociaux": 147, "nb_transactions": 25, "c1_effort": 0.3004, "c2_logsoc": 1.0068, "c3_volume": 3.2581, "itr_brut": 0.9854, "itr_score": 34.02, "itr_label": "Accessible"}}, {"type": "Feature", "geometry": {"type": "Point", "coordinates": [2.313123, 48.8797]}, "properties": {"nom_voie": "AV VELASQUEZ", "code_postal": "75008", "arrondissement": 8, "code_iris": "751083203", "prix_m2_median": 15086.9565, "revenu_median_uc": 64480.0, "nb_logements_sociaux": 0, "nb_transactions": 3, "c1_effort": 0.234, "c2_logsoc": 2.0, "c3_volume": 1.3863, "itr_brut": 0.6487, "itr_score": 22.31, "itr_label": "Accessible"}}, {"type": "Feature", "geometry": {"type": "Point", "coordinates": [2.28335, 48.868658]}, "properties": {"nom_voie": "AV VICTOR HUGO", "code_postal": "75016", "arrondissement": 16, "code_iris": "751166308", "prix_m2_median": 13134.3908, "revenu_median_uc": 47920.0, "nb_logements_sociaux": 57, "nb_transactions": 42, "c1_effort": 0.2741, "c2_logsoc": 1.0172, "c3_volume": 3.7612, "itr_brut": 1.0487, "itr_score": 36.22, "itr_label": "Accessible"}}, {"type": "Feature", "geometry": {"type": "Point", "coordinates": [2.316432, 48.831854]}, "properties": {"nom_voie": "AV VILLEMAIN", "code_postal": "75014", "arrondissement": 14, "code_iris": "751145616", "prix_m2_median": 10931.8182, "revenu_median_uc": 28750.0, "nb_logements_sociaux": 213, "nb_transactions": 8, "c1_effort": 0.3802, "c2_logsoc": 1.0047, "c3_volume": 2.1972, "itr_brut": 0.8394, "itr_score": 28.94, "itr_label": "Accessible"}}, {"type": "Feature", "geometry": {"type": "Point", "coordinates": [2.269781, 48.856327]}, "properties": {"nom_voie": "AV VION WHITCOMB", "code_postal": "75016", "arrondissement": 16, "code_iris": "751166205", "prix_m2_median": 10839.2857, "revenu_median_uc": 66470.0, "nb_logements_sociaux": 27, "nb_transactions": 4, "c1_effort": 0.1631, "c2_logsoc": 1.0357, "c3_volume": 1.6094, "itr_brut": 0.2718, "itr_score": 9.2, "itr_label": "Très accessible"}}, {"type": "Feature", "geometry": {"type": "Point", "coordinates": [2.34742, 48.835394]}, "properties": {"nom_voie": "BD ARAGO", "code_postal": "75013", "arrondissement": 13, "code_iris": "751135203", "prix_m2_median": 11818.1818, "revenu_median_uc": 41470.0, "nb_logements_sociaux": 79, "nb_transactions": 31, "c1_effort": 0.285, "c2_logsoc": 1.0125, "c3_volume": 3.4657, "itr_brut": 1.0, "itr_score": 34.52, "itr_label": "Accessible"}}, {"type": "Feature", "geometry": {"type": "Point", "coordinates": [2.333972, 48.8342]}, "properties": {"nom_voie": "BD ARAGO", "code_postal": "75014", "arrondissement": 14, "code_iris": "751145302", "prix_m2_median": 22725.2045, "revenu_median_uc": 46270.0, "nb_logements_sociaux": 135, "nb_transactions": 7, "c1_effort": 0.4911, "c2_logsoc": 1.0074, "c3_volume": 2.0794, "itr_brut": 1.0288, "itr_score": 35.53, "itr_label": "Accessible"}}, {"type": "Feature", "geometry": {"type": "Point", "coordinates": [2.346122, 48.831051]}, "properties": {"nom_voie": "BD AUGUSTE BLANQUI", "code_postal": "75013", "arrondissement": 13, "code_iris": "751135205", "prix_m2_median": 9581.6327, "revenu_median_uc": 35710.0, "nb_logements_sociaux": 258, "nb_transactions": 33, "c1_effort": 0.2683, "c2_logsoc": 1.0039, "c3_volume": 3.5264, "itr_brut": 0.9498, "itr_score": 32.78, "itr_label": "Accessible"}}, {"type": "Feature", "geometry": {"type": "Point", "coordinates": [2.34984, 48.888286]}, "properties": {"nom_voie": "BD BARBES", "code_postal": "75018", "arrondissement": 18, "code_iris": "751187017", "prix_m2_median": 9956.5217, "revenu_median_uc": 23200.0, "nb_logements_sociaux": 230, "nb_transactions": 55, "c1_effort": 0.4292, "c2_logsoc": 1.0043, "c3_volume": 4.0254, "itr_brut": 1.735, "itr_score": 60.08, "itr_label": "Tendu"}}, {"type": "Feature", "geometry": {"type": "Point", "coordinates": [2.367337, 48.858682]}, "properties": {"nom_voie": "BD BEAUMARCHAIS", "code_postal": "75003", "arrondissement": 3, "code_iris": "751031101", "prix_m2_median": 12975.5856, "revenu_median_uc": 43050.0, "nb_logements_sociaux": 127, "nb_transactions": 10, "c1_effort": 0.3014, "c2_logsoc": 1.0078, "c3_volume": 2.3979, "itr_brut": 0.7284, "itr_score": 25.08, "itr_label": "Accessible"}}, {"type": "Feature", "geometry": {"type": "Point", "coordinates": [2.368363, 48.854674]}, "properties": {"nom_voie": "BD BEAUMARCHAIS", "code_postal": "75004", "arrondissement": 4, "code_iris": "751041504", "prix_m2_median": 12217.0213, "revenu_median_uc": 40580.0, "nb_logements_sociaux": 53, "nb_transactions": 7, "c1_effort": 0.3011, "c2_logsoc": 1.0185, "c3_volume": 2.0794, "itr_brut": 0.6376, "itr_score": 21.92, "itr_label": "Accessible"}}, {"type": "Feature", "geometry": {"type": "Point", "coordinates": [2.368727, 48.856564]}, "properties": {"nom_voie": "BD BEAUMARCHAIS", "code_postal": "75011", "arrondissement": 11, "code_iris": "751114312", "prix_m2_median": 11739.1304, "revenu_median_uc": 37950.0, "nb_logements_sociaux": 39, "nb_transactions": 23, "c1_effort": 0.3093, "c2_logsoc": 1.025, "c3_volume": 3.1781, "itr_brut": 1.0076, "itr_score": 34.79, "itr_label": "Accessible"}}, {"type": "Feature", "geometry": {"type": "Point", "coordinates": [2.304097, 48.889872]}, "properties": {"nom_voie": "BD BERTHIER", "code_postal": "75017", "arrondissement": 17, "code_iris": "751176806", "prix_m2_median": 9886.4987, "revenu_median_uc": 25910.0, "nb_logements_sociaux": 731, "nb_transactions": 24, "c1_effort": 0.3816, "c2_logsoc": 1.0014, "c3_volume": 3.2189, "itr_brut": 1.2299, "itr_score": 42.52, "itr_label": "Modéré"}}, {"type": "Feature", "geometry": {"type": "Point", "coordinates": [2.323874, 48.896792]}, "properties": {"nom_voie": "BD BESSIERES", "code_postal": "75017", "arrondissement": 17, "code_iris": "751176815", "prix_m2_median": 8027.9974, "revenu_median_uc": 21550.0, "nb_logements_sociaux": 109, "nb_transactions": 12, "c1_effort": 0.3725, "c2_logsoc": 1.0091, "c3_volume": 2.5649, "itr_brut": 0.9642, "itr_score": 33.28, "itr_label": "Accessible"}}, {"type": "Feature", "geometry": {"type": "Point", "coordinates": [2.366697, 48.850586]}, "properties": {"nom_voie": "BD BOURDON", "code_postal": "75004", "arrondissement": 4, "code_iris": "751041501", "prix_m2_median": 13415.8333, "revenu_median_uc": 33650.0, "nb_logements_sociaux": 333, "nb_transactions": 11, "c1_effort": 0.3987, "c2_logsoc": 1.003, "c3_volume": 2.4849, "itr_brut": 0.9937, "itr_score": 34.3, "itr_label": "Accessible"}}, {"type": "Feature", "geometry": {"type": "Point", "coordinates": [2.31417, 48.826084]}, "properties": {"nom_voie": "BD BRUNE", "code_postal": "75014", "arrondissement": 14, "code_iris": "751145605", "prix_m2_median": 9741.0243, "revenu_median_uc": 30320.0, "nb_logements_sociaux": 700, "nb_transactions": 20, "c1_effort": 0.3213, "c2_logsoc": 1.0014, "c3_volume": 3.0445, "itr_brut": 0.9795, "itr_score": 33.81, "itr_label": "Accessible"}}, {"type": "Feature", "geometry": {"type": "Point", "coordinates": [2.409497, 48.855917]}, "properties": {"nom_voie": "BD DAVOUT", "code_postal": "75020", "arrondissement": 20, "code_iris": "751208022", "prix_m2_median": 8875.0, "revenu_median_uc": 20830.0, "nb_logements_sociaux": 0, "nb_transactions": 25, "c1_effort": 0.4261, "c2_logsoc": 2.0, "c3_volume": 3.2581, "itr_brut": 2.7763, "itr_score": 96.3, "itr_label": "Très tendu"}}, {"type": "Feature", "geometry": {"type": "Point", "coordinates": [2.266827, 48.856459]}, "properties": {"nom_voie": "BD DE BEAUSEJOUR", "code_postal": "75016", "arrondissement": 16, "code_iris": "751166206", "prix_m2_median": 12098.721, "revenu_median_uc": 56540.0, "nb_logements_sociaux": 0, "nb_transactions": 10, "c1_effort": 0.214, "c2_logsoc": 2.0, "c3_volume": 2.3979, "itr_brut": 1.0262, "itr_score": 35.44, "itr_label": "Accessible"}}, {"type": "Feature", "geometry": {"type": "Point", "coordinates": [2.380952, 48.868142]}, "properties": {"nom_voie": "BD DE BELLEVILLE", "code_postal": "75011", "arrondissement": 11, "code_iris": "751114101", "prix_m2_median": 9615.3846, "revenu_median_uc": 26400.0, "nb_logements_sociaux": 44, "nb_transactions": 25, "c1_effort": 0.3642, "c2_logsoc": 1.0222, "c3_volume": 3.2581, "itr_brut": 1.213, "itr_score": 41.93, "itr_label": "Modéré"}}, {"type": "Feature", "geometry": {"type": "Point", "coordinates": [2.37983, 48.870165]}, "properties": {"nom_voie": "BD DE BELLEVILLE", "code_postal": "75020", "arrondissement": 20, "code_iris": "751207708", "prix_m2_median": 9230.7692, "revenu_median_uc": 16750.0, "nb_logements_sociaux": 167, "nb_transactions": 11, "c1_effort": 0.5511, "c2_logsoc": 1.006, "c3_volume": 2.4849, "itr_brut": 1.3776, "itr_score": 47.65, "itr_label": "Modéré"}}, {"type": "Feature", "geometry": {"type": "Point", "coordinates": [2.388388, 48.838528]}, "properties": {"nom_voie": "BD DE BERCY", "code_postal": "75012", "arrondissement": 12, "code_iris": "751124702", "prix_m2_median": 10188.5714, "revenu_median_uc": 28870.0, "nb_logements_sociaux": 176, "nb_transactions": 3, "c1_effort": 0.3529, "c2_logsoc": 1.0056, "c3_volume": 1.3863, "itr_brut": 0.492, "itr_score": 16.86, "itr_label": "Très accessible"}}, {"type": "Feature", "geometry": {"type": "Point", "coordinates": [2.351669, 48.869652]}, "properties": {"nom_voie": "BD DE BONNE NOUVELLE", "code_postal": "75002", "arrondissement": 2, "code_iris": "751020804", "prix_m2_median": 7303.5417, "revenu_median_uc": 34030.0, "nb_logements_sociaux": 13, "nb_transactions": 4, "c1_effort": 0.2146, "c2_logsoc": 1.0714, "c3_volume": 1.6094, "itr_brut": 0.3701, "itr_score": 12.62, "itr_label": "Très accessible"}}, {"type": "Feature", "geometry": {"type": "Point", "coordinates": [2.351265, 48.870368]}, "properties": {"nom_voie": "BD DE BONNE NOUVELLE", "code_postal": "75010", "arrondissement": 10, "code_iris": "751103803", "prix_m2_median": 11352.1875, "revenu_median_uc": 36870.0, "nb_logements_sociaux": 135, "nb_transactions": 10, "c1_effort": 0.3079, "c2_logsoc": 1.0074, "c3_volume": 2.3979, "itr_brut": 0.7437, "itr_score": 25.61, "itr_label": "Accessible"}}, {"type": "Feature", "geometry": {"type": "Point", "coordinates": [2.39526, 48.853756]}, "properties": {"nom_voie": "BD DE CHARONNE", "code_postal": "75011", "arrondissement": 11, "code_iris": "751114410", "prix_m2_median": 10000.0, "revenu_median_uc": 32000.0, "nb_logements_sociaux": 275, "nb_transactions": 43, "c1_effort": 0.3125, "c2_logsoc": 1.0036, "c3_volume": 3.7842, "itr_brut": 1.1868, "itr_score": 41.02, "itr_label": "Modéré"}}, {"type": "Feature", "geometry": {"type": "Point", "coordinates": [2.395748, 48.854801]}, "properties": {"nom_voie": "BD DE CHARONNE", "code_postal": "75020", "arrondissement": 20, "code_iris": "751207905", "prix_m2_median": 10260.4167, "revenu_median_uc": 30950.0, "nb_logements_sociaux": 454, "nb_transactions": 47, "c1_effort": 0.3315, "c2_logsoc": 1.0022, "c3_volume": 3.8712, "itr_brut": 1.2862, "itr_score": 44.48, "itr_label": "Modéré"}}, {"type": "Feature", "geometry": {"type": "Point", "coordinates": [2.338033, 48.882077]}, "properties": {"nom_voie": "BD DE CLICHY", "code_postal": "75009", "arrondissement": 9, "code_iris": "751093310", "prix_m2_median": 6060.6061, "revenu_median_uc": 47750.0, "nb_logements_sociaux": 44, "nb_transactions": 30, "c1_effort": 0.1269, "c2_logsoc": 1.0222, "c3_volume": 3.434, "itr_brut": 0.4455, "itr_score": 15.24, "itr_label": "Très accessible"}}, {"type": "Feature", "geometry": {"type": "Point", "coordinates": [2.334216, 48.883816]}, "properties": {"nom_voie": "BD DE CLICHY", "code_postal": "75018", "arrondissement": 18, "code_iris": "751186903", "prix_m2_median": 11929.0909, "revenu_median_uc": 35750.0, "nb_logements_sociaux": 127, "nb_transactions": 36, "c1_effort": 0.3337, "c2_logsoc": 1.0078, "c3_volume": 3.6109, "itr_brut": 1.2143, "itr_score": 41.98, "itr_label": "Modéré"}}, {"type": "Feature", "geometry": {"type": "Point", "coordinates": [2.303968, 48.878861]}, "properties": {"nom_voie": "BD DE COURCELLES", "code_postal": "75008", "arrondissement": 8, "code_iris": "751083002", "prix_m2_median": 11433.7945, "revenu_median_uc": 49520.0, "nb_logements_sociaux": 241, "nb_transactions": 20, "c1_effort": 0.2309, "c2_logsoc": 1.0041, "c3_volume": 3.0445, "itr_brut": 0.7059, "itr_score": 24.29, "itr_label": "Accessible"}}, {"type": "Feature", "geometry": {"type": "Point", "coordinates": [2.307549, 48.880266]}, "properties": {"nom_voie": "BD DE COURCELLES", "code_postal": "75017", "arrondissement": 17, "code_iris": "751176601", "prix_m2_median": 12509.2593, "revenu_median_uc": 54380.0, "nb_logements_sociaux": 12, "nb_transactions": 8, "c1_effort": 0.23, "c2_logsoc": 1.0769, "c3_volume": 2.1972, "itr_brut": 0.5443, "itr_score": 18.68, "itr_label": "Très accessible"}}, {"type": "Feature", "geometry": {"type": "Point", "coordinates": [2.354029, 48.879684]}, "properties": {"nom_voie": "BD DE DENAIN", "code_postal": "75010", "arrondissement": 10, "code_iris": "751103704", "prix_m2_median": 9641.0256, "revenu_median_uc": 42600.0, "nb_logements_sociaux": 186, "nb_transactions": 4, "c1_effort": 0.2263, "c2_logsoc": 1.0053, "c3_volume": 1.6094, "itr_brut": 0.3662, "itr_score": 12.48, "itr_label": "Très accessible"}}, {"type": "Feature", "geometry": {"type": "Point", "coordinates": [2.284787, 48.8828]}, "properties": {"nom_voie": "BD DE DIXMUDE", "code_postal": "75017", "arrondissement": 17, "code_iris": "751176506", "prix_m2_median": 8521.7914, "revenu_median_uc": 42660.0, "nb_logements_sociaux": 0, "nb_transactions": 4, "c1_effort": 0.1998, "c2_logsoc": 2.0, "c3_volume": 1.6094, "itr_brut": 0.643, "itr_score": 22.11, "itr_label": "Accessible"}}, {"type": "Feature", "geometry": {"type": "Point", "coordinates": [2.294599, 48.850667]}, "properties": {"nom_voie": "BD DE GRENELLE", "code_postal": "75015", "arrondissement": 15, "code_iris": "751155918", "prix_m2_median": 11263.9553, "revenu_median_uc": 43700.0, "nb_logements_sociaux": 147, "nb_transactions": 62, "c1_effort": 0.2578, "c2_logsoc": 1.0068, "c3_volume": 4.1431, "itr_brut": 1.0751, "itr_score": 37.14, "itr_label": "Accessible"}}, {"type": "Feature", "geometry": {"type": "Point", "coordinates": [2.362191, 48.841378]}, "properties": {"nom_voie": "BD DE L HOPITAL", "code_postal": "75005", "arrondissement": 5, "code_iris": "751051805", "prix_m2_median": 11264.7543, "revenu_median_uc": 32890.0, "nb_logements_sociaux": 195, "nb_transactions": 22, "c1_effort": 0.3425, "c2_logsoc": 1.0051, "c3_volume": 3.1355, "itr_brut": 1.0794, "itr_score": 37.28, "itr_label": "Accessible"}}, {"type": "Feature", "geometry": {"type": "Point", "coordinates": [2.359248, 48.836802]}, "properties": {"nom_voie": "BD DE L HOPITAL", "code_postal": "75013", "arrondissement": 13, "code_iris": "751134907", "prix_m2_median": 10225.0264, "revenu_median_uc": 33600.0, "nb_logements_sociaux": 36, "nb_transactions": 24, "c1_effort": 0.3043, "c2_logsoc": 1.027, "c3_volume": 3.2189, "itr_brut": 1.006, "itr_score": 34.73, "itr_label": "Accessible"}}, {"type": "Feature", "geometry": {"type": "Point", "coordinates": [2.368299, 48.848635]}, "properties": {"nom_voie": "BD DE LA BASTILLE", "code_postal": "75012", "arrondissement": 12, "code_iris": "751124804", "prix_m2_median": 11465.5172, "revenu_median_uc": 42450.0, "nb_logements_sociaux": 418, "nb_transactions": 11, "c1_effort": 0.2701, "c2_logsoc": 1.0024, "c3_volume": 2.4849, "itr_brut": 0.6728, "itr_score": 23.14, "itr_label": "Accessible"}}, {"type": "Feature", "geometry": {"type": "Point", "coordinates": [2.357597, 48.883905]}, "properties": {"nom_voie": "BD DE LA CHAPELLE", "code_postal": "75010", "arrondissement": 10, "code_iris": "751103712", "prix_m2_median": 8145.9001, "revenu_median_uc": 31690.0, "nb_logements_sociaux": 0, "nb_transactions": 8, "c1_effort": 0.257, "c2_logsoc": 2.0, "c3_volume": 2.1972, "itr_brut": 1.1296, "itr_score": 39.03, "itr_label": "Accessible"}}, {"type": "Feature", "geometry": {"type": "Point", "coordinates": [2.359498, 48.884734]}, "properties": {"nom_voie": "BD DE LA CHAPELLE", "code_postal": "75018", "arrondissement": 18, "code_iris": "751187201", "prix_m2_median": 8159.2308, "revenu_median_uc": 15850.0, "nb_logements_sociaux": 448, "nb_transactions": 11, "c1_effort": 0.5148, "c2_logsoc": 1.0022, "c3_volume": 2.4849, "itr_brut": 1.282, "itr_score": 44.33, "itr_label": "Modéré"}}, {"type": "Feature", "geometry": {"type": "Point", "coordinates": [2.326914, 48.870127]}, "properties": {"nom_voie": "BD DE LA MADELEINE", "code_postal": "75009", "arrondissement": 9, "code_iris": "751093403", "prix_m2_median": 13461.5385, "revenu_median_uc": 44620.0, "nb_logements_sociaux": 24, "nb_transactions": 5, "c1_effort": 0.3017, "c2_logsoc": 1.04, "c3_volume": 1.7918, "itr_brut": 0.5622, "itr_score": 19.3, "itr_label": "Très accessible"}}, {"type": "Feature", "geometry": {"type": "Point", "coordinates": [2.290903, 48.886495]}, "properties": {"nom_voie": "BD DE LA SOMME", "code_postal": "75017", "arrondissement": 17, "code_iris": "751176515", "prix_m2_median": 10146.8254, "revenu_median_uc": 22950.0, "nb_logements_sociaux": 236, "nb_transactions": 4, "c1_effort": 0.4421, "c2_logsoc": 1.0042, "c3_volume": 1.6094, "itr_brut": 0.7146, "itr_score": 24.6, "itr_label": "Accessible"}}, {"type": "Feature", "geometry": {"type": "Point", "coordinates": [2.309797, 48.858265]}, "properties": {"nom_voie": "BD DE LA TOUR MAUBOURG", "code_postal": "75007", "arrondissement": 7, "code_iris": "751072801", "prix_m2_median": 14350.304, "revenu_median_uc": 49140.0, "nb_logements_sociaux": 0, "nb_transactions": 20, "c1_effort": 0.292, "c2_logsoc": 2.0, "c3_volume": 3.0445, "itr_brut": 1.7782, "itr_score": 61.59, "itr_label": "Tendu"}}, {"type": "Feature", "geometry": {"type": "Point", "coordinates": [2.371839, 48.876445]}, "properties": {"nom_voie": "BD DE LA VILLETTE", "code_postal": "75010", "arrondissement": 10, "code_iris": "751104006", "prix_m2_median": 9752.9762, "revenu_median_uc": 27960.0, "nb_logements_sociaux": 173, "nb_transactions": 44, "c1_effort": 0.3488, "c2_logsoc": 1.0057, "c3_volume": 3.8067, "itr_brut": 1.3355, "itr_score": 46.19, "itr_label": "Modéré"}}, {"type": "Feature", "geometry": {"type": "Point", "coordinates": [2.371704, 48.878588]}, "properties": {"nom_voie": "BD DE LA VILLETTE", "code_postal": "75019", "arrondissement": 19, "code_iris": "751197608", "prix_m2_median": 9609.7561, "revenu_median_uc": 24460.0, "nb_logements_sociaux": 1, "nb_transactions": 21, "c1_effort": 0.3929, "c2_logsoc": 1.5, "c3_volume": 3.091, "itr_brut": 1.8216, "itr_score": 63.1, "itr_label": "Tendu"}}, {"type": "Feature", "geometry": {"type": "Point", "coordinates": [2.35642, 48.875863]}, "properties": {"nom_voie": "BD DE MAGENTA", "code_postal": "75010", "arrondissement": 10, "code_iris": "751103706", "prix_m2_median": 10024.2857, "revenu_median_uc": 34680.0, "nb_logements_sociaux": 219, "nb_transactions": 72, "c1_effort": 0.2891, "c2_logsoc": 1.0045, "c3_volume": 4.2905, "itr_brut": 1.2458, "itr_score": 43.07, "itr_label": "Modéré"}}, {"type": "Feature", "geometry": {"type": "Point", "coordinates": [2.38579, 48.863278]}, "properties": {"nom_voie": "BD DE MENILMONTANT", "code_postal": "75011", "arrondissement": 11, "code_iris": "751114201", "prix_m2_median": 10459.2092, "revenu_median_uc": 26120.0, "nb_logements_sociaux": 237, "nb_transactions": 14, "c1_effort": 0.4004, "c2_logsoc": 1.0042, "c3_volume": 2.7081, "itr_brut": 1.0889, "itr_score": 37.62, "itr_label": "Accessible"}}, {"type": "Feature", "geometry": {"type": "Point", "coordinates": [2.387218, 48.862721]}, "properties": {"nom_voie": "BD DE MENILMONTANT", "code_postal": "75020", "arrondissement": 20, "code_iris": "751207906", "prix_m2_median": 10377.0833, "revenu_median_uc": 18300.0, "nb_logements_sociaux": 105, "nb_transactions": 15, "c1_effort": 0.5671, "c2_logsoc": 1.0094, "c3_volume": 2.7726, "itr_brut": 1.587, "itr_score": 54.94, "itr_label": "Modéré"}}, {"type": "Feature", "geometry": {"type": "Point", "coordinates": [2.263066, 48.852476]}, "properties": {"nom_voie": "BD DE MONTMORENCY", "code_postal": "75016", "arrondissement": 16, "code_iris": "751166122", "prix_m2_median": 11657.1429, "revenu_median_uc": 59230.0, "nb_logements_sociaux": 58, "nb_transactions": 17, "c1_effort": 0.1968, "c2_logsoc": 1.0169, "c3_volume": 2.8904, "itr_brut": 0.5785, "itr_score": 19.86, "itr_label": "Très accessible"}}, {"type": "Feature", "geometry": {"type": "Point", "coordinates": [2.401226, 48.84357]}, "properties": {"nom_voie": "BD DE PICPUS", "code_postal": "75012", "arrondissement": 12, "code_iris": "751124615", "prix_m2_median": 10722.4026, "revenu_median_uc": 33780.0, "nb_logements_sociaux": 157, "nb_transactions": 26, "c1_effort": 0.3174, "c2_logsoc": 1.0063, "c3_volume": 3.2958, "itr_brut": 1.0528, "itr_score": 36.36, "itr_label": "Accessible"}}, {"type": "Feature", "geometry": {"type": "Point", "coordinates": [2.345446, 48.838089]}, "properties": {"nom_voie": "BD DE PORT-ROYAL", "code_postal": "75005", "arrondissement": 5, "code_iris": "751051902", "prix_m2_median": 12501.4881, "revenu_median_uc": 43170.0, "nb_logements_sociaux": 20, "nb_transactions": 24, "c1_effort": 0.2896, "c2_logsoc": 1.0476, "c3_volume": 3.2189, "itr_brut": 0.9765, "itr_score": 33.71, "itr_label": "Accessible"}}, {"type": "Feature", "geometry": {"type": "Point", "coordinates": [2.347468, 48.836933]}, "properties": {"nom_voie": "BD DE PORT-ROYAL", "code_postal": "75013", "arrondissement": 13, "code_iris": "751135207", "prix_m2_median": 11352.1073, "revenu_median_uc": 41390.0, "nb_logements_sociaux": 25, "nb_transactions": 18, "c1_effort": 0.2743, "c2_logsoc": 1.0385, "c3_volume": 2.9444, "itr_brut": 0.8386, "itr_score": 28.91, "itr_label": "Accessible"}}, {"type": "Feature", "geometry": {"type": "Point", "coordinates": [2.395716, 48.839406]}, "properties": {"nom_voie": "BD DE REUILLY", "code_postal": "75012", "arrondissement": 12, "code_iris": "751124608", "prix_m2_median": 10600.0, "revenu_median_uc": 35300.0, "nb_logements_sociaux": 84, "nb_transactions": 41, "c1_effort": 0.3003, "c2_logsoc": 1.0118, "c3_volume": 3.7377, "itr_brut": 1.1356, "itr_score": 39.24, "itr_label": "Accessible"}}, {"type": "Feature", "geometry": {"type": "Point", "coordinates": [2.343326, 48.882296]}, "properties": {"nom_voie": "BD DE ROCHECHOUART", "code_postal": "75009", "arrondissement": 9, "code_iris": "751093609", "prix_m2_median": 11118.7307, "revenu_median_uc": 41260.0, "nb_logements_sociaux": 11, "nb_transactions": 18, "c1_effort": 0.2695, "c2_logsoc": 1.0833, "c3_volume": 2.9444, "itr_brut": 0.8596, "itr_score": 29.64, "itr_label": "Accessible"}}, {"type": "Feature", "geometry": {"type": "Point", "coordinates": [2.349424, 48.861434]}, "properties": {"nom_voie": "BD DE SEBASTOPOL", "code_postal": "75001", "arrondissement": 1, "code_iris": "751010201", "prix_m2_median": 13585.5263, "revenu_median_uc": 33800.0, "nb_logements_sociaux": 155, "nb_transactions": 4, "c1_effort": 0.4019, "c2_logsoc": 1.0064, "c3_volume": 1.6094, "itr_brut": 0.651, "itr_score": 22.39, "itr_label": "Accessible"}}, {"type": "Feature", "geometry": {"type": "Point", "coordinates": [2.352441, 48.866732]}, "properties": {"nom_voie": "BD DE SEBASTOPOL", "code_postal": "75002", "arrondissement": 2, "code_iris": "751020801", "prix_m2_median": 11964.2857, "revenu_median_uc": 33070.0, "nb_logements_sociaux": 113, "nb_transactions": 6, "c1_effort": 0.3618, "c2_logsoc": 1.0088, "c3_volume": 1.9459, "itr_brut": 0.7102, "itr_score": 24.44, "itr_label": "Accessible"}}, {"type": "Feature", "geometry": {"type": "Point", "coordinates": [2.349774, 48.860546]}, "properties": {"nom_voie": "BD DE SEBASTOPOL", "code_postal": "75004", "arrondissement": 4, "code_iris": "751041303", "prix_m2_median": 12275.1607, "revenu_median_uc": 33360.0, "nb_logements_sociaux": 146, "nb_transactions": 4, "c1_effort": 0.368, "c2_logsoc": 1.0068, "c3_volume": 1.6094, "itr_brut": 0.5962, "itr_score": 20.48, "itr_label": "Accessible"}}, {"type": "Feature", "geometry": {"type": "Point", "coordinates": [2.355912, 48.872102]}, "properties": {"nom_voie": "BD DE STRASBOURG", "code_postal": "75010", "arrondissement": 10, "code_iris": "751103906", "prix_m2_median": 10147.0588, "revenu_median_uc": 33950.0, "nb_logements_sociaux": 126, "nb_transactions": 35, "c1_effort": 0.2989, "c2_logsoc": 1.0079, "c3_volume": 3.5835, "itr_brut": 1.0795, "itr_score": 37.29, "itr_label": "Accessible"}}, {"type": "Feature", "geometry": {"type": "Point", "coordinates": [2.317199, 48.841878]}, "properties": {"nom_voie": "BD DE VAUGIRARD", "code_postal": "75015", "arrondissement": 15, "code_iris": "751155816", "prix_m2_median": 12260.8796, "revenu_median_uc": 46170.0, "nb_logements_sociaux": 140, "nb_transactions": 10, "c1_effort": 0.2656, "c2_logsoc": 1.0071, "c3_volume": 2.3979, "itr_brut": 0.6413, "itr_score": 22.05, "itr_label": "Accessible"}}, {"type": "Feature", "geometry": {"type": "Point", "coordinates": [2.286327, 48.858572]}, "properties": {"nom_voie": "BD DELESSERT", "code_postal": "75016", "arrondissement": 16, "code_iris": "751166221", "prix_m2_median": 148.9286, "revenu_median_uc": 56380.0, "nb_logements_sociaux": 0, "nb_transactions": 3, "c1_effort": 0.0026, "c2_logsoc": 2.0, "c3_volume": 1.3863, "itr_brut": 0.0073, "itr_score": 0.0, "itr_label": "Très accessible"}}, {"type": "Feature", "geometry": {"type": "Point", "coordinates": [2.323434, 48.882321]}, "properties": {"nom_voie": "BD DES BATIGNOLLES", "code_postal": "75008", "arrondissement": 8, "code_iris": "751083207", "prix_m2_median": 12272.7273, "revenu_median_uc": 50280.0, "nb_logements_sociaux": 116, "nb_transactions": 10, "c1_effort": 0.2441, "c2_logsoc": 1.0085, "c3_volume": 2.3979, "itr_brut": 0.5903, "itr_score": 20.27, "itr_label": "Accessible"}}, {"type": "Feature", "geometry": {"type": "Point", "coordinates": [2.32, 48.882441]}, "properties": {"nom_voie": "BD DES BATIGNOLLES", "code_postal": "75017", "arrondissement": 17, "code_iris": "751176707", "prix_m2_median": 12704.049, "revenu_median_uc": 45270.0, "nb_logements_sociaux": 0, "nb_transactions": 6, "c1_effort": 0.2806, "c2_logsoc": 2.0, "c3_volume": 1.9459, "itr_brut": 1.0922, "itr_score": 37.73, "itr_label": "Accessible"}}, {"type": "Feature", "geometry": {"type": "Point", "coordinates": [2.314425, 48.850168]}, "properties": {"nom_voie": "BD DES INVALIDES", "code_postal": "75007", "arrondissement": 7, "code_iris": "751072706", "prix_m2_median": 16650.3268, "revenu_median_uc": 46120.0, "nb_logements_sociaux": 0, "nb_transactions": 14, "c1_effort": 0.361, "c2_logsoc": 2.0, "c3_volume": 2.7081, "itr_brut": 1.9553, "itr_score": 67.75, "itr_label": "Tendu"}}, {"type": "Feature", "geometry": {"type": "Point", "coordinates": [2.385236, 48.846993]}, "properties": {"nom_voie": "BD DIDEROT", "code_postal": "75012", "arrondissement": 12, "code_iris": "751124801", "prix_m2_median": 10466.6667, "revenu_median_uc": 29910.0, "nb_logements_sociaux": 308, "nb_transactions": 31, "c1_effort": 0.3499, "c2_logsoc": 1.0032, "c3_volume": 3.4657, "itr_brut": 1.2167, "itr_score": 42.06, "itr_label": "Modéré"}}, {"type": "Feature", "geometry": {"type": "Point", "coordinates": [2.326454, 48.843472]}, "properties": {"nom_voie": "BD DU MONTPARNASSE", "code_postal": "75006", "arrondissement": 6, "code_iris": "751062301", "prix_m2_median": 12712.2642, "revenu_median_uc": 55240.0, "nb_logements_sociaux": 0, "nb_transactions": 24, "c1_effort": 0.2301, "c2_logsoc": 2.0, "c3_volume": 3.2189, "itr_brut": 1.4815, "itr_score": 51.27, "itr_label": "Modéré"}}, {"type": "Feature", "geometry": {"type": "Point", "coordinates": [2.330564, 48.841218]}, "properties": {"nom_voie": "BD DU MONTPARNASSE", "code_postal": "75014", "arrondissement": 14, "code_iris": "751145309", "prix_m2_median": 12471.1538, "revenu_median_uc": 47640.0, "nb_logements_sociaux": 44, "nb_transactions": 16, "c1_effort": 0.2618, "c2_logsoc": 1.0222, "c3_volume": 2.8332, "itr_brut": 0.7582, "itr_score": 26.11, "itr_label": "Accessible"}}, {"type": "Feature", "geometry": {"type": "Point", "coordinates": [2.321938, 48.844178]}, "properties": {"nom_voie": "BD DU MONTPARNASSE", "code_postal": "75015", "arrondissement": 15, "code_iris": "751155817", "prix_m2_median": 12432.6923, "revenu_median_uc": 38980.0, "nb_logements_sociaux": 39, "nb_transactions": 5, "c1_effort": 0.319, "c2_logsoc": 1.025, "c3_volume": 1.7918, "itr_brut": 0.5858, "itr_score": 20.12, "itr_label": "Accessible"}}, {"type": "Feature", "geometry": {"type": "Point", "coordinates": [2.365434, 48.86433]}, "properties": {"nom_voie": "BD DU TEMPLE", "code_postal": "75003", "arrondissement": 3, "code_iris": "751031002", "prix_m2_median": 19200.0, "revenu_median_uc": 42150.0, "nb_logements_sociaux": 98, "nb_transactions": 4, "c1_effort": 0.4555, "c2_logsoc": 1.0101, "c3_volume": 1.6094, "itr_brut": 0.7405, "itr_score": 25.5, "itr_label": "Accessible"}}, {"type": "Feature", "geometry": {"type": "Point", "coordinates": [2.366008, 48.865223]}, "properties": {"nom_voie": "BD DU TEMPLE", "code_postal": "75011", "arrondissement": 11, "code_iris": "751114106", "prix_m2_median": 11059.1346, "revenu_median_uc": 37380.0, "nb_logements_sociaux": 129, "nb_transactions": 20, "c1_effort": 0.2959, "c2_logsoc": 1.0077, "c3_volume": 3.0445, "itr_brut": 0.9077, "itr_score": 31.31, "itr_label": "Accessible"}}, {"type": "Feature", "geometry": {"type": "Point", "coordinates": [2.325194, 48.841092]}, "properties": {"nom_voie": "BD EDGAR QUINET", "code_postal": "75014", "arrondissement": 14, "code_iris": "751145306", "prix_m2_median": 12080.8333, "revenu_median_uc": 41860.0, "nb_logements_sociaux": 25, "nb_transactions": 24, "c1_effort": 0.2886, "c2_logsoc": 1.0385, "c3_volume": 3.2189, "itr_brut": 0.9647, "itr_score": 33.3, "itr_label": "Accessible"}}, {"type": "Feature", "geometry": {"type": "Point", "coordinates": [2.273387, 48.861793]}, "properties": {"nom_voie": "BD EMILE AUGIER", "code_postal": "75016", "arrondissement": 16, "code_iris": "751166209", "prix_m2_median": 12865.3846, "revenu_median_uc": 64760.0, "nb_logements_sociaux": 0, "nb_transactions": 10, "c1_effort": 0.1987, "c2_logsoc": 2.0, "c3_volume": 2.3979, "itr_brut": 0.9527, "itr_score": 32.88, "itr_label": "Accessible"}}, {"type": "Feature", "geometry": {"type": "Point", "coordinates": [2.261572, 48.843153]}, "properties": {"nom_voie": "BD EXELMANS", "code_postal": "75016", "arrondissement": 16, "code_iris": "751166110", "prix_m2_median": 10384.7318, "revenu_median_uc": 38510.0, "nb_logements_sociaux": 404, "nb_transactions": 46, "c1_effort": 0.2697, "c2_logsoc": 1.0025, "c3_volume": 3.8501, "itr_brut": 1.0408, "itr_score": 35.94, "itr_label": "Accessible"}}, {"type": "Feature", "geometry": {"type": "Point", "coordinates": [2.273221, 48.866913]}, "properties": {"nom_voie": "BD FLANDRIN", "code_postal": "75016", "arrondissement": 16, "code_iris": "751166304", "prix_m2_median": 12190.389, "revenu_median_uc": 56120.0, "nb_logements_sociaux": 0, "nb_transactions": 26, "c1_effort": 0.2172, "c2_logsoc": 2.0, "c3_volume": 3.2958, "itr_brut": 1.4318, "itr_score": 49.54, "itr_label": "Modéré"}}, {"type": "Feature", "geometry": {"type": "Point", "coordinates": [2.305591, 48.846457]}, "properties": {"nom_voie": "BD GARIBALDI", "code_postal": "75015", "arrondissement": 15, "code_iris": "751155808", "prix_m2_median": 10526.3158, "revenu_median_uc": 43130.0, "nb_logements_sociaux": 61, "nb_transactions": 29, "c1_effort": 0.2441, "c2_logsoc": 1.0161, "c3_volume": 3.4012, "itr_brut": 0.8435, "itr_score": 29.08, "itr_label": "Accessible"}}, {"type": "Feature", "geometry": {"type": "Point", "coordinates": [2.287391, 48.882751]}, "properties": {"nom_voie": "BD GOUVION ST-CYR", "code_postal": "75017", "arrondissement": 17, "code_iris": "751176507", "prix_m2_median": 10957.7521, "revenu_median_uc": 44100.0, "nb_logements_sociaux": 41, "nb_transactions": 22, "c1_effort": 0.2485, "c2_logsoc": 1.0238, "c3_volume": 3.1355, "itr_brut": 0.7976, "itr_score": 27.49, "itr_label": "Accessible"}}, {"type": "Feature", "geometry": {"type": "Point", "coordinates": [2.311696, 48.875309]}, "properties": {"nom_voie": "BD HAUSSMANN", "code_postal": "75008", "arrondissement": 8, "code_iris": "751083002", "prix_m2_median": 15053.8375, "revenu_median_uc": 49520.0, "nb_logements_sociaux": 241, "nb_transactions": 8, "c1_effort": 0.304, "c2_logsoc": 1.0041, "c3_volume": 2.1972, "itr_brut": 0.6707, "itr_score": 23.07, "itr_label": "Accessible"}}, {"type": "Feature", "geometry": {"type": "Point", "coordinates": [2.364471, 48.851758]}, "properties": {"nom_voie": "BD HENRI IV", "code_postal": "75004", "arrondissement": 4, "code_iris": "751041501", "prix_m2_median": 13148.0, "revenu_median_uc": 33650.0, "nb_logements_sociaux": 333, "nb_transactions": 9, "c1_effort": 0.3907, "c2_logsoc": 1.003, "c3_volume": 2.3026, "itr_brut": 0.9024, "itr_score": 31.13, "itr_label": "Accessible"}}, {"type": "Feature", "geometry": {"type": "Point", "coordinates": [2.338806, 48.820976]}, "properties": {"nom_voie": "BD JOURDAN", "code_postal": "75014", "arrondissement": 14, "code_iris": "751145402", "prix_m2_median": 8549.3197, "revenu_median_uc": 41170.0, "nb_logements_sociaux": 94, "nb_transactions": 14, "c1_effort": 0.2077, "c2_logsoc": 1.0105, "c3_volume": 2.7081, "itr_brut": 0.5683, "itr_score": 19.51, "itr_label": "Très accessible"}}, {"type": "Feature", "geometry": {"type": "Point", "coordinates": [2.367841, 48.867488]}, "properties": {"nom_voie": "BD JULES FERRY", "code_postal": "75011", "arrondissement": 11, "code_iris": "751114107", "prix_m2_median": 11443.0769, "revenu_median_uc": 39070.0, "nb_logements_sociaux": 30, "nb_transactions": 9, "c1_effort": 0.2929, "c2_logsoc": 1.0323, "c3_volume": 2.3026, "itr_brut": 0.6962, "itr_score": 23.96, "itr_label": "Accessible"}}, {"type": "Feature", "geometry": {"type": "Point", "coordinates": [2.345656, 48.820082]}, "properties": {"nom_voie": "BD KELLERMANN", "code_postal": "75013", "arrondissement": 13, "code_iris": "751135110", "prix_m2_median": 8048.7805, "revenu_median_uc": 26250.0, "nb_logements_sociaux": 579, "nb_transactions": 3, "c1_effort": 0.3066, "c2_logsoc": 1.0017, "c3_volume": 1.3863, "itr_brut": 0.4258, "itr_score": 14.55, "itr_label": "Très accessible"}}, {"type": "Feature", "geometry": {"type": "Point", "coordinates": [2.271386, 48.865796]}, "properties": {"nom_voie": "BD LANNES", "code_postal": "75016", "arrondissement": 16, "code_iris": "751166305", "prix_m2_median": 11411.7647, "revenu_median_uc": 41130.0, "nb_logements_sociaux": 135, "nb_transactions": 23, "c1_effort": 0.2775, "c2_logsoc": 1.0074, "c3_volume": 3.1781, "itr_brut": 0.8883, "itr_score": 30.64, "itr_label": "Accessible"}}, {"type": "Feature", "geometry": {"type": "Point", "coordinates": [2.294961, 48.830736]}, "properties": {"nom_voie": "BD LEFEBVRE", "code_postal": "75015", "arrondissement": 15, "code_iris": "751155706", "prix_m2_median": 10000.0, "revenu_median_uc": 39560.0, "nb_logements_sociaux": 2, "nb_transactions": 21, "c1_effort": 0.2528, "c2_logsoc": 1.3333, "c3_volume": 3.091, "itr_brut": 1.0418, "itr_score": 35.98, "itr_label": "Accessible"}}, {"type": "Feature", "geometry": {"type": "Point", "coordinates": [2.379815, 48.898907]}, "properties": {"nom_voie": "BD MACDONALD", "code_postal": "75019", "arrondissement": 19, "code_iris": "751197410", "prix_m2_median": 7533.5154, "revenu_median_uc": 13490.0, "nb_logements_sociaux": 380, "nb_transactions": 4, "c1_effort": 0.5585, "c2_logsoc": 1.0026, "c3_volume": 1.6094, "itr_brut": 0.9012, "itr_score": 31.09, "itr_label": "Accessible"}}, {"type": "Feature", "geometry": {"type": "Point", "coordinates": [2.316616, 48.877326]}, "properties": {"nom_voie": "BD MALESHERBES", "code_postal": "75008", "arrondissement": 8, "code_iris": "751083204", "prix_m2_median": 13325.2381, "revenu_median_uc": 62420.0, "nb_logements_sociaux": 6, "nb_transactions": 27, "c1_effort": 0.2135, "c2_logsoc": 1.1429, "c3_volume": 3.3322, "itr_brut": 0.813, "itr_score": 28.02, "itr_label": "Accessible"}}, {"type": "Feature", "geometry": {"type": "Point", "coordinates": [2.306927, 48.885918]}, "properties": {"nom_voie": "BD MALESHERBES", "code_postal": "75017", "arrondissement": 17, "code_iris": "751176602", "prix_m2_median": 10079.5697, "revenu_median_uc": 50460.0, "nb_logements_sociaux": 137, "nb_transactions": 36, "c1_effort": 0.1998, "c2_logsoc": 1.0072, "c3_volume": 3.6109, "itr_brut": 0.7265, "itr_score": 25.01, "itr_label": "Accessible"}}, {"type": "Feature", "geometry": {"type": "Point", "coordinates": [2.365636, 48.820872]}, "properties": {"nom_voie": "BD MASSENA", "code_postal": "75013", "arrondissement": 13, "code_iris": "751135004", "prix_m2_median": 6795.4545, "revenu_median_uc": 15710.0, "nb_logements_sociaux": 0, "nb_transactions": 27, "c1_effort": 0.4326, "c2_logsoc": 2.0, "c3_volume": 3.3322, "itr_brut": 2.8827, "itr_score": 100.0, "itr_label": "Très tendu"}}, {"type": "Feature", "geometry": {"type": "Point", "coordinates": [2.364212, 48.848757]}, "properties": {"nom_voie": "BD MORLAND", "code_postal": "75004", "arrondissement": 4, "code_iris": "751041501", "prix_m2_median": 13304.4267, "revenu_median_uc": 33650.0, "nb_logements_sociaux": 333, "nb_transactions": 14, "c1_effort": 0.3954, "c2_logsoc": 1.003, "c3_volume": 2.7081, "itr_brut": 1.0739, "itr_score": 37.09, "itr_label": "Accessible"}},