{"type":"FeatureCollection","crs":{"type":"name","properties":{"name":"EPSG:4326"}},"features":[{"type":"Feature","geometry":{"type":"Point","coordinates":[2.378821,48.89379]},"properties":{"nom_voie":"ALL DES EIDERS","code_postal":"75019","arrondissement":19,"code_iris":"751197406","prix_m2_median":6323.529411764706,"revenu_median_uc":19230.0,"nb_logements_sociaux":222,"nb_transactions":5,"c1_effort":0.3288366828790799,"c2_logsoc":1.0044843049327354,"c3_volume":1.791759469228055,"itr_brut":0.5918383759852114,"itr_score":6.64,"itr_label":"Très accessible"}},{"type":"Feature","geometry":{"type":"Point","coordinates":[2.377905,48.875572]},"properties":{"nom_voie":"ALL LOUISE LABE","code_postal":"75019","arrondissement":19,"code_iris":"751197607","prix_m2_median":9000.0,"revenu_median_uc":36600.0,"nb_logements_sociaux":83,"nb_transactions":5,"c1_effort":0.2459016393442623,"c2_logsoc":1.0119047619047619,"c3_volume":1.791759469228055,"itr_brut":0.4458417883032338,"itr_score":4.81,"itr_label":"Très accessible"}},{"type":"Feature","geometry":{"type":"Point","coordinates":[2.269651,48.854016]},"properties":{"nom_voie":"AV ADRIEN HEBRARD","code_postal":"75016","arrondissement":16,"code_iris":"751166125","prix_m2_median":12991.216216216217,"revenu_median_uc":57170.0,"nb_logements_sociaux":13,"nb_transactions":3,"c1_effort":0.2272383455696382,"c2_logsoc":1.0714285714285714,"c3_volume":1.3862943611198906,"itr_brut":0.33752061117150267,"itr_score":3.44,"itr_label":"Très accessible"}},{"type":"Feature","geometry":{"type":"Point","coordinates":[2.303289,48.85955]},"properties":{"nom_voie":"AV BOSQUET","code_postal":"75007","arrondissement":7,"code_iris":"751072811","prix_m2_median":17000.0,"revenu_median_uc":66870.0,"nb_logements_sociaux":0,"nb_transactions":11,"c1_effort":0.25422461492448034,"c2_logsoc":2.0,"c3_volume":2.4849066497880004,"itr_brut":1.2634488723312698,"itr_score":15.1,"itr_label":"Très accessible"}},{"type":"Feature","geometry":{"type":"Point","coordinates":[2.293389,48.8762]},"properties":{"nom_voie":"AV CARNOT","code_postal":"75017","arrondissement":17,"code_iris":"751176501","prix_m2_median":10833.333333333334,"revenu_median_uc":47010.0,"nb_logements_sociaux":29,"nb_transactions":3,"c1_effort":0.2304474225342126,"c2_logsoc":1.0333333333333334,"c3_volume":1.3862943611198906,"itr_brut":0.33011689447358483,"itr_score":3.35,"itr_label":"Très accessible"}},{"type":"Feature","geometry":{"type":"Point","coordinates":[2.297536,48.853923]},"properties":{"nom_voie":"AV CHARLES FLOQUET","code_postal":"75007","arrondissement":7,"code_iris":"751072807","prix_m2_median":18763.736263736264,"revenu_median_uc":74290.0,"nb_logements_sociaux":8,"nb_transactions":6,"c1_effort":0.2525741858088069,"c2_logsoc":1.1111111111111112,"c3_volume":1.9459101490553132,"itr_brut":0.5460963017274888,"itr_score":6.07,"itr_label":"Très accessible"}},{"type":"Feature","geometry":{"type":"Point","coordinates":[2.370446,48.875678]},"properties":{"nom_voie":"AV CLAUDE VELLEFAUX","code_postal":"75010","arrondissement":10,"code_iris":"751104006","prix_m2_median":9041.137123745819,"revenu_median_uc":27960.0,"nb_logements_sociaux":173,"nb_transactions":8,"c1_effort":0.32335969684355576,"c2_logsoc":1.0057471264367817,"c3_volume":2.1972245773362196,"itr_brut":0.7145771713466306,"itr_score":8.19,"itr_label":"Très accessible"}},{"type":"Feature","geometry":{"type":"Point","coordinates":[2.284919,48.864436]},"properties":{"nom_voie":"AV D EYLAU","code_postal":"75016","arrondissement":16,"code_iris":"751166301","prix_m2_median":15671.641791044776,"revenu_median_uc":46950.0,"nb_logements_sociaux":223,"nb_transactions":5,"c1_effort":0.33379428734919653,"c2_logsoc":1.0044642857142858,"c3_volume":1.791759469228055,"itr_brut":0.600749071003279,"itr_score":6.76,"itr_label":"Très accessible"}},{"type":"Feature","geometry":{"type":"Point","coordinates":[2.357611,48.825396]},"properties":{"nom_voie":"AV D ITALIE","code_postal":"75013","arrondissement":13,"code_iris":"751135103","prix_m2_median":7600.0,"revenu_median_uc":23340.0,"nb_logements_sociaux":124,"nb_transactions":27,"c1_effort":0.32562125107112255,"c2_logsoc":1.008,"c3_volume":3.332204510175204,"itr_brut":1.0937168942395117,"itr_score":12.96,"itr_label":"Très accessible"}},{"type":"Feature","geometry":{"type":"Point","coordinates":[2.362455,48.824808]},"properties":{"nom_voie":"AV D IVRY","code_postal":"75013","arrondissement":13,"code_iris":"751135005","prix_m2_median":8333.333333333334,"revenu_median_uc":23210.0,"nb_logements_sociaux":75,"nb_transactions":5,"c1_effort":0.359040643400833,"c2_logsoc":1.013157894736842,"c3_volume":1.791759469228055,"itr_brut":0.6517791367650072,"itr_score":7.4,"itr_label":"Très accessible"}},{"type":"Feature","geometry":{"type":"Point","coordinates":[2.392512,48.840409]},"properties":{"nom_voie":"AV DAUMESNIL","code_postal":"75012","arrondissement":12,"code_iris":"751124606","prix_m2_median":8699.404761904761,"revenu_median_uc":26100.0,"nb_logements_sociaux":3,"nb_transactions":22,"c1_effort":0.3333105272760445,"c2_logsoc":1.25,"c3_volume":3.1354942159291497,"itr_brut":1.3063665379779157,"itr_score":15.64,"itr_label":"Très accessible"}},{"type":"Feature","geometry":{"type":"Point","coordinates":[2.396545,48.850589]},"properties":{"nom_voie":"AV DE BOUVINES","code_postal":"75011","arrondissement":11,"code_iris":"751114401","prix_m2_median":7500.0,"revenu_median_uc":39790.0,"nb_logements_sociaux":54,"nb_transactions":3,"c1_effort":0.18848957024377985,"c2_logsoc":1.018181818181818,"c3_volume":1.3862943611198906,"itr_brut":0.26605297432902464,"itr_score":2.54,"itr_label":"Très accessible"}},{"type":"Feature","geometry":{"type":"Point","coordinates":[2.360223,48.826026]},"properties":{"nom_voie":"AV DE CHOISY","code_postal":"75013","arrondissement":13,"code_iris":"751135005","prix_m2_median":7317.073170731707,"revenu_median_uc":23210.0,"nb_logements_sociaux":75,"nb_transactions":17,"c1_effort":0.31525519908365823,"c2_logsoc":1.013157894736842,"c3_volume":2.8903717578961645,"itr_brut":0.923194259802935,"itr_score":10.81,"itr_label":"Très accessible"}},{"type":"Feature","geometry":{"type":"Point","coordinates":[2.321396,48.889649]},"properties":{"nom_voie":"AV DE CLICHY","code_postal":"75017","arrondissement":17,"code_iris":"751176801","prix_m2_median":9057.649667405763,"revenu_median_uc":25910.0,"nb_logements_sociaux":58,"nb_transactions":20,"c1_effort":0.34958122992689167,"c2_logsoc":1.0169491525423728,"c3_volume":3.044522437723423,"itr_brut":1.0823470152400398,"itr_score":12.82,"itr_label":"Très accessible"}},{"type":"Feature","geometry":{"type":"Point","coordinates":[2.326593,48.886004]},"properties":{"nom_voie":"AV DE CLICHY","code_postal":"75018","arrondissement":18,"code_iris":"751186905","prix_m2_median":10000.0,"revenu_median_uc":33340.0,"nb_logements_sociaux":210,"nb_transactions":4,"c1_effort":0.29994001199760045,"c2_logsoc":1.004739336492891,"c3_volume":1.6094379124341003,"itr_brut":0.48502266954575324,"itr_score":5.3,"itr_label":"Très accessible"}},{"type":"Feature","geometry":{"type":"Point","coordinates":[2.375971,48.889807]},"properties":{"nom_voie":"AV DE FLANDRE","code_postal":"75019","arrondissement":19,"code_iris":"751197305","prix_m2_median":7461.442307692308,"revenu_median_uc":28460.0,"nb_logements_sociaux":36,"nb_transactions":18,"c1_effort":0.2621729552948808,"c2_logsoc":1.027027027027027,"c3_volume":2.9444389791664403,"itr_brut":0.7928158436873862,"itr_score":9.17,"itr_label":"Très accessible"}},{"type":"Feature","geometry":{"type":"Point","coordinates":[2.335129,48.865552]},"properties":{"nom_voie":"AV DE L OPERA","code_postal":"75001","arrondissement":1,"code_iris":"751010301","prix_m2_median":14117.64705882353,"revenu_median_uc":43160.0,"nb_logements_sociaux":161,"nb_transactions":3,"c1_effort":0.32710025622853406,"c2_logsoc":1.0061728395061729,"c3_volume":1.3862943611198906,"itr_brut":0.4562563595004295,"itr_score":4.94,"itr_label":"Très accessible"}},{"type":"Feature","geometry":{"type":"Point","coordinates":[2.300061,48.857834]},"properties":{"nom_voie":"AV DE LA BOURDONNAIS","code_postal":"75007","arrondissement":7,"code_iris":"751072806","prix_m2_median":14586.335403726709,"revenu_median_uc":52430.0,"nb_logements_sociaux":0,"nb_transactions":18,"c1_effort":0.27820590127268185,"c2_logsoc":2.0,"c3_volume":2.9444389791664403,"itr_brut":1.6383205998828296,"itr_score":19.81,"itr_label":"Très accessible"}},{"type":"Feature","geometry":{"type":"Point","coordinates":[2.307975,48.855843]},"properties":{"nom_voie":"AV DE LA MOTTE PICQUET","code_postal":"75007","arrondissement":7,"code_iris":"751072801","prix_m2_median":13938.115330520393,"revenu_median_uc":49140.0,"nb_logements_sociaux":0,"nb_transactions":10,"c1_effort":0.2836409306170206,"c2_logsoc":2.0,"c3_volume":2.3978952727983707,"itr_brut":1.3602824933973687,"itr_score":16.31,"itr_label":"Très accessible"}},{"type":"Feature","geometry":{"type":"Point","coordinates":[2.299853,48.85019]},"properties":{"nom_voie":"AV DE LA MOTTE PICQUET","code_postal":"75015","arrondissement":15,"code_iris":"751155913","prix_m2_median":14480.293501048218,"revenu_median_uc":55060.0,"nb_logements_sociaux":0,"nb_transactions":8,"c1_effort":0.2629911642035637,"c2_logsoc":2.0,"c3_volume":2.1972245773362196,"itr_brut":1.1557012992206712,"itr_score":13.74,"itr_label":"Très accessible"}},{"type":"Feature","geometry":{"type":"Point","coordinates":[2.377545,48.864795]},"properties":{"nom_voie":"AV DE LA REPUBLIQUE","code_postal":"75011","arrondissement":11,"code_iris":"751114213","prix_m2_median":9978.43822843823,"revenu_median_uc":36420.0,"nb_logements_sociaux":82,"nb_transactions":16,"c1_effort":0.2739823785952287,"c2_logsoc":1.0120481927710843,"c3_volume":2.833213344056216,"itr_brut":0.7856029471092794,"itr_score":9.08,"itr_label":"Très accessible"}},{"type":"Feature","geometry":{"type":"Point","coordinates":[2.280874,48.854405]},"properties":{"nom_voie":"AV DE LAMBALLE","code_postal":"75016","arrondissement":16,"code_iris":"751166201","prix_m2_median":12272.727272727272,"revenu_median_uc":52550.0,"nb_logements_sociaux":0,"nb_transactions":3,"c1_effort":0.23354381108900613,"c2_logsoc":2.0,"c3_volume":1.3862943611198906,"itr_brut":0.6475209367742764,"itr_score":7.34,"itr_label":"Très accessible"}},{"type":"Feature","geometry":{"type":"Point","coordinates":[2.31319,48.876199]},"properties":{"nom_voie":"AV DE MESSINE","code_postal":"75008","arrondissement":8,"code_iris":"751083210","prix_m2_median":13687.150837988827,"revenu_median_uc":57980.0,"nb_logements_sociaux":0,"nb_transactions":3,"c1_effort":0.23606676160725815,"c2_logsoc":2.0,"c3_volume":1.3862943611198906,"itr_brut":0.6545160409279509,"itr_score":7.43,"itr_label":"Très accessible"}},{"type":"Feature","geometry":{"type":"Point","coordinates":[2.291934,48.861416]},"properties":{"nom_voie":"AV DE NEW YORK","code_postal":"75016","arrondissement":16,"code_iris":"751166401","prix_m2_median":16899.986089859507,"revenu_median_uc":49360.0,"nb_logements_sociaux":0,"nb_transactions":6,"c1_effort":0.34238221413815856,"c2_logsoc":2.0,"c3_volume":1.9459101490553132,"itr_brut":1.3324900506949446,"itr_score":15.97,"itr_label":"Très accessible"}},{"type":"Feature","geometry":{"type":"Point","coordinates":[2.327539,48.891871]},"properties":{"nom_voie":"AV DE SAINT OUEN","code_postal":"75018","arrondissement":18,"code_iris":"751186905","prix_m2_median":8934.077380952382,"revenu_median_uc":33340.0,"nb_logements_sociaux":210,"nb_transactions":22,"c1_effort":0.26796872768303487,"c2_logsoc":1.004739336492891,"c3_volume":3.1354942159291497,"itr_brut":0.8441964544474428,"itr_score":9.82,"itr_label":"Très accessible"}},{"type":"Feature","geometry":{"type":"Point","coordinates":[2.403912,48.844703]},"properties":{"nom_voie":"AV DE SAINT-MANDE","code_postal":"75012","arrondissement":12,"code_iris":"751124507","prix_m2_median":8752.857142857143,"revenu_median_uc":32280.0,"nb_logements_sociaux":337,"nb_transactions":14,"c1_effort":0.2711541865816959,"c2_logsoc":1.0029585798816567,"c3_volume":2.70805020110221,"itr_brut":0.7364716321931026,"itr_score":8.46,"itr_label":"Très accessible"}},{"type":"Feature","geometry":{"type":"Point","coordinates":[2.326842,48.892181]},"properties":{"nom_voie":"AV DE SAINT-OUEN","code_postal":"75017","arrondissement":17,"code_iris":"751176801","prix_m2_median":9728.04347826087,"revenu_median_uc":27120.0,"nb_logements_sociaux":58,"nb_transactions":11,"c1_effort":0.35870366807746573,"c2_logsoc":1.0169491525423728,"c3_volume":2.4849066497880004,"itr_brut":0.9064526746871615,"itr_score":10.6,"itr_label":"Très accessible"}},{"type":"Feature","geometry":{"type":"Point","coordinates":[2.311859,48.847338]},"properties":{"nom_voie":"AV DE SAXE","code_postal":"75007","arrondissement":7,"code_iris":"751072702","prix_m2_median":10000.0,"revenu_median_uc":51220.0,"nb_logements_sociaux":79,"nb_transactions":3,"c1_effort":0.1952362358453729,"c2_logsoc":1.0125,"c3_volume":1.3862943611198906,"itr_brut":0.2740380789991974,"itr_score":2.64,"itr_label":"Très accessible"}},{"type":"Feature","geometry":{"type":"Point","coordinates":[2.310348,48.851544]},"properties":{"nom_voie":"AV DE SEGUR","code_postal":"75007","arrondissement":7,"code_iris":"751072705","prix_m2_median":14109.967307692306,"revenu_median_uc":68670.0,"nb_logements_sociaux":0,"nb_transactions":6,"c1_effort":0.20547498627773855,"c2_logsoc":2.0,"c3_volume":1.9459101490553132,"itr_brut":0.7996717223497053,"itr_score":9.26,"itr_label":"Très accessible"}},{"type":"Feature","geometry":{"type":"Point","coordinates":[2.298494,48.853015]},"properties":{"nom_voie":"AV DE SUFFREN","code_postal":"75007","arrondissement":7,"code_iris":"751072807","prix_m2_median":181878.3068783069,"revenu_median_uc":74290.0,"nb_logements_sociaux":8,"nb_transactions":18,"c1_effort":2.4482205798668315,"c2_logsoc":1.1111111111111112,"c3_volume":2.9444389791664403,"itr_brut":8.00959567217485,"itr_score":100.0,"itr_label":"Très tendu"}},{"type":"Feature","geometry":{"type":"Point","coordinates":[2.300764,48.850704]},"properties":{"nom_voie":"AV DE SUFFREN","code_postal":"75015","arrondissement":15,"code_iris":"751155812","prix_m2_median":10994.595098039215,"revenu_median_uc":50120.0,"nb_logements_sociaux":20,"nb_transactions":16,"c1_effort":0.2193654249409261,"c2_logsoc":1.0476190476190477,"c3_volume":2.833213344056216,"itr_brut":0.6511047181751558,"itr_score":7.39,"itr_label":"Très accessible"}},{"type":"Feature","geometry":{"type":"Point","coordinates":[2.308128,48.85383]},"properties":{"nom_voie":"AV DE TOURVILLE","code_postal":"75007","arrondissement":7,"code_iris":"751072705","prix_m2_median":19010.416666666668,"revenu_median_uc":68670.0,"nb_logements_sociaux":0,"nb_transactions":5,"c1_effort":0.2768372894519684,"c2_logsoc":2.0,"c3_volume":1.791759469228055,"itr_brut":0.9920516696219847,"itr_score":11.68,"itr_label":"Très accessible"}},{"type":"Feature","geometry":{"type":"Point","coordinates":[2.267134,48.842976]},"properties":{"nom_voie":"AV DE VERSAILLES","code_postal":"75016","arrondissement":16,"code_iris":"751166103","prix_m2_median":9231.898238747555,"revenu_median_uc":32840.0,"nb_logements_sociaux":27,"nb_transactions":30,"c1_effort":0.28111748595455405,"c2_logsoc":1.0357142857142858,"c3_volume":3.4339872044851463,"itr_brut":0.9998307729294347,"itr_score":11.78,"itr_label":"Très accessible"}},{"type":"Feature","geometry":{"type":"Point","coordinates":[2.303393,48.883866]},"properties":{"nom_voie":"AV DE VILLIERS","code_postal":"75017","arrondissement":17,"code_iris":"751176609","prix_m2_median":10429.36188811189,"revenu_median_uc":59060.0,"nb_logements_sociaux":16,"nb_transactions":16,"c1_effort":0.17658926325959853,"c2_logsoc":1.0588235294117647,"c3_volume":2.833213344056216,"itr_brut":0.529745354559689,"itr_score":5.86,"itr_label":"Très accessible"}},{"type":"Feature","geometry":{"type":"Point","coordinates":[2.297409,48.876216]},"properties":{"nom_voie":"AV DE WAGRAM","code_postal":"75008","arrondissement":8,"code_iris":"751083001","prix_m2_median":16121.188829787234,"revenu_median_uc":57440.0,"nb_logements_sociaux":0,"nb_transactions":14,"c1_effort":0.28066136542108694,"c2_logsoc":2.0,"c3_volume":2.70805020110221,"itr_brut":1.5200901341403907,"itr_score":18.33,"itr_label":"Très accessible"}},{"type":"Feature","geometry":{"type":"Point","coordinates":[2.300529,48.88147]},"properties":{"nom_voie":"AV DE WAGRAM","code_postal":"75017","arrondissement":17,"code_iris":"751176510","prix_m2_median":10760.869565217392,"revenu_median_uc":47870.0,"nb_logements_sociaux":6,"nb_transactions":19,"c1_effort":0.22479359860491732,"c2_logsoc":1.1428571428571428,"c3_volume":2.995732273553991,"itr_brut":0.7696245008332482,"itr_score":8.88,"itr_label":"Très accessible"}},{"type":"Feature","geometry":{"type":"Point","coordinates":[2.333943,48.835185]},"properties":{"nom_voie":"AV DENFERT ROCHEREAU","code_postal":"75014","arrondissement":14,"code_iris":"751145302","prix_m2_median":10331.73076923077,"revenu_median_uc":46270.0,"nb_logements_sociaux":135,"nb_transactions":3,"c1_effort":0.2232922145932736,"c2_logsoc":1.0073529411764706,"c3_volume":1.3862943611198906,"itr_brut":0.31182483163419117,"itr_score":3.12,"itr_label":"Très accessible"}},{"type":"Feature","geometry":{"type":"Point","coordinates":[2.351056,48.837753]},"properties":{"nom_voie":"AV DES GOBELINS","code_postal":"75005","arrondissement":5,"code_iris":"751051802","prix_m2_median":10219.642857142857,"revenu_median_uc":37280.0,"nb_logements_sociaux":111,"nb_transactions":4,"c1_effort":0.27413205088902515,"c2_logsoc":1.0089285714285714,"c3_volume":1.6094379124341003,"itr_brut":0.4451377881758443,"itr_score":4.8,"itr_label":"Très accessible"}},{"type":"Feature","geometry":{"type":"Point","coordinates":[2.353891,48.833957]},"properties":{"nom_voie":"AV DES GOBELINS","code_postal":"75013","arrondissement":13,"code_iris":"751134905","prix_m2_median":10964.83704974271,"revenu_median_uc":36300.0,"nb_logements_sociaux":13,"nb_transactions":6,"c1_effort":0.3020616267146752,"c2_logsoc":1.0714285714285714,"c3_volume":1.9459101490553132,"itr_brut":0.6297694125688328,"itr_score":7.12,"itr_label":"Très accessible"}},{"type":"Feature","geometry":{"type":"Point","coordinates":[2.291175,48.879415]},"properties":{"nom_voie":"AV DES TERNES","code_postal":"75017","arrondissement":17,"code_iris":"751176509","prix_m2_median":11539.076923076924,"revenu_median_uc":59200.0,"nb_logements_sociaux":0,"nb_transactions":15,"c1_effort":0.19491683991683992,"c2_logsoc":2.0,"c3_volume":2.772588722239781,"itr_brut":1.0808484642560943,"itr_score":12.8,"itr_label":"Très accessible"}},{"type":"Feature","geometry":{"type":"Point","coordinates":[2.397518,48.846139]},"properties":{"nom_voie":"AV DU BEL AIR","code_postal":"75012","arrondissement":12,"code_iris":"751124623","prix_m2_median":9235.754985754986,"revenu_median_uc":40850.0,"nb_logements_sociaux":30,"nb_transactions":6,"c1_effort":0.22608947333549537,"c2_logsoc":1.032258064516129,"c3_volume":1.9459101490553132,"itr_brut":0.4541417298148243,"itr_score":4.91,"itr_label":"Très accessible"}},{"type":"Feature","geometry":{"type":"Point","coordinates":[2.27867,48.855262]},"properties":{"nom_voie":"AV DU COL BONNET","code_postal":"75016","arrondissement":16,"code_iris":"751166203","prix_m2_median":13053.030303030304,"revenu_median_uc":57440.0,"nb_logements_sociaux":0,"nb_transactions":4,"c1_effort":0.22724634928673929,"c2_logsoc":2.0,"c3_volume":1.6094379124341003,"itr_brut":0.7314777800086402,"itr_score":8.4,"itr_label":"Très accessible"}},{"type":"Feature","geometry":{"type":"Point","coordinates":[2.405428,48.844676]},"properties":{"nom_voie":"AV DU DOC ARNOLD NETTER","code_postal":"75012","arrondissement":12,"code_iris":"751124507","prix_m2_median":8278.788461538461,"revenu_median_uc":32280.0,"nb_logements_sociaux":337,"nb_transactions":10,"c1_effort":0.25646804403774665,"c2_logsoc":1.0029585798816567,"c3_volume":2.3978952727983707,"itr_brut":0.616802988263442,"itr_score":6.96,"itr_label":"Très accessible"}},{"type":"Feature","geometry":{"type":"Point","coordinates":[2.401812,48.836411]},"properties":{"nom_voie":"AV DU GAL MICHEL BIZOT","code_postal":"75012","arrondissement":12,"code_iris":"751124504","prix_m2_median":8465.116279069767,"revenu_median_uc":32840.0,"nb_logements_sociaux":185,"nb_transactions":21,"c1_effort":0.2577684616038297,"c2_logsoc":1.0053763440860215,"c3_volume":3.091042453358316,"itr_brut":0.8010569851476034,"itr_score":9.28,"itr_label":"Très accessible"}},{"type":"Feature","geometry":{"type":"Point","coordinates":[2.327876,48.828464]},"properties":{"nom_voie":"AV DU GENERAL LECLERC","code_postal":"75014","arrondissement":14,"code_iris":"751145507","prix_m2_median":9125.0,"revenu_median_uc":39750.0,"nb_logements_sociaux":43,"nb_transactions":22,"c1_effort":0.22955974842767296,"c2_logsoc":1.0227272727272727,"c3_volume":3.1354942159291497,"itr_brut":0.7361419739370538,"itr_score":8.46,"itr_label":"Très accessible"}},{"type":"Feature","geometry":{"type":"Point","coordinates":[2.324724,48.832979]},"properties":{"nom_voie":"AV DU MAINE","code_postal":"75014","arrondissement":14,"code_iris":"751145513","prix_m2_median":9200.653594771242,"revenu_median_uc":38530.0,"nb_logements_sociaux":61,"nb_transactions":24,"c1_effort":0.23879194380408103,"c2_logsoc":1.0161290322580645,"c3_volume":3.2188758248682006,"itr_brut":0.7810390604888269,"itr_score":9.02,"itr_label":"Très accessible"}},{"type":"Feature","geometry":{"type":"Point","coordinates":[2.311518,48.850664]},"properties":{"nom_voie":"AV DUQUESNE","code_postal":"75007","arrondissement":7,"code_iris":"751072704","prix_m2_median":11081.818181818182,"revenu_median_uc":56170.0,"nb_logements_sociaux":51,"nb_transactions":5,"c1_effort":0.19729069221680937,"c2_logsoc":1.0192307692307692,"c3_volume":1.791759469228055,"itr_brut":0.36029549416175716,"itr_score":3.73,"itr_label":"Très accessible"}},{"type":"Feature","geometry":{"type":"Point","coordinates":[2.302012,48.85583]},"properties":{"nom_voie":"AV EMILE DESCHANEL","code_postal":"75007","arrondissement":7,"code_iris":"751072806","prix_m2_median":21167.883211678833,"revenu_median_uc":77180.0,"nb_logements_sociaux":0,"nb_transactions":5,"c1_effort":0.2742664318693811,"c2_logsoc":2.0,"c3_volume":1.791759469228055,"itr_brut":0.9828389527867095,"itr_score":11.56,"itr_label":"Très accessible"}},{"type":"Feature","geometry":{"type":"Point","coordinates":[2.284891,48.846336]},"properties":{"nom_voie":"AV EMILE ZOLA","code_postal":"75015","arrondissement":15,"code_iris":"751156013","prix_m2_median":9672.897196261682,"revenu_median_uc":30370.0,"nb_logements_sociaux":16,"nb_transactions":11,"c1_effort":0.3185017186783563,"c2_logsoc":1.0588235294117647,"c3_volume":2.4849066497880004,"itr_brut":0.8380027468723283,"itr_score":9.74,"itr_label":"Très accessible"}},{"type":"Feature","geometry":{"type":"Point","coordinates":[2.28473,48.839877]},"properties":{"nom_voie":"AV FELIX FAURE","code_postal":"75015","arrondissement":15,"code_iris":"751156003","prix_m2_median":8809.621920135938,"revenu_median_uc":27520.0,"nb_logements_sociaux":5,"nb_transactions":26,"c1_effort":0.32011707558633495,"c2_logsoc":1.1666666666666667,"c3_volume":3.295836866004329,"itr_brut":1.23089593568076,"itr_score":14.69,"itr_label":"Très accessible"}},{"type":"Feature","geometry":{"type":"Point","coordinates":[2.285898,48.872515]},"properties":{"nom_voie":"AV FOCH","code_postal":"75016","arrondissement":16,"code_iris":"751166409","prix_m2_median":12067.857142857143,"revenu_median_uc":46510.0,"nb_logements_sociaux":0,"nb_transactions":18,"c1_effort":0.2594680099517769,"c2_logsoc":2.0,"c3_volume":2.9444389791664403,"itr_brut":1.5279754446975153,"itr_score":18.43,"itr_label":"Très accessible"}},{"type":"Feature","geometry":{"type":"Point","coordinates":[2.398602,48.867463]},"properties":{"nom_voie":"AV GAMBETTA","code_postal":"75020","arrondissement":20,"code_iris":"751207909","prix_m2_median":8553.339858086616,"revenu_median_uc":33160.0,"nb_logements_sociaux":327,"nb_transactions":36,"c1_effort":0.25794149149839013,"c2_logsoc":1.0030487804878048,"c3_volume":3.6109179126442243,"itr_brut":0.9342452031390759,"itr_score":10.95,"itr_label":"Très accessible"}},{"type":"Feature","geometry":{"type":"Point","coordinates":[2.279899,48.863699]},"properties":{"nom_voie":"AV GEORGES MANDEL","code_postal":"75016","arrondissement":16,"code_iris":"751166218","prix_m2_median":17570.152491941484,"revenu_median_uc":50080.0,"nb_logements_sociaux":69,"nb_transactions":6,"c1_effort":0.35084170311384755,"c2_logsoc":1.0142857142857142,"c3_volume":1.9459101490553132,"itr_brut":0.6924593798125311,"itr_score":7.91,"itr_label":"Très accessible"}},{"type":"Feature","geometry":{"type":"Point","coordinates":[2.281949,48.87015]},"properties":{"nom_voie":"AV HUBERT GERMAIN","code_postal":"75016","arrondissement":16,"code_iris":"751166308","prix_m2_median":12962.962962962964,"revenu_median_uc":47920.0,"nb_logements_sociaux":57,"nb_transactions":7,"c1_effort":0.270512582699561,"c2_logsoc":1.0172413793103448,"c3_volume":2.0794415416798357,"itr_brut":0.5722136382541653,"itr_score":6.4,"itr_label":"Très accessible"}},{"type":"Feature","geometry":{"type":"Point","coordinates":[2.382193,48.885781]},"properties":{"nom_voie":"AV JEAN JAURES","code_postal":"75019","arrondissement":19,"code_iris":"751197524","prix_m2_median":8157.356902356902,"revenu_median_uc":32180.0,"nb_logements_sociaux":328,"nb_transactions":40,"c1_effort":0.2534915134355781,"c2_logsoc":1.0030395136778116,"c3_volume":3.713572066704308,"itr_brut":0.9442202770076523,"itr_score":11.08,"itr_label":"Très accessible"}},{"type":"Feature","geometry":{"type":"Point","coordinates":[2.323351,48.826142]},"properties":{"nom_voie":"AV JEAN MOULIN","code_postal":"75014","arrondissement":14,"code_iris":"751145506","prix_m2_median":750.0,"revenu_median_uc":41890.0,"nb_logements_sociaux":76,"nb_transactions":33,"c1_effort":0.017904034375746003,"c2_logsoc":1.0129870129870129,"c3_volume":3.5263605246161616,"itr_brut":0.06395602914561187,"itr_score":0.0,"itr_label":"Très accessible"}},{"type":"Feature","geometry":{"type":"Point","coordinates":[2.336192,48.889132]},"properties":{"nom_voie":"AV JUNOT","code_postal":"75018","arrondissement":18,"code_iris":"751186911","prix_m2_median":10849.056603773584,"revenu_median_uc":51150.0,"nb_logements_sociaux":3,"nb_transactions":3,"c1_effort":0.21210276840222062,"c2_logsoc":1.25,"c3_volume":1.3862943611198906,"itr_brut":0.36754608976739567,"itr_score":3.82,"itr_label":"Très accessible"}},{"type":"Feature","geometry":{"type":"Point","coordinates":[2.289809,48.866741]},"properties":{"nom_voie":"AV KLEBER","code_postal":"75016","arrondissement":16,"code_iris":"751166404","prix_m2_median":12743.012422360247,"revenu_median_uc":45600.0,"nb_logements_sociaux":0,"nb_transactions":6,"c1_effort":0.2794520268061458,"c2_logsoc":2.0,"c3_volume":1.9459101490553132,"itr_brut":1.087577070272313,"itr_score":12.88,"itr_label":"Très accessible"}},{"type":"Feature","geometry":{"type":"Point","coordinates":[2.377798,48.853813]},"properties":{"nom_voie":"AV LEDRU ROLLIN","code_postal":"75011","arrondissement":11,"code_iris":"751114404","prix_m2_median":9437.5,"revenu_median_uc":37670.0,"nb_logements_sociaux":131,"nb_transactions":5,"c1_effort":0.25053092646668434,"c2_logsoc":1.0075757575757576,"c3_volume":1.791759469228055,"itr_brut":0.4522918504359408,"itr_score":4.89,"itr_label":"Très accessible"}},{"type":"Feature","geometry":{"type":"Point","coordinates":[2.373467,48.849491]},"properties":{"nom_voie":"AV LEDRU ROLLIN","code_postal":"75012","arrondissement":12,"code_iris":"751124806","prix_m2_median":10561.974789915967,"revenu_median_uc":38940.0,"nb_logements_sociaux":1,"nb_transactions":12,"c1_effort":0.2712371543378522,"c2_logsoc":1.5,"c3_volume":2.5649493574615367,"itr_brut":1.0435643471078546,"itr_score":12.33,"itr_label":"Très accessible"}},{"type":"Feature","geometry":{"type":"Point","coordinates":[2.294675,48.876467]},"properties":{"nom_voie":"AV MAC MAHON","code_postal":"75017","arrondissement":17,"code_iris":"751176501","prix_m2_median":11364.91402116402,"revenu_median_uc":47010.0,"nb_logements_sociaux":29,"nb_transactions":6,"c1_effort":0.2417552440154014,"c2_logsoc":1.0333333333333334,"c3_volume":1.9459101490553132,"itr_brut":0.4861151156808105,"itr_score":5.31,"itr_label":"Très accessible"}},{"type":"Feature","geometry":{"type":"Point","coordinates":[2.375201,48.878518]},"properties":{"nom_voie":"AV MATHURIN MOREAU","code_postal":"75019","arrondissement":19,"code_iris":"751197612","prix_m2_median":9057.142857142857,"revenu_median_uc":35460.0,"nb_logements_sociaux":55,"nb_transactions":7,"c1_effort":0.25541858029167674,"c2_logsoc":1.0178571428571428,"c3_volume":2.0794415416798357,"itr_brut":0.5406124350606741,"itr_score":6.0,"itr_label":"Très accessible"}},{"type":"Feature","geometry":{"type":"Point","coordinates":[2.269385,48.853303]},"properties":{"nom_voie":"AV MOZART","code_postal":"75016","arrondissement":16,"code_iris":"751166126","prix_m2_median":11194.978354978355,"revenu_median_uc":55510.0,"nb_logements_sociaux":54,"nb_transactions":12,"c1_effort":0.20167498387638902,"c2_logsoc":1.018181818181818,"c3_volume":2.5649493574615367,"itr_brut":0.5266913224972608,"itr_score":5.82,"itr_label":"Très accessible"}},{"type":"Feature","geometry":{"type":"Point","coordinates":[2.295647,48.881885]},"properties":{"nom_voie":"AV NIEL","code_postal":"75017","arrondissement":17,"code_iris":"751176509","prix_m2_median":10458.847736625514,"revenu_median_uc":59200.0,"nb_logements_sociaux":0,"nb_transactions":19,"c1_effort":0.17666972528083638,"c2_logsoc":2.0,"c3_volume":2.995732273553991,"itr_brut":1.058510395567438,"itr_score":12.52,"itr_label":"Très accessible"}},{"type":"Feature","geometry":{"type":"Point","coordinates":[2.293048,48.85667]},"properties":{"nom_voie":"AV OCTAVE GREARD","code_postal":"75007","arrondissement":7,"code_iris":"751072807","prix_m2_median":23258.3284628872,"revenu_median_uc":74290.0,"nb_logements_sociaux":8,"nb_transactions":4,"c1_effort":0.3130748211453385,"c2_logsoc":1.1111111111111112,"c3_volume":1.6094379124341003,"itr_brut":0.5598605406442588,"itr_score":6.24,"itr_label":"Très accessible"}},{"type":"Feature","geometry":{"type":"Point","coordinates":[2.370993,48.87063]},"properties":{"nom_voie":"AV PARMENTIER","code_postal":"75010","arrondissement":10,"code_iris":"751104003","prix_m2_median":9052.631578947368,"revenu_median_uc":29430.0,"nb_logements_sociaux":139,"nb_transactions":5,"c1_effort":0.3075987624514906,"c2_logsoc":1.0071428571428571,"c3_volume":1.791759469228055,"itr_brut":0.5550797310263271,"itr_score":6.18,"itr_label":"Très accessible"}},{"type":"Feature","geometry":{"type":"Point","coordinates":[2.376263,48.86308]},"properties":{"nom_voie":"AV PARMENTIER","code_postal":"75011","arrondissement":11,"code_iris":"751114211","prix_m2_median":10557.627118644068,"revenu_median_uc":36170.0,"nb_logements_sociaux":56,"nb_transactions":25,"c1_effort":0.29188905498048295,"c2_logsoc":1.0175438596491229,"c3_volume":3.258096538021482,"itr_brut":0.9676869777554363,"itr_score":11.37,"itr_label":"Très accessible"}},{"type":"Feature","geometry":{"type":"Point","coordinates":[2.280906,48.86027]},"properties":{"nom_voie":"AV PAUL DOUMER","code_postal":"75016","arrondissement":16,"code_iris":"751166220","prix_m2_median":12728.843537414967,"revenu_median_uc":49920.0,"nb_logements_sociaux":39,"nb_transactions":16,"c1_effort":0.25498484650270364,"c2_logsoc":1.025,"c3_volume":2.833213344056216,"itr_brut":0.7404871313846756,"itr_score":8.51,"itr_label":"Très accessible"}},{"type":"Feature","geometry":{"type":"Point","coordinates":[2.292639,48.864417]},"properties":{"nom_voie":"AV PDT WILSON","code_postal":"75016","arrondissement":16,"code_iris":"751166402","prix_m2_median":16040.372670807454,"revenu_median_uc":41740.0,"nb_logements_sociaux":17,"nb_transactions":6,"c1_effort":0.3842925891424881,"c2_logsoc":1.0555555555555556,"c3_volume":1.9459101490553132,"itr_brut":0.7893432299423953,"itr_score":9.13,"itr_label":"Très accessible"}},{"type":"Feature","geometry":{"type":"Point","coordinates":[2.273171,48.849482]},"properties":{"nom_voie":"AV PERRICHONT","code_postal":"75016","arrondissement":16,"code_iris":"751166128","prix_m2_median":9338.983050847457,"revenu_median_uc":47770.0,"nb_logements_sociaux":106,"nb_transactions":3,"c1_effort":0.19549891251512366,"c2_logsoc":1.0093457943925233,"c3_volume":1.3862943611198906,"itr_brut":0.2735519282493174,"itr_score":2.64,"itr_label":"Très accessible"}},{"type":"Feature","geometry":{"type":"Point","coordinates":[2.392541,48.853763]},"properties":{"nom_voie":"AV PHILIPPE AUGUSTE","code_postal":"75011","arrondissement":11,"code_iris":"751114411","prix_m2_median":9242.424242424242,"revenu_median_uc":29950.0,"nb_logements_sociaux":134,"nb_transactions":21,"c1_effort":0.3085951333029797,"c2_logsoc":1.0074074074074073,"c3_volume":3.091042453358316,"itr_brut":0.960946440590681,"itr_score":11.29,"itr_label":"Très accessible"}},{"type":"Feature","geometry":{"type":"Point","coordinates":[2.35255,48.900565]},"properties":{"nom_voie":"AV PTE DES POISSONNIERS","code_postal":"75018","arrondissement":18,"code_iris":"751187110","prix_m2_median":6388.888888888889,"revenu_median_uc":17020.0,"nb_logements_sociaux":2207,"nb_transactions":3,"c1_effort":0.37537537537537535,"c2_logsoc":1.0004528985507246,"c3_volume":1.3862943611198906,"itr_brut":0.5206164458809758,"itr_score":5.75,"itr_label":"Très accessible"}},{"type":"Feature","geometry":{"type":"Point","coordinates":[2.28571,48.867528]},"properties":{"nom_voie":"AV RAYMOND POINCARE","code_postal":"75016","arrondissement":16,"code_iris":"751166308","prix_m2_median":12962.962962962964,"revenu_median_uc":47920.0,"nb_logements_sociaux":57,"nb_transactions":9,"c1_effort":0.270512582699561,"c2_logsoc":1.0172413793103448,"c3_volume":2.302585092994046,"itr_brut":0.6336175203980753,"itr_score":7.17,"itr_label":"Très accessible"}},{"type":"Feature","geometry":{"type":"Point","coordinates":[2.338928,48.824786]},"properties":{"nom_voie":"AV REILLE","code_postal":"75014","arrondissement":14,"code_iris":"751145403","prix_m2_median":10000.0,"revenu_median_uc":32150.0,"nb_logements_sociaux":25,"nb_transactions":3,"c1_effort":0.3110419906687403,"c2_logsoc":1.0384615384615385,"c3_volume":1.3862943611198906,"itr_brut":0.44778020995617956,"itr_score":4.83,"itr_label":"Très accessible"}},{"type":"Feature","geometry":{"type":"Point","coordinates":[2.333965,48.828419]},"properties":{"nom_voie":"AV RENE COTY","code_postal":"75014","arrondissement":14,"code_iris":"751145405","prix_m2_median":9598.039215686274,"revenu_median_uc":31170.0,"nb_logements_sociaux":120,"nb_transactions":3,"c1_effort":0.3079255442953569,"c2_logsoc":1.0082644628099173,"c3_volume":1.3862943611198906,"itr_brut":0.43040334194689267,"itr_score":4.61,"itr_label":"Très accessible"}},{"type":"Feature","geometry":{"type":"Point","coordinates":[2.374536,48.880775]},"properties":{"nom_voie":"AV SECRETAN","code_postal":"75019","arrondissement":19,"code_iris":"751197301","prix_m2_median":7422.010416666666,"revenu_median_uc":22980.0,"nb_logements_sociaux":312,"nb_transactions":6,"c1_effort":0.3229769545982013,"c2_logsoc":1.0031948881789137,"c3_volume":1.9459101490553132,"itr_brut":0.6304920703935327,"itr_score":7.13,"itr_label":"Très accessible"}},{"type":"Feature","geometry":{"type":"Point","coordinates":[2.377276,48.876568]},"properties":{"nom_voie":"AV SIMON BOLIVAR","code_postal":"75019","arrondissement":19,"code_iris":"751197608","prix_m2_median":9047.714514835607,"revenu_median_uc":24460.0,"nb_logements_sociaux":1,"nb_transactions":16,"c1_effort":0.36989838572508615,"c2_logsoc":1.5,"c3_volume":2.833213344056216,"itr_brut":1.5720015635717512,"itr_score":18.98,"itr_label":"Très accessible"}},{"type":"Feature","geometry":{"type":"Point","coordinates":[2.293362,48.886351]},"properties":{"nom_voie":"AV STEPHANE MALLARME","code_postal":"75017","arrondissement":17,"code_iris":"751176614","prix_m2_median":9670.47791893527,"revenu_median_uc":24760.0,"nb_logements_sociaux":1409,"nb_transactions":4,"c1_effort":0.3905685750781612,"c2_logsoc":1.000709219858156,"c3_volume":1.6094379124341003,"itr_brut":0.6290416848114307,"itr_score":7.11,"itr_label":"Très accessible"}},{"type":"Feature","geometry":{"type":"Point","coordinates":[2.394148,48.874204]},"properties":{"nom_voie":"AV TAILLADE","code_postal":"75020","arrondissement":20,"code_iris":"751207714","prix_m2_median":8090.909090909091,"revenu_median_uc":29530.0,"nb_logements_sociaux":24,"nb_transactions":5,"c1_effort":0.27398947141581753,"c2_logsoc":1.04,"c3_volume":1.791759469228055,"itr_brut":0.5105601590732038,"itr_score":5.62,"itr_label":"Très accessible"}},{"type":"Feature","geometry":{"type":"Point","coordinates":[2.271568,48.849633]},"properties":{"nom_voie":"AV THEOPHILE GAUTIER","code_postal":"75016","arrondissement":16,"code_iris":"751166127","prix_m2_median":11180.075621635478,"revenu_median_uc":40750.0,"nb_logements_sociaux":81,"nb_transactions":8,"c1_effort":0.27435768396651483,"c2_logsoc":1.0121951219512195,"c3_volume":2.1972245773362196,"itr_brut":0.6101769760238827,"itr_score":6.87,"itr_label":"Très accessible"}},{"type":"Feature","geometry":{"type":"Point","coordinates":[2.342867,48.881041]},"properties":{"nom_voie":"AV TRUDAINE","code_postal":"75009","arrondissement":9,"code_iris":"751093608","prix_m2_median":10526.315789473685,"revenu_median_uc":41320.0,"nb_logements_sociaux":147,"nb_transactions":7,"c1_effort":0.25475110816732055,"c2_logsoc":1.0067567567567568,"c3_volume":2.0794415416798357,"itr_brut":0.5333193616871814,"itr_score":5.91,"itr_label":"Très accessible"}},{"type":"Feature","geometry":{"type":"Point","coordinates":[2.2832,48.868681]},"properties":{"nom_voie":"AV VICTOR HUGO","code_postal":"75016","arrondissement":16,"code_iris":"751166308","prix_m2_median":12667.672413793103,"revenu_median_uc":47920.0,"nb_logements_sociaux":57,"nb_transactions":22,"c1_effort":0.2643504259973519,"c2_logsoc":1.0172413793103448,"c3_volume":3.1354942159291497,"itr_brut":0.8431600805153986,"itr_score":9.81,"itr_label":"Très accessible"}},{"type":"Feature","geometry":{"type":"Point","coordinates":[2.316232,48.831919]},"properties":{"nom_voie":"AV VILLEMAIN","code_postal":"75014","arrondissement":14,"code_iris":"751145616","prix_m2_median":11847.833333333334,"revenu_median_uc":28750.0,"nb_logements_sociaux":213,"nb_transactions":3,"c1_effort":0.4120985507246377,"c2_logsoc":1.0046728971962617,"c3_volume":1.3862943611198906,"itr_brut":0.5739594760536334,"itr_score":6.42,"itr_label":"Très accessible"}},{"type":"Feature","geometry":{"type":"Point","coordinates":[2.348,48.835375]},"properties":{"nom_voie":"BD ARAGO","code_postal":"75013","arrondissement":13,"code_iris":"751135203","prix_m2_median":9908.256880733945,"revenu_median_uc":41470.0,"nb_logements_sociaux":79,"nb_transactions":15,"c1_effort":0.2389258953637315,"c2_logsoc":1.0125,"c3_volume":2.772588722239781,"itr_brut":0.6707237834732305,"itr_score":7.64,"itr_label":"Très accessible"}},{"type":"Feature","geometry":{"type":"Point","coordinates":[2.345858,48.830786]},"properties":{"nom_voie":"BD AUGUSTE BLANQUI","code_postal":"75013","arrondissement":13,"code_iris":"751135118","prix_m2_median":9085.765336509827,"revenu_median_uc":33530.0,"nb_logements_sociaux":155,"nb_transactions":8,"c1_effort":0.27097421224306073,"c2_logsoc":1.0064102564102564,"c3_volume":2.1972245773362196,"itr_brut":0.5992078092145484,"itr_score":6.74,"itr_label":"Très accessible"}},{"type":"Feature","geometry":{"type":"Point","coordinates":[2.349822,48.886721]},"properties":{"nom_voie":"BD BARBES","code_postal":"75018","arrondissement":18,"code_iris":"751187017","prix_m2_median":9007.575757575756,"revenu_median_uc":23200.0,"nb_logements_sociaux":230,"nb_transactions":14,"c1_effort":0.3882575757575757,"c2_logsoc":1.0043290043290043,"c3_volume":2.70805020110221,"itr_brut":1.0559726121968145,"itr_score":12.49,"itr_label":"Très accessible"}},{"type":"Feature","geometry":{"type":"Point","coordinates":[2.367213,48.859071]},"properties":{"nom_voie":"BD BEAUMARCHAIS","code_postal":"75003","arrondissement":3,"code_iris":"751031101","prix_m2_median":11629.303599374021,"revenu_median_uc":43050.0,"nb_logements_sociaux":127,"nb_transactions":8,"c1_effort":0.270134810670709,"c2_logsoc":1.0078125,"c3_volume":2.1972245773362196,"itr_brut":0.5981839299278713,"itr_score":6.72,"itr_label":"Très accessible"}},{"type":"Feature","geometry":{"type":"Point","coordinates":[2.368419,48.857775]},"properties":{"nom_voie":"BD BEAUMARCHAIS","code_postal":"75011","arrondissement":11,"code_iris":"751114207","prix_m2_median":10254.435483870968,"revenu_median_uc":37950.0,"nb_logements_sociaux":21,"nb_transactions":5,"c1_effort":0.27020910365931405,"c2_logsoc":1.0454545454545454,"c3_volume":1.791759469228055,"itr_brut":0.5061565256147101,"itr_score":5.57,"itr_label":"Très accessible"}},{"type":"Feature","geometry":{"type":"Point","coordinates":[2.305155,48.890782]},"properties":{"nom_voie":"BD BERTHIER","code_postal":"75017","arrondissement":17,"code_iris":"751176806","prix_m2_median":7993.571428571428,"revenu_median_uc":25910.0,"nb_logements_sociaux":731,"nb_transactions":6,"c1_effort":0.3085129845068093,"c2_logsoc":1.0013661202185793,"c3_volume":1.9459101490553132,"itr_brut":0.6011586822951054,"itr_score":6.76,"itr_label":"Très accessible"}},{"type":"Feature","geometry":{"type":"Point","coordinates":[2.31973,48.89597]},"properties":{"nom_voie":"BD BESSIERES","code_postal":"75017","arrondissement":17,"code_iris":"751176813","prix_m2_median":8368.055555555555,"revenu_median_uc":20720.0,"nb_logements_sociaux":842,"nb_transactions":8,"c1_effort":0.4038636851136851,"c2_logsoc":1.0011862396204034,"c3_volume":2.1972245773362196,"itr_brut":0.8884318592083131,"itr_score":10.38,"itr_label":"Très accessible"}},{"type":"Feature","geometry":{"type":"Point","coordinates":[2.366445,48.849907]},"properties":{"nom_voie":"BD BOURDON","code_postal":"75004","arrondissement":4,"code_iris":"751041501","prix_m2_median":12061.494252873563,"revenu_median_uc":33650.0,"nb_logements_sociaux":333,"nb_transactions":3,"c1_effort":0.35843965090263186,"c2_logsoc":1.0029940119760479,"c3_volume":1.3862943611198906,"itr_brut":0.4983905999823764,"itr_score":5.47,"itr_label":"Très accessible"}},{"type":"Feature","geometry":{"type":"Point","coordinates":[2.317905,48.825278]},"properties":{"nom_voie":"BD BRUNE","code_postal":"75014","arrondissement":14,"code_iris":"751145504","prix_m2_median":7317.073170731707,"revenu_median_uc":37920.0,"nb_logements_sociaux":33,"nb_transactions":5,"c1_effort":0.19296079036739736,"c2_logsoc":1.0294117647058822,"c3_volume":1.791759469228055,"itr_brut":0.3559081269578819,"itr_score":3.67,"itr_label":"Très accessible"}},{"type":"Feature","geometry":{"type":"Point","coordinates":[2.409578,48.856811]},"properties":{"nom_voie":"BD DAVOUT","code_postal":"75020","arrondissement":20,"code_iris":"751208019","prix_m2_median":6812.701482914248,"revenu_median_uc":20540.0,"nb_logements_sociaux":153,"nb_transactions":10,"c1_effort":0.33167972166086895,"c2_logsoc":1.0064935064935066,"c3_volume":2.3978952727983707,"itr_brut":0.8004977381903892,"itr_score":9.27,"itr_label":"Très accessible"}},{"type":"Feature","geometry":{"type":"Point","coordinates":[2.380557,48.868525]},"properties":{"nom_voie":"BD DE BELLEVILLE","code_postal":"75011","arrondissement":11,"code_iris":"751114101","prix_m2_median":8832.08494208494,"revenu_median_uc":26400.0,"nb_logements_sociaux":44,"nb_transactions":8,"c1_effort":0.334548672048672,"c2_logsoc":1.0222222222222221,"c3_volume":2.1972245773362196,"itr_brut":0.7514136437525488,"itr_score":8.65,"itr_label":"Très accessible"}},{"type":"Feature","geometry":{"type":"Point","coordinates":[2.351937,48.870221]},"properties":{"nom_voie":"BD DE BONNE NOUVELLE","code_postal":"75010","arrondissement":10,"code_iris":"751103803","prix_m2_median":9458.0,"revenu_median_uc":36870.0,"nb_logements_sociaux":135,"nb_transactions":5,"c1_effort":0.2565229183618118,"c2_logsoc":1.0073529411764706,"c3_volume":1.791759469228055,"itr_brut":0.46300698104915033,"itr_score":5.02,"itr_label":"Très accessible"}},{"type":"Feature","geometry":{"type":"Point","coordinates":[2.395463,48.853378]},"properties":{"nom_voie":"BD DE CHARONNE","code_postal":"75011","arrondissement":11,"code_iris":"751114410","prix_m2_median":9169.720758693362,"revenu_median_uc":32000.0,"nb_logements_sociaux":275,"nb_transactions":8,"c1_effort":0.28655377370916757,"c2_logsoc":1.0036231884057971,"c3_volume":2.1972245773362196,"itr_brut":0.631904237055276,"itr_score":7.15,"itr_label":"Très accessible"}},{"type":"Feature","geometry":{"type":"Point","coordinates":[2.3978,48.852532]},"properties":{"nom_voie":"BD DE CHARONNE","code_postal":"75020","arrondissement":20,"code_iris":"751208004","prix_m2_median":8619.285714285714,"revenu_median_uc":32680.0,"nb_logements_sociaux":81,"nb_transactions":11,"c1_effort":0.26374803287287985,"c2_logsoc":1.0121951219512195,"c3_volume":2.4849066497880004,"itr_brut":0.6633817924708394,"itr_score":7.54,"itr_label":"Très accessible"}},{"type":"Feature","geometry":{"type":"Point","coordinates":[2.333151,48.883234]},"properties":{"nom_voie":"BD DE CLICHY","code_postal":"75009","arrondissement":9,"code_iris":"751093308","prix_m2_median":9000.0,"revenu_median_uc":33570.0,"nb_logements_sociaux":102,"nb_transactions":3,"c1_effort":0.2680965147453083,"c2_logsoc":1.0097087378640777,"c3_volume":1.3862943611198906,"itr_brut":0.3752690428081643,"itr_score":3.92,"itr_label":"Très accessible"}},{"type":"Feature","geometry":{"type":"Point","coordinates":[2.334788,48.883748]},"properties":{"nom_voie":"BD DE CLICHY","code_postal":"75018","arrondissement":18,"code_iris":"751186902","prix_m2_median":10736.111111111111,"revenu_median_uc":29590.0,"nb_logements_sociaux":104,"nb_transactions":9,"c1_effort":0.36282903383275134,"c2_logsoc":1.0095238095238095,"c3_volume":2.302585092994046,"itr_brut":0.8434013410335706,"itr_score":9.81,"itr_label":"Très accessible"}},{"type":"Feature","geometry":{"type":"Point","coordinates":[2.305456,48.879095]},"properties":{"nom_voie":"BD DE COURCELLES","code_postal":"75008","arrondissement":8,"code_iris":"751083002","prix_m2_median":11500.0,"revenu_median_uc":49520.0,"nb_logements_sociaux":241,"nb_transactions":5,"c1_effort":0.23222940226171243,"c2_logsoc":1.0041322314049588,"c3_volume":1.791759469228055,"itr_brut":0.41781864884359265,"itr_score":4.45,"itr_label":"Très accessible"}},{"type":"Feature","geometry":{"type":"Point","coordinates":[2.303268,48.8796]},"properties":{"nom_voie":"BD DE COURCELLES","code_postal":"75017","arrondissement":17,"code_iris":"751176604","prix_m2_median":14357.142857142857,"revenu_median_uc":54550.0,"nb_logements_sociaux":0,"nb_transactions":4,"c1_effort":0.2631923530182009,"c2_logsoc":2.0,"c3_volume":1.6094379124341003,"itr_brut":0.847183502420464,"itr_score":9.86,"itr_label":"Très accessible"}},{"type":"Feature","geometry":{"type":"Point","coordinates":[2.35403,48.879645]},"properties":{"nom_voie":"BD DE DENAIN","code_postal":"75010","arrondissement":10,"code_iris":"751103704","prix_m2_median":6689.189189189189,"revenu_median_uc":42600.0,"nb_logements_sociaux":186,"nb_transactions":3,"c1_effort":0.15702322040350208,"c2_logsoc":1.0053475935828877,"c3_volume":1.3862943611198906,"itr_brut":0.21884447134721396,"itr_score":1.95,"itr_label":"Très accessible"}},{"type":"Feature","geometry":{"type":"Point","coordinates":[2.294154,48.850954]},"properties":{"nom_voie":"BD DE GRENELLE","code_postal":"75015","arrondissement":15,"code_iris":"751155915","prix_m2_median":9907.407407407409,"revenu_median_uc":38670.0,"nb_logements_sociaux":54,"nb_transactions":24,"c1_effort":0.2562039670909596,"c2_logsoc":1.018181818181818,"c3_volume":3.2188758248682006,"itr_brut":0.8396830969208618,"itr_score":9.76,"itr_label":"Très accessible"}},{"type":"Feature","geometry":{"type":"Point","coordinates":[2.362487,48.841703]},"properties":{"nom_voie":"BD DE L HOPITAL","code_postal":"75005","arrondissement":5,"code_iris":"751051805","prix_m2_median":8796.625,"revenu_median_uc":32890.0,"nb_logements_sociaux":195,"nb_transactions":12,"c1_effort":0.26745591365156585,"c2_logsoc":1.0051020408163265,"c3_volume":2.5649493574615367,"itr_brut":0.6895109293488,"itr_score":7.87,"itr_label":"Très accessible"}},{"type":"Feature","geometry":{"type":"Point","coordinates":[2.359454,48.837153]},"properties":{"nom_voie":"BD DE L HOPITAL","code_postal":"75013","arrondissement":13,"code_iris":"751134907","prix_m2_median":9165.0,"revenu_median_uc":33600.0,"nb_logements_sociaux":36,"nb_transactions":7,"c1_effort":0.2727678571428571,"c2_logsoc":1.027027027027027,"c3_volume":2.0794415416798357,"itr_brut":0.5825346731988709,"itr_score":6.53,"itr_label":"Très accessible"}},{"type":"Feature","geometry":{"type":"Point","coordinates":[2.358791,48.88395]},"properties":{"nom_voie":"BD DE LA CHAPELLE","code_postal":"75010","arrondissement":10,"code_iris":"751103708","prix_m2_median":6818.181818181818,"revenu_median_uc":31690.0,"nb_logements_sociaux":63,"nb_transactions":5,"c1_effort":0.2151524713847213,"c2_logsoc":1.015625,"c3_volume":1.791759469228055,"itr_brut":0.3915249385240705,"itr_score":4.12,"itr_label":"Très accessible"}},{"type":"Feature","geometry":{"type":"Point","coordinates":[2.326914,48.870127]},"properties":{"nom_voie":"BD DE LA MADELEINE","code_postal":"75009","arrondissement":9,"code_iris":"751093403","prix_m2_median":13571.42857142857,"revenu_median_uc":44620.0,"nb_logements_sociaux":24,"nb_transactions":3,"c1_effort":0.3041557277325991,"c2_logsoc":1.04,"c3_volume":1.3862943611198906,"itr_brut":0.4385153450683396,"itr_score":4.71,"itr_label":"Très accessible"}},{"type":"Feature","geometry":{"type":"Point","coordinates":[2.310123,48.859442]},"properties":{"nom_voie":"BD DE LA TOUR MAUBOURG","code_postal":"75007","arrondissement":7,"code_iris":"751072804","prix_m2_median":33064.51612903226,"revenu_median_uc":44420.0,"nb_logements_sociaux":87,"nb_transactions":11,"c1_effort":0.7443610114595285,"c2_logsoc":1.0113636363636365,"c3_volume":2.4849066497880004,"itr_brut":1.870686577528008,"itr_score":22.74,"itr_label":"Accessible"}},{"type":"Feature","geometry":{"type":"Point","coordinates":[2.372256,48.875982]},"properties":{"nom_voie":"BD DE LA VILLETTE","code_postal":"75010","arrondissement":10,"code_iris":"751104006","prix_m2_median":8485.714285714286,"revenu_median_uc":27960.0,"nb_logements_sociaux":173,"nb_transactions":8,"c1_effort":0.3034947884733293,"c2_logsoc":1.0057471264367817,"c3_volume":2.1972245773362196,"itr_brut":0.6706786578002003,"itr_score":7.64,"itr_label":"Très accessible"}},{"type":"Feature","geometry":{"type":"Point","coordinates":[2.370281,48.880152]},"properties":{"nom_voie":"BD DE LA VILLETTE","code_postal":"75019","arrondissement":19,"code_iris":"751197301","prix_m2_median":7250.0,"revenu_median_uc":22980.0,"nb_logements_sociaux":312,"nb_transactions":10,"c1_effort":0.3154917319408181,"c2_logsoc":1.0031948881789137,"c3_volume":2.3978952727983707,"itr_brut":0.7589331170771486,"itr_score":8.75,"itr_label":"Très accessible"}},{"type":"Feature","geometry":{"type":"Point","coordinates":[2.355528,48.876828]},"properties":{"nom_voie":"BD DE MAGENTA","code_postal":"75010","arrondissement":10,"code_iris":"751103704","prix_m2_median":8426.339285714286,"revenu_median_uc":42600.0,"nb_logements_sociaux":186,"nb_transactions":16,"c1_effort":0.19780139168343394,"c2_logsoc":1.0053475935828877,"c3_volume":2.833213344056216,"itr_brut":0.5634104062534455,"itr_score":6.29,"itr_label":"Très accessible"}},{"type":"Feature","geometry":{"type":"Point","coordinates":[2.386835,48.861777]},"properties":{"nom_voie":"BD DE MENILMONTANT","code_postal":"75011","arrondissement":11,"code_iris":"751114201","prix_m2_median":9318.181818181818,"revenu_median_uc":20620.0,"nb_logements_sociaux":237,"nb_transactions":3,"c1_effort":0.4519001851688563,"c2_logsoc":1.004201680672269,"c3_volume":1.3862943611198906,"itr_brut":0.629098891423446,"itr_score":7.11,"itr_label":"Très accessible"}},{"type":"Feature","geometry":{"type":"Point","coordinates":[2.387032,48.863284]},"properties":{"nom_voie":"BD DE MENILMONTANT","code_postal":"75020","arrondissement":20,"code_iris":"751207906","prix_m2_median":9165.408805031446,"revenu_median_uc":18300.0,"nb_logements_sociaux":105,"nb_transactions":8,"c1_effort":0.5008420112039041,"c2_logsoc":1.009433962264151,"c3_volume":2.1972245773362196,"itr_brut":1.110844096911605,"itr_score":13.18,"itr_label":"Très accessible"}},{"type":"Feature","geometry":{"type":"Point","coordinates":[2.262309,48.850984]},"properties":{"nom_voie":"BD DE MONTMORENCY","code_postal":"75016","arrondissement":16,"code_iris":"751166120","prix_m2_median":11894.799095022625,"revenu_median_uc":57080.0,"nb_logements_sociaux":0,"nb_transactions":6,"c1_effort":0.20838821119521067,"c2_logsoc":2.0,"c3_volume":1.9459101490553132,"itr_brut":0.811009470216485,"itr_score":9.4,"itr_label":"Très accessible"}},{"type":"Feature","geometry":{"type":"Point","coordinates":[2.400209,48.843356]},"properties":{"nom_voie":"BD DE PICPUS","code_postal":"75012","arrondissement":12,"code_iris":"751124615","prix_m2_median":10352.430555555555,"revenu_median_uc":33780.0,"nb_logements_sociaux":157,"nb_transactions":8,"c1_effort":0.3064662686665351,"c2_logsoc":1.0063291139240507,"c3_volume":2.1972245773362196,"itr_brut":0.6776370861047032,"itr_score":7.72,"itr_label":"Très accessible"}},{"type":"Feature","geometry":{"type":"Point","coordinates":[2.343281,48.838522]},"properties":{"nom_voie":"BD DE PORT-ROYAL","code_postal":"75005","arrondissement":5,"code_iris":"751051901","prix_m2_median":11582.244318181818,"revenu_median_uc":40770.0,"nb_logements_sociaux":32,"nb_transactions":6,"c1_effort":0.2840874250228555,"c2_logsoc":1.0303030303030303,"c3_volume":1.9459101490553132,"itr_brut":0.5695603794367516,"itr_score":6.36,"itr_label":"Très accessible"}},{"type":"Feature","geometry":{"type":"Point","coordinates":[2.347019,48.83705]},"properties":{"nom_voie":"BD DE PORT-ROYAL","code_postal":"75013","arrondissement":13,"code_iris":"751135207","prix_m2_median":8170.75,"revenu_median_uc":41390.0,"nb_logements_sociaux":25,"nb_transactions":5,"c1_effort":0.19740879439478135,"c2_logsoc":1.0384615384615385,"c3_volume":1.791759469228055,"itr_brut":0.36731327192211843,"itr_score":3.82,"itr_label":"Très accessible"}},{"type":"Feature","geometry":{"type":"Point","coordinates":[2.394744,48.839258]},"properties":{"nom_voie":"BD DE REUILLY","code_postal":"75012","arrondissement":12,"code_iris":"751124611","prix_m2_median":8538.461538461539,"revenu_median_uc":37750.0,"nb_logements_sociaux":36,"nb_transactions":23,"c1_effort":0.2261844116148752,"c2_logsoc":1.027027027027027,"c3_volume":3.1780538303479458,"itr_brut":0.738253971797587,"itr_score":8.49,"itr_label":"Très accessible"}},{"type":"Feature","geometry":{"type":"Point","coordinates":[2.35627,48.872926]},"properties":{"nom_voie":"BD DE STRASBOURG","code_postal":"75010","arrondissement":10,"code_iris":"751103906","prix_m2_median":8747.945205479453,"revenu_median_uc":33950.0,"nb_logements_sociaux":126,"nb_transactions":9,"c1_effort":0.2576714346238425,"c2_logsoc":1.0078740157480315,"c3_volume":2.302585092994046,"itr_brut":0.5979821397218263,"itr_score":6.72,"itr_label":"Très accessible"}},{"type":"Feature","geometry":{"type":"Point","coordinates":[2.316605,48.841198]},"properties":{"nom_voie":"BD DE VAUGIRARD","code_postal":"75015","arrondissement":15,"code_iris":"751155816","prix_m2_median":8817.135549872122,"revenu_median_uc":46170.0,"nb_logements_sociaux":140,"nb_transactions":6,"c1_effort":0.1909710970299355,"c2_logsoc":1.0070921985815602,"c3_volume":1.9459101490553132,"itr_brut":0.3742481462122166,"itr_score":3.91,"itr_label":"Très accessible"}},{"type":"Feature","geometry":{"type":"Point","coordinates":[2.323473,48.882323]},"properties":{"nom_voie":"BD DES BATIGNOLLES","code_postal":"75008","arrondissement":8,"code_iris":"751083206","prix_m2_median":9047.619047619048,"revenu_median_uc":49050.0,"nb_logements_sociaux":15,"nb_transactions":3,"c1_effort":0.18445706519101016,"c2_logsoc":1.0625,"c3_volume":1.3862943611198906,"itr_brut":0.2716937761769603,"itr_score":2.61,"itr_label":"Très accessible"}},{"type":"Feature","geometry":{"type":"Point","coordinates":[2.321366,48.88268]},"properties":{"nom_voie":"BD DES BATIGNOLLES","code_postal":"75017","arrondissement":17,"code_iris":"751176702","prix_m2_median":11351.351351351352,"revenu_median_uc":43680.0,"nb_logements_sociaux":135,"nb_transactions":3,"c1_effort":0.2598752598752599,"c2_logsoc":1.0073529411764706,"c3_volume":1.3862943611198906,"itr_brut":0.36291260447257745,"itr_score":3.76,"itr_label":"Très accessible"}},{"type":"Feature","geometry":{"type":"Point","coordinates":[2.315588,48.848812]},"properties":{"nom_voie":"BD DES INVALIDES","code_postal":"75007","arrondissement":7,"code_iris":"751072701","prix_m2_median":15065.481927710844,"revenu_median_uc":46930.0,"nb_logements_sociaux":10,"nb_transactions":3,"c1_effort":0.3210202839912816,"c2_logsoc":1.0909090909090908,"c3_volume":1.3862943611198906,"itr_brut":0.4854857558206031,"itr_score":5.31,"itr_label":"Très accessible"}},{"type":"Feature","geometry":{"type":"Point","coordinates":[2.383571,48.846867]},"properties":{"nom_voie":"BD DIDEROT","code_postal":"75012","arrondissement":12,"code_iris":"751124801","prix_m2_median":8741.195551436515,"revenu_median_uc":29910.0,"nb_logements_sociaux":308,"nb_transactions":10,"c1_effort":0.29224993485244116,"c2_logsoc":1.0032362459546926,"c3_volume":2.3978952727983707,"itr_brut":0.703052649029363,"itr_score":8.04,"itr_label":"Très accessible"}},{"type":"Feature","geometry":{"type":"Point","coordinates":[2.32674,48.843339]},"properties":{"nom_voie":"BD DU MONTPARNASSE","code_postal":"75006","arrondissement":6,"code_iris":"751062301","prix_m2_median":13333.333333333334,"revenu_median_uc":55240.0,"nb_logements_sociaux":0,"nb_transactions":15,"c1_effort":0.24137098720733768,"c2_logsoc":2.0,"c3_volume":2.772588722239781,"itr_brut":1.3384449540138939,"itr_score":16.04,"itr_label":"Très accessible"}},{"type":"Feature","geometry":{"type":"Point","coordinates":[2.333143,48.840353]},"properties":{"nom_voie":"BD DU MONTPARNASSE","code_postal":"75014","arrondissement":14,"code_iris":"751145309","prix_m2_median":12068.965517241379,"revenu_median_uc":47640.0,"nb_logements_sociaux":44,"nb_transactions":9,"c1_effort":0.2533368076666956,"c2_logsoc":1.0222222222222221,"c3_volume":2.302585092994046,"itr_brut":0.5962924358809226,"itr_score":6.7,"itr_label":"Très accessible"}},{"type":"Feature","geometry":{"type":"Point","coordinates":[2.319021,48.84519]},"properties":{"nom_voie":"BD DU MONTPARNASSE","code_postal":"75015","arrondissement":15,"code_iris":"751155814","prix_m2_median":10439.560439560439,"revenu_median_uc":43770.0,"nb_logements_sociaux":84,"nb_transactions":5,"c1_effort":0.23850949142244549,"c2_logsoc":1.011764705882353,"c3_volume":1.791759469228055,"itr_brut":0.4323793061070158,"itr_score":4.64,"itr_label":"Très accessible"}},{"type":"Feature","geometry":{"type":"Point","coordinates":[2.365487,48.864158]},"properties":{"nom_voie":"BD DU TEMPLE","code_postal":"75003","arrondissement":3,"code_iris":"751031002","prix_m2_median":10795.454545454546,"revenu_median_uc":42150.0,"nb_logements_sociaux":98,"nb_transactions":3,"c1_effort":0.25611991804162626,"c2_logsoc":1.0101010101010102,"c3_volume":1.3862943611198906,"itr_brut":0.3586440385369647,"itr_score":3.71,"itr_label":"Très accessible"}},{"type":"Feature","geometry":{"type":"Point","coordinates":[2.365979,48.865225]},"properties":{"nom_voie":"BD DU TEMPLE","code_postal":"75011","arrondissement":11,"code_iris":"751114106","prix_m2_median":11471.51590909091,"revenu_median_uc":37380.0,"nb_logements_sociaux":129,"nb_transactions":10,"c1_effort":0.3068891361447541,"c2_logsoc":1.0076923076923077,"c3_volume":2.3978952727983707,"itr_brut":0.7415486858257175,"itr_score":8.53,"itr_label":"Très accessible"}},{"type":"Feature","geometry":{"type":"Point","coordinates":[2.327536,48.840442]},"properties":{"nom_voie":"BD EDGAR QUINET","code_postal":"75014","arrondissement":14,"code_iris":"751145308","prix_m2_median":11318.181818181818,"revenu_median_uc":35040.0,"nb_logements_sociaux":29,"nb_transactions":7,"c1_effort":0.32300747198007473,"c2_logsoc":1.0333333333333334,"c3_volume":2.0794415416798357,"itr_brut":0.6940643273586314,"itr_score":7.93,"itr_label":"Très accessible"}},{"type":"Feature","geometry":{"type":"Point","coordinates":[2.261666,48.843257]},"properties":{"nom_voie":"BD EXELMANS","code_postal":"75016","arrondissement":16,"code_iris":"751166109","prix_m2_median":9055.714285714286,"revenu_median_uc":47820.0,"nb_logements_sociaux":89,"nb_transactions":17,"c1_effort":0.18937085499193404,"c2_logsoc":1.011111111111111,"c3_volume":2.8903717578961645,"itr_brut":0.5534338618266398,"itr_score":6.16,"itr_label":"Très accessible"}},{"type":"Feature","geometry":{"type":"Point","coordinates":[2.273599,48.867059]},"properties":{"nom_voie":"BD FLANDRIN","code_postal":"75016","arrondissement":16,"code_iris":"751166304","prix_m2_median":11306.666666666668,"revenu_median_uc":56120.0,"nb_logements_sociaux":0,"nb_transactions":16,"c1_effort":0.2014730339748159,"c2_logsoc":2.0,"c3_volume":2.833213344056216,"itr_brut":1.1416321766498796,"itr_score":13.56,"itr_label":"Très accessible"}},{"type":"Feature","geometry":{"type":"Point","coordinates":[2.304138,48.846571]},"properties":{"nom_voie":"BD GARIBALDI","code_postal":"75015","arrondissement":15,"code_iris":"751155811","prix_m2_median":10194.174757281553,"revenu_median_uc":43130.0,"nb_logements_sociaux":16,"nb_transactions":5,"c1_effort":0.236359257066579,"c2_logsoc":1.0588235294117647,"c3_volume":1.791759469228055,"itr_brut":0.44841063916455987,"itr_score":4.84,"itr_label":"Très accessible"}},{"type":"Feature","geometry":{"type":"Point","coordinates":[2.287673,48.882724]},"properties":{"nom_voie":"BD GOUVION ST-CYR","code_postal":"75017","arrondissement":17,"code_iris":"751176507","prix_m2_median":10540.54054054054,"revenu_median_uc":44100.0,"nb_logements_sociaux":41,"nb_transactions":7,"c1_effort":0.23901452472881043,"c2_logsoc":1.0238095238095237,"c3_volume":2.0794415416798357,"itr_brut":0.5088504634951401,"itr_score":5.6,"itr_label":"Très accessible"}},{"type":"Feature","geometry":{"type":"Point","coordinates":[2.312565,48.875163]},"properties":{"nom_voie":"BD HAUSSMANN","code_postal":"75008","arrondissement":8,"code_iris":"751083002","prix_m2_median":12910.116258741258,"revenu_median_uc":49520.0,"nb_logements_sociaux":241,"nb_transactions":8,"c1_effort":0.2607050940779737,"c2_logsoc":1.0041322314049588,"c3_volume":2.1972245773362196,"itr_brut":0.5751946965091103,"itr_score":6.43,"itr_label":"Très accessible"}},{"type":"Feature","geometry":{"type":"Point","coordinates":[2.364813,48.851957]},"properties":{"nom_voie":"BD HENRI IV","code_postal":"75004","arrondissement":4,"code_iris":"751041501","prix_m2_median":12158.687943262412,"revenu_median_uc":33650.0,"nb_logements_sociaux":333,"nb_transactions":6,"c1_effort":0.361328022088036,"c2_logsoc":1.0029940119760479,"c3_volume":1.9459101490553132,"itr_brut":0.7052169906644586,"itr_score":8.07,"itr_label":"Très accessible"}},{"type":"Feature","geometry":{"type":"Point","coordinates":[2.343344,48.820108]},"properties":{"nom_voie":"BD JOURDAN","code_postal":"75014","arrondissement":14,"code_iris":"751145402","prix_m2_median":7475.091575091576,"revenu_median_uc":41170.0,"nb_logements_sociaux":94,"nb_transactions":6,"c1_effort":0.18156647012610094,"c2_logsoc":1.0105263157894737,"c3_volume":1.9459101490553132,"itr_brut":0.3570311110196495,"itr_score":3.69,"itr_label":"Très accessible"}},{"type":"Feature","geometry":{"type":"Point","coordinates":[2.345656,48.820082]},"properties":{"nom_voie":"BD KELLERMANN","code_postal":"75013","arrondissement":13,"code_iris":"751135110","prix_m2_median":7517.241379310345,"revenu_median_uc":26250.0,"nb_logements_sociaux":579,"nb_transactions":3,"c1_effort":0.28637110016420364,"c2_logsoc":1.0017241379310344,"c3_volume":1.3862943611198906,"itr_brut":0.39767911486489577,"itr_score":4.2,"itr_label":"Très accessible"}},{"type":"Feature","geometry":{"type":"Point","coordinates":[2.293515,48.831132]},"properties":{"nom_voie":"BD LEFEBVRE","code_postal":"75015","arrondissement":15,"code_iris":"751155706","prix_m2_median":7818.181818181818,"revenu_median_uc":39560.0,"nb_logements_sociaux":2,"nb_transactions":9,"c1_effort":0.1976284584980237,"c2_logsoc":1.3333333333333333,"c3_volume":2.302585092994046,"itr_brut":0.6067417899852557,"itr_score":6.83,"itr_label":"Très accessible"}},{"type":"Feature","geometry":{"type":"Point","coordinates":[2.317201,48.876961]},"properties":{"nom_voie":"BD MALESHERBES","code_postal":"75008","arrondissement":8,"code_iris":"751083204","prix_m2_median":12280.03671875,"revenu_median_uc":62420.0,"nb_logements_sociaux":6,"nb_transactions":14,"c1_effort":0.1967324049783723,"c2_logsoc":1.1428571428571428,"c3_volume":2.70805020110221,"itr_brut":0.6088699758457172,"itr_score":6.86,"itr_label":"Très accessible"}},{"type":"Feature","geometry":{"type":"Point","coordinates":[2.307069,48.886158]},"properties":{"nom_voie":"BD MALESHERBES","code_postal":"75017","arrondissement":17,"code_iris":"751176602","prix_m2_median":9991.436657681941,"revenu_median_uc":50460.0,"nb_logements_sociaux":137,"nb_transactions":10,"c1_effort":0.1980070681268716,"c2_logsoc":1.0072463768115942,"c3_volume":2.3978952727983707,"itr_brut":0.47824079389312,"itr_score":5.21,"itr_label":"Très accessible"}},{"type":"Feature","geometry":{"type":"Point","coordinates":[2.345697,48.882812]},"properties":{"nom_voie":"BD MARGUERITE DE ROCHECHOUART","code_postal":"75009","arrondissement":9,"code_iris":"751093609","prix_m2_median":10194.813409234663,"revenu_median_uc":41260.0,"nb_logements_sociaux":11,"nb_transactions":6,"c1_effort":0.2470870918379705,"c2_logsoc":1.0833333333333333,"c3_volume":1.9459101490553132,"itr_brut":0.5208767196837414,"itr_score":5.75,"itr_label":"Très accessible"}},{"type":"Feature","geometry":{"type":"Point","coordinates":[2.342894,48.883038]},"properties":{"nom_voie":"BD MARGUERITE DE ROCHECHOUART","code_postal":"75018","arrondissement":18,"code_iris":"751187002","prix_m2_median":9036.764705882353,"revenu_median_uc":34060.0,"nb_logements_sociaux":0,"nb_transactions":5,"c1_effort":0.2653189872543263,"c2_logsoc":2.0,"c3_volume":1.791759469228055,"itr_brut":0.9507756155578735,"itr_score":11.16,"itr_label":"Très accessible"}},{"type":"Feature","geometry":{"type":"Point","coordinates":[2.366071,48.821037]},"properties":{"nom_voie":"BD MASSENA","code_postal":"75013","arrondissement":13,"code_iris":"751135004","prix_m2_median":5312.5,"revenu_median_uc":15710.0,"nb_logements_sociaux":0,"nb_transactions":7,"c1_effort":0.33816040738383196,"c2_logsoc":2.0,"c3_volume":2.0794415416798357,"itr_brut":1.4063695977306336,"itr_score":16.89,"itr_label":"Très accessible"}},{"type":"Feature","geometry":{"type":"Point","coordinates":[2.365022,48.848328]},"properties":{"nom_voie":"BD MORLAND","code_postal":"75004","arrondissement":4,"code_iris":"751041501","prix_m2_median":12272.727272727272,"revenu_median_uc":33650.0,"nb_logements_sociaux":333,"nb_transactions":5,"c1_effort":0.36471700661893824,"c2_logsoc":1.0029940119760479,"c3_volume":1.791759469228055,"itr_brut":0.655441692563856,"itr_score":7.44,"itr_label":"Très accessible"}},{"type":"Feature","geometry":{"type":"Point","coordinates":[2.408523,48.867609]},"properties":{"nom_voie":"BD MORTIER","code_postal":"75020","arrondissement":20,"code_iris":"751207802","prix_m2_median":7531.565656565657,"revenu_median_uc":28140.0,"nb_logements_sociaux":255,"nb_transactions":4,"c1_effort":0.2676462564522266,"c2_logsoc":1.00390625,"c3_volume":1.6094379124341003,"itr_brut":0.4324426886312706,"itr_score":4.64,"itr_label":"Très accessible"}},{"type":"Feature","geometry":{"type":"Point","coordinates":[2.260552,48.840977]},"properties":{"nom_voie":"BD MURAT","code_postal":"75016","arrondissement":16,"code_iris":"751166102","prix_m2_median":9211.87275985663,"revenu_median_uc":29760.0,"nb_logements_sociaux":32,"nb_transactions":14,"c1_effort":0.30953873521023617,"c2_logsoc":1.0303030303030303,"c3_volume":2.70805020110221,"itr_brut":0.8636478412300039,"itr_score":10.06,"itr_label":"Très accessible"}},{"type":"Feature","geometry":{"type":"Point","coordinates":[2.333316,48.897452]},"properties":{"nom_voie":"BD NEY","code_postal":"75018","arrondissement":18,"code_iris":"751186924","prix_m2_median":7177.33918128655,"revenu_median_uc":22670.0,"nb_logements_sociaux":164,"nb_transactions":8,"c1_effort":0.3166007578864821,"c2_logsoc":1.006060606060606,"c3_volume":2.1972245773362196,"itr_brut":0.699858984409825,"itr_score":8.0,"itr_label":"Très accessible"}},{"type":"Feature","geometry":{"type":"Point","coordinates":[2.347036,48.894692]},"properties":{"nom_voie":"BD ORNANO","code_postal":"75018","arrondissement":18,"code_iris":"751187019","prix_m2_median":7691.176470588235,"revenu_median_uc":25530.0,"nb_logements_sociaux":170,"nb_transactions":23,"c1_effort":0.30126033962351095,"c2_logsoc":1.0058479532163742,"c3_volume":3.1780538303479458,"itr_brut":0.9630205328588105,"itr_score":11.32,"itr_label":"Très accessible"}},{"type":"Feature","geometry":{"type":"Point","coordinates":[2.297497,48.884216]},"properties":{"nom_voie":"BD PEREIRE","code_postal":"75017","arrondissement":17,"code_iris":"751176611","prix_m2_median":10671.79802955665,"revenu_median_uc":56810.0,"nb_logements_sociaux":43,"nb_transactions":26,"c1_effort":0.18785069582039518,"c2_logsoc":1.0227272727272727,"c3_volume":3.295836866004329,"itr_brut":0.6331962769664561,"itr_score":7.16,"itr_label":"Très accessible"}},{"type":"Feature","geometry":{"type":"Point","coordinates":[2.403098,48.834129]},"properties":{"nom_voie":"BD PONIATOWSKI","code_postal":"75012","arrondissement":12,"code_iris":"751124602","prix_m2_median":8617.021276595744,"revenu_median_uc":32840.0,"nb_logements_sociaux":231,"nb_transactions":7,"c1_effort":0.26239407054189234,"c2_logsoc":1.0043103448275863,"c3_volume":2.0794415416798357,"itr_brut":0.547984997517415,"itr_score":6.09,"itr_label":"Très accessible"}},{"type":"Feature","geometry":{"type":"Point","coordinates":[2.328711,48.844798]},"properties":{"nom_voie":"BD RASPAIL","code_postal":"75006","arrondissement":6,"code_iris":"751062303","prix_m2_median":16732.666045934202,"revenu_median_uc":50740.0,"nb_logements_sociaux":26,"nb_transactions":4,"c1_effort":0.3297726851780489,"c2_logsoc":1.037037037037037,"c3_volume":1.6094379124341003,"itr_brut":0.5504060198629966,"itr_score":6.12,"itr_label":"Très accessible"}},{"type":"Feature","geometry":{"type":"Point","coordinates":[2.326438,48.853799]},"properties":{"nom_voie":"BD RASPAIL","code_postal":"75007","arrondissement":7,"code_iris":"751072501","prix_m2_median":28171.58878504673,"revenu_median_uc":61170.0,"nb_logements_sociaux":0,"nb_transactions":7,"c1_effort":0.46054583594975856,"c2_logsoc":2.0,"c3_volume":2.0794415416798357,"itr_brut":1.9153562862431894,"itr_score":23.3,"itr_label":"Accessible"}},{"type":"Feature","geometry":{"type":"Point","coordinates":[2.330232,48.839367]},"properties":{"nom_voie":"BD RASPAIL","code_postal":"75014","arrondissement":14,"code_iris":"751145308","prix_m2_median":10147.435897435898,"revenu_median_uc":35040.0,"nb_logements_sociaux":29,"nb_transactions":8,"c1_effort":0.28959577332865005,"c2_logsoc":1.0333333333333334,"c3_volume":2.1972245773362196,"itr_brut":0.6575171823387455,"itr_score":7.47,"itr_label":"Très accessible"}},{"type":"Feature","geometry":{"type":"Point","coordinates":[2.371905,48.860708]},"properties":{"nom_voie":"BD RICHARD LENOIR","code_postal":"75011","arrondissement":11,"code_iris":"751114208","prix_m2_median":10631.578947368422,"revenu_median_uc":42990.0,"nb_logements_sociaux":32,"nb_transactions":19,"c1_effort":0.24730353448170322,"c2_logsoc":1.0303030303030303,"c3_volume":2.995732273553991,"itr_brut":0.763305336568714,"itr_score":8.8,"itr_label":"Très accessible"}},{"type":"Feature","geometry":{"type":"Point","coordinates":[2.351336,48.84968]},"properties":{"nom_voie":"BD SAINT GERMAIN","code_postal":"75005","arrondissement":5,"code_iris":"751051704","prix_m2_median":13093.023255813954,"revenu_median_uc":43520.0,"nb_logements_sociaux":34,"nb_transactions":7,"c1_effort":0.30085071819425446,"c2_logsoc":1.0285714285714285,"c3_volume":2.0794415416798357,"itr_brut":0.6434758092932704,"itr_score":7.29,"itr_label":"Très accessible"}},{"type":"Feature","geometry":{"type":"Point","coordinates":[2.323752,48.859125]},"properties":{"nom_voie":"BD SAINT GERMAIN","code_postal":"75007","arrondissement":7,"code_iris":"751072604","prix_m2_median":18363.636363636364,"revenu_median_uc":58780.0,"nb_logements_sociaux":253,"nb_transactions":6,"c1_effort":0.3124130038046336,"c2_logsoc":1.0039370078740157,"c3_volume":1.9459101490553132,"itr_brut":0.6103210506853333,"itr_score":6.88,"itr_label":"Très accessible"}},{"type":"Feature","geometry":{"type":"Point","coordinates":[2.357312,48.838902]},"properties":{"nom_voie":"BD SAINT MARCEL","code_postal":"75005","arrondissement":5,"code_iris":"751051801","prix_m2_median":11509.433962264151,"revenu_median_uc":41360.0,"nb_logements_sociaux":10,"nb_transactions":7,"c1_effort":0.27827451552863036,"c2_logsoc":1.0909090909090908,"c3_volume":2.0794415416798357,"itr_brut":0.6312606409975249,"itr_score":7.14,"itr_label":"Très accessible"}},{"type":"Feature","geometry":{"type":"Point","coordinates":[2.357722,48.838317]},"properties":{"nom_voie":"BD SAINT MARCEL","code_postal":"75013","arrondissement":13,"code_iris":"751134906","prix_m2_median":9948.333333333332,"revenu_median_uc":33600.0,"nb_logements_sociaux":2,"nb_transactions":6,"c1_effort":0.29608134920634915,"c2_logsoc":1.3333333333333333,"c3_volume":1.9459101490553132,"itr_brut":0.7681969364888335,"itr_score":8.86,"itr_label":"Très accessible"}},{"type":"Feature","geometry":{"type":"Point","coordinates":[2.358556,48.86824]},"properties":{"nom_voie":"BD SAINT MARTIN","code_postal":"75003","arrondissement":3,"code_iris":"751030901","prix_m2_median":10648.321678321678,"revenu_median_uc":36130.0,"nb_logements_sociaux":126,"nb_transactions":6,"c1_effort":0.29472243781681917,"c2_logsoc":1.0078740157480315,"c3_volume":1.9459101490553132,"itr_brut":0.5780191575705921,"itr_score":6.47,"itr_label":"Très accessible"}},{"type":"Feature","geometry":{"type":"Point","coordinates":[2.339467,48.84384]},"properties":{"nom_voie":"BD SAINT MICHEL","code_postal":"75005","arrondissement":5,"code_iris":"751051905","prix_m2_median":11642.857142857143,"revenu_median_uc":57290.0,"nb_logements_sociaux":30,"nb_transactions":7,"c1_effort":0.2032266912699798,"c2_logsoc":1.032258064516129,"c3_volume":2.0794415416798357,"itr_brut":0.43623021853413035,"itr_score":4.69,"itr_label":"Très accessible"}},{"type":"Feature","geometry":{"type":"Point","coordinates":[2.341126,48.848648]},"properties":{"nom_voie":"BD SAINT MICHEL","code_postal":"75006","arrondissement":6,"code_iris":"751062101","prix_m2_median":17192.092457420928,"revenu_median_uc":44890.0,"nb_logements_sociaux":0,"nb_transactions":4,"c1_effort":0.3829826789356411,"c2_logsoc":2.0,"c3_volume":1.6094379124341003,"itr_brut":1.232773686569195,"itr_score":14.71,"itr_label":"Très accessible"}},{"type":"Feature","geometry":{"type":"Point","coordinates":[2.403143,48.879164]},"properties":{"nom_voie":"BD SERURIER","code_postal":"75019","arrondissement":19,"code_iris":"751197501","prix_m2_median":6410.25641025641,"revenu_median_uc":25190.0,"nb_logements_sociaux":86,"nb_transactions":7,"c1_effort":0.2544762370089881,"c2_logsoc":1.0114942528735633,"c3_volume":2.0794415416798357,"itr_brut":0.5352508546827943,"itr_score":5.93,"itr_label":"Très accessible"}},{"type":"Feature","geometry":{"type":"Point","coordinates":[2.408869,48.841271]},"properties":{"nom_voie":"BD SOULT","code_postal":"75012","arrondissement":12,"code_iris":"751124503","prix_m2_median":7685.714285714285,"revenu_median_uc":32190.0,"nb_logements_sociaux":12,"nb_transactions":11,"c1_effort":0.23876092841610083,"c2_logsoc":1.0769230769230769,"c3_volume":2.4849066497880004,"itr_brut":0.6389369740177046,"itr_score":7.24,"itr_label":"Très accessible"}},{"type":"Feature","geometry":{"type":"Point","coordinates":[2.263139,48.854893]},"properties":{"nom_voie":"BD SUCHET","code_postal":"75016","arrondissement":16,"code_iris":"751166121","prix_m2_median":9857.142857142857,"revenu_median_uc":35630.0,"nb_logements_sociaux":231,"nb_transactions":5,"c1_effort":0.27665290084599653,"c2_logsoc":1.0043103448275863,"c3_volume":1.791759469228055,"itr_brut":0.49783207311979444,"itr_score":5.46,"itr_label":"Très accessible"}},{"type":"Feature","geometry":{"type":"Point","coordinates":[2.367215,48.834782]},"properties":{"nom_voie":"BD VINCENT AURIOL","code_postal":"75013","arrondissement":13,"code_iris":"751134901","prix_m2_median":8416.53448275862,"revenu_median_uc":26450.0,"nb_logements_sociaux":781,"nb_transactions":8,"c1_effort":0.31820546248614817,"c2_logsoc":1.0012787723785166,"c3_volume":2.1972245773362196,"itr_brut":0.7000629406468927,"itr_score":8.01,"itr_label":"Très accessible"}},{"type":"Feature","geometry":{"type":"Point","coordinates":[2.380739,48.857421]},"properties":{"nom_voie":"BD VOLTAIRE","code_postal":"75011","arrondissement":11,"code_iris":"751114206","prix_m2_median":10184.022556390977,"revenu_median_uc":27770.0,"nb_logements_sociaux":40,"nb_transactions":44,"c1_effort":0.36672749572887925,"c2_logsoc":1.024390243902439,"c3_volume":3.8066624897703196,"itr_brut":1.4300567727380062,"itr_score":17.19,"itr_label":"Très accessible"}},{"type":"Feature","geometry":{"type":"Point","coordinates":[2.345075,48.879496]},"properties":{"nom_voie":"CITE CONDORCET","code_postal":"75009","arrondissement":9,"code_iris":"751093605","prix_m2_median":11000.0,"revenu_median_uc":41840.0,"nb_logements_sociaux":0,"nb_transactions":3,"c1_effort":0.26290630975143403,"c2_logsoc":2.0,"c3_volume":1.3862943611198906,"itr_brut":0.7289310694225046,"itr_score":8.37,"itr_label":"Très accessible"}},{"type":"Feature","geometry":{"type":"Point","coordinates":[2.346759,48.874916]},"properties":{"nom_voie":"CITE DE TREVISE","code_postal":"75009","arrondissement":9,"code_iris":"751093503","prix_m2_median":10154.566563467492,"revenu_median_uc":43620.0,"nb_logements_sociaux":105,"nb_transactions":4,"c1_effort":0.2327961156228219,"c2_logsoc":1.009433962264151,"c3_volume":1.6094379124341003,"itr_brut":0.3782055254295427,"itr_score":3.95,"itr_label":"Très accessible"}},{"type":"Feature","geometry":{"type":"Point","coordinates":[2.386987,48.843573]},"properties":{"nom_voie":"CITE MOYNET","code_postal":"75012","arrondissement":12,"code_iris":"751124619","prix_m2_median":2232.1428571428573,"revenu_median_uc":28970.0,"nb_logements_sociaux":97,"nb_transactions":3,"c1_effort":0.07705015040189359,"c2_logsoc":1.010204081632653,"c3_volume":1.3862943611198906,"itr_brut":0.10790412972992723,"itr_score":0.55,"itr_label":"Très accessible"}},{"type":"Feature","geometry":{"type":"Point","coordinates":[2.403658,48.847138]},"properties":{"nom_voie":"CRS DE VINCENNES","code_postal":"75012","arrondissement":12,"code_iris":"751124514","prix_m2_median":7805.347619047619,"revenu_median_uc":40670.0,"nb_logements_sociaux":267,"nb_transactions":12,"c1_effort":0.19191904644818342,"c2_logsoc":1.0037313432835822,"c3_volume":2.5649493574615367,"itr_brut":0.49409943574828663,"itr_score":5.41,"itr_label":"Très accessible"}},{"type":"Feature","geometry":{"type":"Point","coordinates":[2.405292,48.848109]},"properties":{"nom_voie":"CRS DE VINCENNES","code_postal":"75020","arrondissement":20,"code_iris":"751208002","prix_m2_median":6020.136778115502,"revenu_median_uc":25510.0,"nb_logements_sociaux":3,"nb_transactions":4,"c1_effort":0.23599124963212476,"c2_logsoc":1.25,"c3_volume":1.6094379124341003,"itr_brut":0.4747665802008019,"itr_score":5.17,"itr_label":"Très accessible"}},{"type":"Feature","geometry":{"type":"Point","coordinates":[2.392256,48.85233]},"properties":{"nom_voie":"IMP DES JARDINIERS","code_postal":"75011","arrondissement":11,"code_iris":"751114409","prix_m2_median":8979.591836734693,"revenu_median_uc":33550.0,"nb_logements_sociaux":271,"nb_transactions":3,"c1_effort":0.2676480428236868,"c2_logsoc":1.0036764705882353,"c3_volume":1.3862943611198906,"itr_brut":0.37240308640085223,"itr_score":3.88,"itr_label":"Très accessible"}},{"type":"Feature","geometry":{"type":"Point","coordinates":[2.395277,48.852005]},"properties":{"nom_voie":"IMP DU BUREAU","code_postal":"75011","arrondissement":11,"code_iris":"751114410","prix_m2_median":8823.529411764706,"revenu_median_uc":32000.0,"nb_logements_sociaux":275,"nb_transactions":3,"c1_effort":0.2757352941176471,"c2_logsoc":1.0036231884057971,"c3_volume":1.3862943611198906,"itr_brut":0.38363524819194544,"itr_score":4.02,"itr_label":"Très accessible"}},{"type":"Feature","geometry":{"type":"Point","coordinates":[2.371238,48.861065]},"properties":{"nom_voie":"IMP SAINT SEBASTIEN","code_postal":"75011","arrondissement":11,"code_iris":"751114208","prix_m2_median":13331.333333333334,"revenu_median_uc":42990.0,"nb_logements_sociaux":32,"nb_transactions":4,"c1_effort":0.3101031247576956,"c2_logsoc":1.0303030303030303,"c3_volume":1.6094379124341003,"itr_brut":0.5142157174386901,"itr_score":5.67,"itr_label":"Très accessible"}},{"type":"Feature","geometry":{"type":"Point","coordinates":[2.374094,48.863519]},"properties":{"nom_voie":"PAS BESLAY","code_postal":"75011","arrondissement":11,"code_iris":"751114210","prix_m2_median":10906.25,"revenu_median_uc":32220.0,"nb_logements_sociaux":140,"nb_transactions":3,"c1_effort":0.33849317194289263,"c2_logsoc":1.0070921985815602,"c3_volume":1.3862943611198906,"itr_brut":0.47257919806359217,"itr_score":5.14,"itr_label":"Très accessible"}},{"type":"Feature","geometry":{"type":"Point","coordinates":[2.376449,48.855352]},"properties":{"nom_voie":"PAS BULLOURDE","code_postal":"75011","arrondissement":11,"code_iris":"751114309","prix_m2_median":10208.333333333332,"revenu_median_uc":30470.0,"nb_logements_sociaux":101,"nb_transactions":8,"c1_effort":0.33502899026364724,"c2_logsoc":1.0098039215686274,"c3_volume":2.1972245773362196,"itr_brut":0.7433509308561229,"itr_score":8.55,"itr_label":"Très accessible"}},{"type":"Feature","geometry":{"type":"Point","coordinates":[2.346096,48.887796]},"properties":{"nom_voie":"PAS COTTIN","code_postal":"75018","arrondissement":18,"code_iris":"751187009","prix_m2_median":9629.62962962963,"revenu_median_uc":34190.0,"nb_logements_sociaux":125,"nb_transactions":3,"c1_effort":0.2816504717645402,"c2_logsoc":1.007936507936508,"c3_volume":1.3862943611198906,"itr_brut":0.393549273995002,"itr_score":4.15,"itr_label":"Très accessible"}},{"type":"Feature","geometry":{"type":"Point","coordinates":[2.38655,48.85688]},"properties":{"nom_voie":"PAS COURTOIS","code_postal":"75011","arrondissement":11,"code_iris":"751114304","prix_m2_median":9687.5,"revenu_median_uc":31240.0,"nb_logements_sociaux":20,"nb_transactions":3,"c1_effort":0.3100992317541613,"c2_logsoc":1.0476190476190477,"c3_volume":1.3862943611198906,"itr_brut":0.450359712385947,"itr_score":4.86,"itr_label":"Très accessible"}},{"type":"Feature","geometry":{"type":"Point","coordinates":[2.360584,48.873982]},"properties":{"nom_voie":"PAS DES RECOLLETS","code_postal":"75010","arrondissement":10,"code_iris":"751103910","prix_m2_median":8416.666666666668,"revenu_median_uc":37970.0,"nb_logements_sociaux":151,"nb_transactions":4,"c1_effort":0.2216662277236415,"c2_logsoc":1.006578947368421,"c3_volume":1.6094379124341003,"itr_brut":0.359105123112605,"itr_score":3.71,"itr_label":"Très accessible"}},{"type":"Feature","geometry":{"type":"Point","coordinates":[2.292029,48.878264]},"properties":{"nom_voie":"PAS DOISY","code_postal":"75017","arrondissement":17,"code_iris":"751176503","prix_m2_median":10500.0,"revenu_median_uc":47480.0,"nb_logements_sociaux":13,"nb_transactions":4,"c1_effort":0.22114574557708508,"c2_logsoc":1.0714285714285714,"c3_volume":1.6094379124341003,"itr_brut":0.3813432290413569,"itr_score":3.99,"itr_label":"Très accessible"}},{"type":"Feature","geometry":{"type":"Point","coordinates":[2.347314,48.896159]},"properties":{"nom_voie":"PAS DUHESME","code_postal":"75018","arrondissement":18,"code_iris":"751187026","prix_m2_median":6375.0,"revenu_median_uc":23630.0,"nb_logements_sociaux":221,"nb_transactions":4,"c1_effort":0.2697841726618705,"c2_logsoc":1.0045045045045045,"c3_volume":1.6094379124341003,"itr_brut":0.43615673545693706,"itr_score":4.68,"itr_label":"Très accessible"}},{"type":"Feature","geometry":{"type":"Point","coordinates":[2.352799,48.86862]},"properties":{"nom_voie":"PAS LEMOINE","code_postal":"75002","arrondissement":2,"code_iris":"751020801","prix_m2_median":8857.142857142857,"revenu_median_uc":33070.0,"nb_logements_sociaux":113,"nb_transactions":3,"c1_effort":0.2678301438507063,"c2_logsoc":1.0087719298245614,"c3_volume":1.3862943611198906,"itr_brut":0.3745483604227086,"itr_score":3.91,"itr_label":"Très accessible"}},{"type":"Feature","geometry":{"type":"Point","coordinates":[2.346949,48.889972]},"properties":{"nom_voie":"PAS RAMEY","code_postal":"75018","arrondissement":18,"code_iris":"751187010","prix_m2_median":10000.0,"revenu_median_uc":31340.0,"nb_logements_sociaux":92,"nb_transactions":3,"c1_effort":0.3190810465858328,"c2_logsoc":1.010752688172043,"c3_volume":1.3862943611198906,"itr_brut":0.4470966024568201,"itr_score":4.82,"itr_label":"Très accessible"}},{"type":"Feature","geometry":{"type":"Point","coordinates":[2.297614,48.881466]},"properties":{"nom_voie":"PAS ROUX","code_postal":"75017","arrondissement":17,"code_iris":"751176511","prix_m2_median":9967.787114845938,"revenu_median_uc":48630.0,"nb_logements_sociaux":24,"nb_transactions":4,"c1_effort":0.2049719743953514,"c2_logsoc":1.04,"c3_volume":1.6094379124341003,"itr_brut":0.3430852532414842,"itr_score":3.51,"itr_label":"Très accessible"}},{"type":"Feature","geometry":{"type":"Point","coordinates":[2.373297,48.854214]},"properties":{"nom_voie":"PAS THIERE","code_postal":"75011","arrondissement":11,"code_iris":"751114311","prix_m2_median":9775.0,"revenu_median_uc":32950.0,"nb_logements_sociaux":38,"nb_transactions":5,"c1_effort":0.2966616084977238,"c2_logsoc":1.0256410256410255,"c3_volume":1.791759469228055,"itr_brut":0.545175637109972,"itr_score":6.06,"itr_label":"Très accessible"}},{"type":"Feature","geometry":{"type":"Point","coordinates":[2.316252,48.888527]},"properties":{"nom_voie":"PL CHARLES FILLION","code_postal":"75017","arrondissement":17,"code_iris":"751176712","prix_m2_median":11203.703703703704,"revenu_median_uc":46780.0,"nb_logements_sociaux":9,"nb_transactions":3,"c1_effort":0.23949772774056657,"c2_logsoc":1.1,"c3_volume":1.3862943611198906,"itr_brut":0.36521578441455166,"itr_score":3.79,"itr_label":"Très accessible"}},{"type":"Feature","geometry":{"type":"Point","coordinates":[2.396373,48.849293]},"properties":{"nom_voie":"PL DE LA NATION","code_postal":"75011","arrondissement":11,"code_iris":"751114401","prix_m2_median":9971.264367816093,"revenu_median_uc":39790.0,"nb_logements_sociaux":54,"nb_transactions":6,"c1_effort":0.2505972447302361,"c2_logsoc":1.018181818181818,"c3_volume":1.9459101490553132,"itr_brut":0.4965058986066983,"itr_score":5.44,"itr_label":"Très accessible"}},{"type":"Feature","geometry":{"type":"Point","coordinates":[2.366288,48.855505]},"properties":{"nom_voie":"PL DES VOSGES","code_postal":"75004","arrondissement":4,"code_iris":"751041504","prix_m2_median":14495.495495495496,"revenu_median_uc":40580.0,"nb_logements_sociaux":53,"nb_transactions":4,"c1_effort":0.357207873225616,"c2_logsoc":1.0185185185185186,"c3_volume":1.6094379124341003,"itr_brut":0.585550262192765,"itr_score":6.56,"itr_label":"Très accessible"}},{"type":"Feature","geometry":{"type":"Point","coordinates":[2.297539,48.884817]},"properties":{"nom_voie":"PL DU MAL JUIN","code_postal":"75017","arrondissement":17,"code_iris":"751176608","prix_m2_median":10260.686131386861,"revenu_median_uc":71370.0,"nb_logements_sociaux":10,"nb_transactions":3,"c1_effort":0.14376749518546814,"c2_logsoc":1.0909090909090908,"c3_volume":1.3862943611198906,"itr_brut":0.21742261951412234,"itr_score":1.93,"itr_label":"Très accessible"}},{"type":"Feature","geometry":{"type":"Point","coordinates":[2.362835,48.855365]},"properties":{"nom_voie":"PL DU MARCHE SAINTE CATHERINE","code_postal":"75004","arrondissement":4,"code_iris":"751041404","prix_m2_median":11286.0,"revenu_median_uc":34390.0,"nb_logements_sociaux":13,"nb_transactions":5,"c1_effort":0.3281767955801105,"c2_logsoc":1.0714285714285714,"c3_volume":1.791759469228055,"itr_brut":0.6300148725659814,"itr_score":7.12,"itr_label":"Très accessible"}},{"type":"Feature","geometry":{"type":"Point","coordinates":[2.351155,48.877876]},"properties":{"nom_voie":"PL FRANZ LISZT","code_postal":"75010","arrondissement":10,"code_iris":"751103705","prix_m2_median":8313.559322033898,"revenu_median_uc":44620.0,"nb_logements_sociaux":0,"nb_transactions":3,"c1_effort":0.18631912420515234,"c2_logsoc":2.0,"c3_volume":1.3862943611198906,"itr_brut":0.5165863025087984,"itr_score":5.7,"itr_label":"Très accessible"}},{"type":"Feature","geometry":{"type":"Point","coordinates":[2.337533,48.878666]},"properties":{"nom_voie":"PL SAINT-GEORGES","code_postal":"75009","arrondissement":9,"code_iris":"751093301","prix_m2_median":35546.875,"revenu_median_uc":47800.0,"nb_logements_sociaux":16,"nb_transactions":3,"c1_effort":0.7436584728033473,"c2_logsoc":1.0588235294117647,"c3_volume":1.3862943611198906,"itr_brut":1.091572462001975,"itr_score":12.93,"itr_label":"Très accessible"}},{"type":"Feature","geometry":{"type":"Point","coordinates":[2.36863,48.828483]},"properties":{"nom_voie":"PL SOUHAM","code_postal":"75013","arrondissement":13,"code_iris":"751135025","prix_m2_median":7028.985507246377,"revenu_median_uc":26310.0,"nb_logements_sociaux":0,"nb_transactions":3,"c1_effort":0.2671602245247578,"c2_logsoc":2.0,"c3_volume":1.3862943611198906,"itr_brut":0.7407254255483913,"itr_score":8.52,"itr_label":"Très accessible"}},{"type":"Feature","geometry":{"type":"Point","coordinates":[2.279477,48.846971]},"properties":{"nom_voie":"QUAI ANDRE CITROEN","code_postal":"75015","arrondissement":15,"code_iris":"751156014","prix_m2_median":9727.963302752294,"revenu_median_uc":25160.0,"nb_logements_sociaux":209,"nb_transactions":8,"c1_effort":0.3866440104432549,"c2_logsoc":1.0047619047619047,"c3_volume":2.1972245773362196,"itr_brut":0.8535891687230271,"itr_score":9.94,"itr_label":"Très accessible"}},{"type":"Feature","geometry":{"type":"Point","coordinates":[2.303111,48.862059]},"properties":{"nom_voie":"QUAI D ORSAY","code_postal":"75007","arrondissement":7,"code_iris":"751072811","prix_m2_median":19295.45112781955,"revenu_median_uc":66870.0,"nb_logements_sociaux":0,"nb_transactions":4,"c1_effort":0.28855168428023853,"c2_logsoc":2.0,"c3_volume":1.6094379124341003,"itr_brut":0.9288120407546614,"itr_score":10.88,"itr_label":"Très accessible"}},{"type":"Feature","geometry":{"type":"Point","coordinates":[2.354455,48.85296]},"properties":{"nom_voie":"QUAI DE BOURBON","code_postal":"75004","arrondissement":4,"code_iris":"751041601","prix_m2_median":20021.404109589042,"revenu_median_uc":44050.0,"nb_logements_sociaux":28,"nb_transactions":6,"c1_effort":0.4545154167897626,"c2_logsoc":1.0344827586206897,"c3_volume":1.9459101490553132,"itr_brut":0.9149443059654877,"itr_score":10.71,"itr_label":"Très accessible"}},{"type":"Feature","geometry":{"type":"Point","coordinates":[2.285626,48.851545]},"properties":{"nom_voie":"QUAI DE GRENELLE","code_postal":"75015","arrondissement":15,"code_iris":"751155908","prix_m2_median":9475.670454545456,"revenu_median_uc":38590.0,"nb_logements_sociaux":37,"nb_transactions":12,"c1_effort":0.24554730382341167,"c2_logsoc":1.0263157894736843,"c3_volume":2.5649493574615367,"itr_brut":0.6463905149358586,"itr_score":7.33,"itr_label":"Très accessible"}},{"type":"Feature","geometry":{"type":"Point","coordinates":[2.367218,48.873108]},"properties":{"nom_voie":"QUAI DE JEMMAPES","code_postal":"75010","arrondissement":10,"code_iris":"751103901","prix_m2_median":10315.78947368421,"revenu_median_uc":31660.0,"nb_logements_sociaux":128,"nb_transactions":13,"c1_effort":0.3258303687202846,"c2_logsoc":1.0077519379844961,"c3_volume":2.6390573296152584,"itr_brut":0.8665507981529164,"itr_score":10.1,"itr_label":"Très accessible"}},{"type":"Feature","geometry":{"type":"Point","coordinates":[2.387386,48.889345]},"properties":{"nom_voie":"QUAI DE LA GARONNE","code_postal":"75019","arrondissement":19,"code_iris":"751197411","prix_m2_median":8506.862745098038,"revenu_median_uc":27130.0,"nb_logements_sociaux":88,"nb_transactions":3,"c1_effort":0.31355926078503643,"c2_logsoc":1.0112359550561798,"c3_volume":1.3862943611198906,"itr_brut":0.43956954111561297,"itr_score":4.73,"itr_label":"Très accessible"}},{"type":"Feature","geometry":{"type":"Point","coordinates":[2.376516,48.88581]},"properties":{"nom_voie":"QUAI DE LA LOIRE","code_postal":"75019","arrondissement":19,"code_iris":"751197304","prix_m2_median":8280.76923076923,"revenu_median_uc":25780.0,"nb_logements_sociaux":10,"nb_transactions":6,"c1_effort":0.3212090469654473,"c2_logsoc":1.0909090909090908,"c3_volume":1.9459101490553132,"itr_brut":0.6818661212273984,"itr_score":7.78,"itr_label":"Très accessible"}},{"type":"Feature","geometry":{"type":"Point","coordinates":[2.382358,48.88915]},"properties":{"nom_voie":"QUAI DE LA MARNE","code_postal":"75019","arrondissement":19,"code_iris":"751197313","prix_m2_median":8413.120347394542,"revenu_median_uc":25750.0,"nb_logements_sociaux":224,"nb_transactions":6,"c1_effort":0.3267231202871667,"c2_logsoc":1.0044444444444445,"c3_volume":1.9459101490553132,"itr_brut":0.638599497189808,"itr_score":7.23,"itr_label":"Très accessible"}},{"type":"Feature","geometry":{"type":"Point","coordinates":[2.364098,48.872921]},"properties":{"nom_voie":"QUAI DE VALMY","code_postal":"75010","arrondissement":10,"code_iris":"751103910","prix_m2_median":9686.274509803921,"revenu_median_uc":37970.0,"nb_logements_sociaux":151,"nb_transactions":8,"c1_effort":0.25510335817234453,"c2_logsoc":1.006578947368421,"c3_volume":2.1972245773362196,"itr_brut":0.5642069957605516,"itr_score":6.3,"itr_label":"Très accessible"}},{"type":"Feature","geometry":{"type":"Point","coordinates":[2.363587,48.848657]},"properties":{"nom_voie":"QUAI HENRI IV","code_postal":"75004","arrondissement":4,"code_iris":"751041501","prix_m2_median":12110.091743119267,"revenu_median_uc":33650.0,"nb_logements_sociaux":333,"nb_transactions":3,"c1_effort":0.3598838556647628,"c2_logsoc":1.0029940119760479,"c3_volume":1.3862943611198906,"itr_brut":0.5003986871905948,"itr_score":5.49,"itr_label":"Très accessible"}},{"type":"Feature","geometry":{"type":"Point","coordinates":[2.270457,48.843463]},"properties":{"nom_voie":"QUAI LOUIS BLERIOT","code_postal":"75016","arrondissement":16,"code_iris":"751166115","prix_m2_median":9807.692307692309,"revenu_median_uc":37750.0,"nb_logements_sociaux":184,"nb_transactions":12,"c1_effort":0.2598064187468161,"c2_logsoc":1.0054054054054054,"c3_volume":2.5649493574615367,"itr_brut":0.6699924165956722,"itr_score":7.63,"itr_label":"Très accessible"}},{"type":"Feature","geometry":{"type":"Point","coordinates":[2.345604,48.853163]},"properties":{"nom_voie":"QUAI SAINT MICHEL","code_postal":"75005","arrondissement":5,"code_iris":"751052003","prix_m2_median":14619.512195121952,"revenu_median_uc":33270.0,"nb_logements_sociaux":36,"nb_transactions":6,"c1_effort":0.43942026435593484,"c2_logsoc":1.027027027027027,"c3_volume":1.9459101490553132,"itr_brut":0.8781824156813439,"itr_score":10.25,"itr_label":"Très accessible"}},{"type":"Feature","geometry":{"type":"Point","coordinates":[2.331376,48.858414]},"properties":{"nom_voie":"QUAI VOLTAIRE","code_postal":"75007","arrondissement":7,"code_iris":"751072506","prix_m2_median":26464.285714285714,"revenu_median_uc":49130.0,"nb_logements_sociaux":18,"nb_transactions":3,"c1_effort":0.5386583699223634,"c2_logsoc":1.0526315789473684,"c3_volume":1.3862943611198906,"itr_brut":0.7860411166246362,"itr_score":9.09,"itr_label":"Très accessible"}},{"type":"Feature","geometry":{"type":"Point","coordinates":[2.270982,48.864413]},"properties":{"nom_voie":"RUE ADOLPHE YVON","code_postal":"75016","arrondissement":16,"code_iris":"751166305","prix_m2_median":13354.41478439425,"revenu_median_uc":41130.0,"nb_logements_sociaux":135,"nb_transactions":3,"c1_effort":0.32468793543385,"c2_logsoc":1.0073529411764706,"c3_volume":1.3862943611198906,"itr_brut":0.45342270882454366,"itr_score":4.9,"itr_label":"Très accessible"}},{"type":"Feature","geometry":{"type":"Point","coordinates":[2.355746,48.886109]},"properties":{"nom_voie":"RUE AFFRE","code_postal":"75018","arrondissement":18,"code_iris":"751187104","prix_m2_median":5729.166666666667,"revenu_median_uc":20120.0,"nb_logements_sociaux":184,"nb_transactions":3,"c1_effort":0.2847498343273691,"c2_logsoc":1.0054054054054054,"c3_volume":1.3862943611198906,"itr_brut":0.3968808577100595,"itr_score":4.19,"itr_label":"Très accessible"}},{"type":"Feature","geometry":{"type":"Point","coordinates":[2.273866,48.851391]},"properties":{"nom_voie":"RUE AGAR","code_postal":"75016","arrondissement":16,"code_iris":"751166127","prix_m2_median":7856.060606060606,"revenu_median_uc":40750.0,"nb_logements_sociaux":81,"nb_transactions":4,"c1_effort":0.19278676333891057,"c2_logsoc":1.0121951219512195,"c3_volume":1.6094379124341003,"itr_brut":0.3140622079566776,"itr_score":3.15,"itr_label":"Très accessible"}},{"type":"Feature","geometry":{"type":"Point","coordinates":[2.372197,48.825505]},"properties":{"nom_voie":"RUE ALBERT","code_postal":"75013","arrondissement":13,"code_iris":"751135012","prix_m2_median":8821.742021276596,"revenu_median_uc":24440.0,"nb_logements_sociaux":57,"nb_transactions":10,"c1_effort":0.36095507452031894,"c2_logsoc":1.0172413793103448,"c3_volume":2.3978952727983707,"itr_brut":0.8804554404518367,"itr_score":10.28,"itr_label":"Très accessible"}},{"type":"Feature","geometry":{"type":"Point","coordinates":[2.362612,48.869932]},"properties":{"nom_voie":"RUE ALBERT THOMAS","code_postal":"75010","arrondissement":10,"code_iris":"751103903","prix_m2_median":11440.384615384615,"revenu_median_uc":38920.0,"nb_logements_sociaux":47,"nb_transactions":3,"c1_effort":0.2939461617519171,"c2_logsoc":1.0208333333333333,"c3_volume":1.3862943611198906,"itr_brut":0.41598540456179955,"itr_score":4.43,"itr_label":"Très accessible"}},{"type":"Feature","geometry":{"type":"Point","coordinates":[2.392564,48.853724]},"properties":{"nom_voie":"RUE ALEXANDRE DUMAS","code_postal":"75011","arrondissement":11,"code_iris":"751114411","prix_m2_median":9584.21052631579,"revenu_median_uc":29950.0,"nb_logements_sociaux":134,"nb_transactions":10,"c1_effort":0.3200070292592918,"c2_logsoc":1.0074074074074073,"c3_volume":2.3978952727983707,"itr_brut":0.7730273674840176,"itr_score":8.92,"itr_label":"Très accessible"}},{"type":"Feature","geometry":{"type":"Point","coordinates":[2.398024,48.8549]},"properties":{"nom_voie":"RUE ALEXANDRE DUMAS","code_postal":"75020","arrondissement":20,"code_iris":"751208016","prix_m2_median":7738.0952380952385,"revenu_median_uc":24940.0,"nb_logements_sociaux":200,"nb_transactions":3,"c1_effort":0.31026845381296064,"c2_logsoc":1.0049751243781095,"c3_volume":1.3862943611198906,"itr_brut":0.4322633254068035,"itr_score":4.64,"itr_label":"Très accessible"}},{"type":"Feature","geometry":{"type":"Point","coordinates":[2.3657,48.879655]},