name;department;line_id;station_id;type;name_station;num_docks_available;cargo_docks;is_installed;date_installed;repair_station;inflator_station;video_monitoring;lockers;vae_refills;automatic_sensors_counting;automatic_video_counting;price;price_navigo;url_subscription;url_find_out_more;project_owner;id_contrat;zdcname;zdcld;municipality;insee_code;intercommunality;x_long;y_lat;Geo Point;Geo Shape;code_sav
Ablon;94.0;RER C;203;abri;;12;;true;2020;False;False;False;False;False;False;False;;NC;NC;;Département - Val-de-Marne;;Ablon;69554;Ablon-sur-Seine;94001;EPT Grand Orly Seine Bièvre;2.41919806365016;48.7256003758382;48.7256003758382, 2.41919806365016;"{""coordinates"": [2.41919806365, 48.7256003758], ""type"": ""Point""}";#N/A
Ablon;94.0;RER C;205;abri;;12;;true;2020;False;False;False;False;False;False;False;;NC;NC;;Département - Val-de-Marne;;Ablon;69554;Ablon-sur-Seine;94001;EPT Grand Orly Seine Bièvre;2.41917483627;48.7255656257;48.7255656257, 2.41917483627;"{""coordinates"": [2.41917483627, 48.7255656257], ""type"": ""Point""}";#N/A
Aeroport D'orly;91.0;METRO 14;1351;abri;;68;;true;2024;False;False;False;False;False;False;False;;NC;NC;;ADP;50.0;Aéroport d’Orly (Terminal 4);63284;Paray-Vieille-Poste;91479;EPT Grand Orly Seine Bièvre;2.3615311;48.7276932;48.7276932, 2.3615311;"{""coordinates"": [2.3615311, 48.7276932], ""type"": ""Point""}";#N/A
Aime Cesaire;93.0;METRO 12;754;abri;;60;;true;2025;False;False;False;False;False;False;False;;NC;NC;;RATP;65.0;Aimé Césaire;72491;Aubervilliers;93001;EPT Plaine Commune;2.37792119;48.90812668;48.90812668, 2.37792119;"{""coordinates"": [2.37792119, 48.90812668], ""type"": ""Point""}";#N/A
Amedee Gordini;91.0;TRAM 12;618;consigne;Amedee Gordini - Tram12;40;;true;2025;True;True;True;False;True;True;False;30 €;0 €;https://mon-espace.iledefrance-mobilites.fr/souscription-service-parking-velos/618;https://www.iledefrance-mobilites.fr/services-mobilite-alternative/parkings-velos;IDFM;25.0;Amédée Gordini;60856;Viry-Châtillon;91687;EPT Grand Orly Seine Bièvre;2.37315584607523;48.6589931889161;48.6589931889161, 2.37315584607523;"{""coordinates"": [2.37315584608, 48.6589931889], ""type"": ""Point""}";518
Arboretum;93.0;TRAM 4;1010;abri;;12;;true - non labellisé;2021;False;False;False;False;False;False;False;;NC;NC;;IDFM;;Arboretum;478648;Montfermeil;93047;EPT Grand Paris Grand Est;2.562723;48.897947;48.897947, 2.562723;"{""coordinates"": [2.562723, 48.897947], ""type"": ""Point""}";#N/A
Aulnay-sous-bois;93.0;RER B,TRAIN K,TRAM 4;179;abri;;29;;true;2021;False;False;False;False;False;False;False;;NC;NC;;Ville d'Aulnay-sous-Bois;52.0;Aulnay-sous-Bois;72646;Aulnay-sous-Bois;93005;EPT Paris Terres d'Envol;2.49496;48.93151;48.93151, 2.49496;"{""coordinates"": [2.49496, 48.93151], ""type"": ""Point""}";#N/A
Bagneux - Lucie Aubrac;92.0;METRO 4;279;abri;;58;;true;2024;False;False;False;False;False;False;False;;NC;NC;;EPT - Vallée Sud Grand Paris;;Bagneux - Lucie Aubrac;483315;Bagneux;92007;EPT Vallée Sud Grand Paris;2.31817248;48.8040255575;48.8040255575, 2.31817248;"{""coordinates"": [2.31817248, 48.8040255575], ""type"": ""Point""}";#N/A
Ballancourt;91.0;RER D;1111;consigne;Ballancourt;15;;true;2024;True;True;True;False;False;False;False;30 €;0 €;https://mon-espace.iledefrance-mobilites.fr/souscription-service-parking-velos/1111;https://www.iledefrance-mobilites.fr/services-mobilite-alternative/parkings-velos;SNCF;68.0;Ballancourt;59825;Ballancourt-sur-Essonne;91045;CC du Val d'Essonne;2.3714054811997;48.531902400112;48.531902400112, 2.3714054811997;"{""coordinates"": [2.3714054812, 48.5319024001], ""type"": ""Point""}";548
Berault;94.0;METRO 1;72;abri;;12;;true;2023;False;False;False;False;False;False;False;;NC;NC;;RATP;65.0;Bérault;71650;Vincennes;94080;EPT Paris Est Marne et Bois;2.43104932148;48.8452036747;48.8452036747, 2.43104932148;"{""coordinates"": [2.43104932148, 48.8452036747], ""type"": ""Point""}";#N/A
Bessancourt;95.0;TRAIN H;284;abri;;20;0;true;2019;True;True;True;False;False;False;False;;NC;NC;;CA - Val Parisis;58.0;Bessancourt;66672;Bessancourt;95060;CA Val Parisis;2.21024650664;49.0353112661;49.0353112661, 2.21024650664;"{""coordinates"": [2.21024650664, 49.0353112661], ""type"": ""Point""}";#N/A
Bois Briard;91.0;TRAM 12;622;abri;;20;;true;2024;True;True;False;False;False;False;False;;NC;NC;;IDFM;23.0;Bois Briard;60387;Évry-Courcouronnes;91228;CA Grand Paris Sud Seine Essonne Sénart;2.41629997489679;48.6223119754651;48.6223119754651, 2.41629997489679;"{""coordinates"": [2.4162999749, 48.6223119755], ""type"": ""Point""}";#N/A
Bois-le-roi;77.0;TRAIN R;631;abri;;72;;true;2024;True;True;False;False;False;False;False;;NC;NC;https://www.iledefrance-mobilites.fr/services-mobilite-alternative/parkings-velos;SNCF;68.0;Bois-le-Roi;61727;Bois-le-Roi;77037;CA du Pays de Fontainebleau;2.691317;48.475701;48.475701, 2.691317;"{""coordinates"": [2.691317, 48.475701], ""type"": ""Point""}";#N/A
Boissy-saint-leger;94.0;RER A;75;abri;;20;;true;2016;False;False;True;False;False;False;False;;NC;NC;;RATP;65.0;Boissy-Saint-Léger;72881;Boissy-Saint-Léger;94004;EPT Grand Paris Sud Est Avenir;2.50535865371;48.7527253311999;48.7527253311999, 2.50535865371;"{""coordinates"": [2.50535865371, 48.7527253312], ""type"": ""Point""}";#N/A
Bourg-la-reine;92.0;RER B;566;consigne;Bourg-la-reine;154;;true;2020;True;True;False;False;True;False;False;30 €;0 €;https://abris-velos.valleesud.fr;;EPT - Vallée Sud Grand Paris;61.0;Bourg-la-Reine;70033;Bourg-la-Reine;92014;EPT Vallée Sud Grand Paris;2.312568;48.779813;48.779813, 2.312568;"{""coordinates"": [2.312568, 48.779813], ""type"": ""Point""}";511
Boutigny-sur-essonne;91.0;RER D;921;consigne;Boutigny-sur-essonne;10;;true;2024;False;True;True;False;False;False;False;30 €;0 €;https://mon-espace.iledefrance-mobilites.fr/souscription-service-parking-velos/921;https://www.iledefrance-mobilites.fr/services-mobilite-alternative/parkings-velos;SNCF;68.0;Boutigny;59565;Boutigny-sur-Essonne;91099;CC des Deux Vallées;2.376494809756;48.434769780306;48.434769780306, 2.376494809756;"{""coordinates"": [2.37649480976, 48.4347697803], ""type"": ""Point""}";548
Bry-sur-marne;94.0;RER A;154;abri;;28;;true;2023;False;False;False;False;False;False;False;;NC;NC;;RATP;65.0;Bry-sur-Marne;73166;Bry-sur-Marne;94015;EPT Paris Est Marne et Bois;2.52614061545;48.8444129837;48.8444129837, 2.52614061545;"{""coordinates"": [2.52614061545, 48.8444129837], ""type"": ""Point""}";#N/A
Buno-gironville;91.0;RER D;923;abri;;20;;true;2024;True;False;False;False;False;False;False;;NC;NC;https://www.iledefrance-mobilites.fr/services-mobilite-alternative/parkings-velos;SNCF;68.0;Buno - Gironville;59447;Buno-Bonnevaux;91121;CC des Deux Vallées;2.387014;48.36996;48.36996, 2.387014;"{""coordinates"": [2.387014, 48.36996], ""type"": ""Point""}";#N/A
Bures-sur-yvette;91.0;RER B;815;abri;;14;;true;2021;False;False;False;False;False;False;False;;NC;NC;;IDFM;26.0;Bures-sur-Yvette;62851;Bures-sur-Yvette;91122;CA Paris Saclay;2.162917;48.69569;48.69569, 2.162917;"{""coordinates"": [2.162917, 48.69569], ""type"": ""Point""}";#N/A
Bussy-saint-georges;77.0;RER A;422;consigne;Bussy-saint-georges 3;80;;true;2024;True;True;False;False;True;False;False;30 €;0 €;https://portail.cykleo.fr/park_marne_et_gondoire;;CA - Marne et Gondoire;55.0;Bussy-Saint-Georges;68105;Bussy-Saint-Georges;77058;CA Marne et Gondoire;2.712296;48.837032;48.837032, 2.712296;"{""coordinates"": [2.712296, 48.837032], ""type"": ""Point""}";510
Bussy-saint-georges;77.0;RER A;132;consigne;Bussy-saint-georges 1;80;;true;2022;False;True;False;False;True;False;False;30 €;0 €;https://portail.cykleo.fr/park_marne_et_gondoire;;CA - Marne et Gondoire;55.0;Bussy-Saint-Georges;68105;Bussy-Saint-Georges;77058;CA Marne et Gondoire;2.709275;48.836697;48.836697, 2.709275;"{""coordinates"": [2.709275, 48.836697], ""type"": ""Point""}";510
Bussy-saint-georges;77.0;RER A;1031;abri;;48;;true;2023;False;False;False;False;False;False;False;;NC;NC;;RATP;65.0;Bussy-Saint-Georges;68105;Bussy-Saint-Georges;77058;CA Marne et Gondoire;2.7102647;48.836913;48.836913, 2.7102647;"{""coordinates"": [2.7102647, 48.836913], ""type"": ""Point""}";#N/A
Bussy-saint-georges;77.0;RER A;421;abri;;8;;true;2024;False;False;False;False;False;False;False;;NC;NC;;CA - Marne et Gondoire;55.0;Bussy-Saint-Georges;68105;Bussy-Saint-Georges;77058;CA Marne et Gondoire;2.712285;48.83702;48.83702, 2.712285;"{""coordinates"": [2.712285, 48.83702], ""type"": ""Point""}";#N/A
Chanteloup-les-vignes;78.0;TRAIN J;60;abri;;20;;true;2015;False;False;False;False;False;False;False;;NC;NC;;CU - Grand Paris Seine et Oise;;Chanteloup-les-Vignes;65443;Chanteloup-les-Vignes;78138;CU Grand Paris Seine et Oise;2.02785813687;48.9705255455999;48.9705255455999, 2.02785813687;"{""coordinates"": [2.02785813687, 48.9705255456], ""type"": ""Point""}";#N/A
Chaville - Velizy;78.0;RER C;749;abri;;16;;true;2025;False;False;False;False;False;False;False;;NC;NC;;IDFM;27.0;Chaville - Vélizy;69487;Viroflay;78686;CA Versailles Grand Parc;2.185426;48.799499;48.799499, 2.185426;"{""coordinates"": [2.185426, 48.799499], ""type"": ""Point""}";#N/A
Chaville Rive Gauche;92.0;TRAIN N;875;abri;;36;;true;2025;False;False;False;False;False;False;False;;NC;NC;https://www.iledefrance-mobilites.fr/services-mobilite-alternative/parkings-velos;SNCF;68.0;Chaville Rive Gauche;73718;Chaville;92022;EPT Grand Paris Seine Ouest;2.188347;48.804596;48.804596, 2.188347;"{""coordinates"": [2.188347, 48.804596], ""type"": ""Point""}";#N/A
Chilly-mazarin;91.0;TRAM 12;880;consigne;Chilly-mazarin;21;;true;2024;True;True;True;False;False;False;False;30 €;0 €;https://mon-espace.iledefrance-mobilites.fr/souscription-service-parking-velos/880;https://www.iledefrance-mobilites.fr/services-mobilite-alternative/parkings-velos;SNCF;68.0;Chilly-Mazarin;62939;Chilly-Mazarin;91161;CA Paris Saclay;2.3087499696609;48.700311194571;48.700311194571, 2.3087499696609;"{""coordinates"": [2.30874996966, 48.7003111946], ""type"": ""Point""}";548
Choisy-le-roi;94.0;RER C;88;abri;;30;;true;2017;False;False;False;False;False;False;False;;NC;NC;;Département - Val-de-Marne;;Choisy-le-Roi;69852;Choisy-le-Roi;94022;EPT Grand Orly Seine Bièvre;2.4106367324;48.7643927441;48.7643927441, 2.4106367324;"{""coordinates"": [2.4106367324, 48.7643927441], ""type"": ""Point""}";#N/A
Clichy - Montfermeil;93.0;TRAM 4;285;abri;;24;;true - non labellisé;2021;False;False;False;False;False;False;False;;NC;NC;;IDFM;;Clichy - Montfermeil;477278;Clichy-sous-Bois;93014;EPT Grand Paris Grand Est;2.554349;48.904478;48.904478, 2.554349;"{""coordinates"": [2.554349, 48.904478], ""type"": ""Point""}";#N/A
College Albert Camus;91.0;TZEN 4;1486;abri;;6;;true;2025;False;False;False;False;False;False;False;;NC;NC;;IDFM;23.0;NC;0;;#N/A;CA Versailles Grand Parc;2.399955;48.652035;48.652035, 2.399955;"{""coordinates"": [2.399955, 48.652035], ""type"": ""Point""}";#N/A
Conflans-sainte-honorine;78.0;TRAIN J;225;consigne;Conflans-sainte-honorine 2;40;;true;2019;False;False;True;False;False;False;False;30 €;0 €;https://mon-espace.iledefrance-mobilites.fr/souscription-service-parking-velos/225;https://www.iledefrance-mobilites.fr/services-mobilite-alternative/parkings-velos;SNCF;68.0;Conflans Sainte-Honorine;66095;Conflans-Sainte-Honorine;78172;CU Grand Paris Seine et Oise;2.0993698170656;48.997566889635;48.997566889635, 2.0993698170656;"{""coordinates"": [2.09936981707, 48.9975668896], ""type"": ""Point""}";548
Corbeil-essonnes Zola;91.0;RER D,TZEN 4;1495;abri;;24;;true;2025;False;False;False;False;False;False;False;;NC;NC;;IDFM;23.0;Corbeil-Essonnes;60309;Corbeil-Essonnes;91174;CA Grand Paris Sud Seine Essonne Sénart;2.471803;48.613378;48.613378, 2.471803;"{""coordinates"": [2.471803, 48.613378], ""type"": ""Point""}";#N/A
Cormeilles-en-parisis;95.0;TRAIN J;156;abri;;20;0;true;2016;True;True;True;False;False;False;False;;NC;NC;;CA - Val Parisis;58.0;Cormeilles-en-Parisis;65399;Cormeilles-en-Parisis;95176;CA Val Parisis;2.19275209401;48.9678841141999;48.9678841141999, 2.19275209401;"{""coordinates"": [2.19275209401, 48.9678841142], ""type"": ""Point""}";#N/A
Coteaux De L'orge;91.0;TRAM 12;617;abri;;20;;true;2024;False;False;False;False;False;False;False;;NC;NC;;IDFM;25.0;COTEAUX DE L'ORGE;486996;Morsang-sur-Orge;91434;CA Cœur d'Essonne Agglomération;2.362111;48.665402;48.665402, 2.362111;"{""coordinates"": [2.362111, 48.665402], ""type"": ""Point""}";#N/A
Coteaux-beauclair;93.0;METRO 11;1040;abri;;30;;true;2024;False;False;False;False;False;False;False;;NC;NC;;RATP;65.0;Coteaux Beauclair;490783;Rosny-sous-Bois;93064;EPT Est Ensemble;2.4674089;48.8821901;48.8821901, 2.4674089;"{""coordinates"": [2.4674089, 48.8821901], ""type"": ""Point""}";#N/A
Creteil-pointe Du Lac;94.0;METRO 8;930;consigne;Creteil-pointe Du Lac;80;;true;2025;False;False;False;False;False;True;False;30 €;0 €;https://ratp.parkings-velos.iledefrance-mobilites.fr/;;RATP;65.0;Pointe du Lac;69884;Créteil;94028;EPT Grand Paris Sud Est Avenir;2.463299;48.76909;48.76909, 2.463299;"{""coordinates"": [2.463299, 48.76909], ""type"": ""Point""}";526
Creteil-universite;94.0;METRO 8;1047;consigne;Creteil-universite - Denfert-rochereau;116;4;true;2025;False;False;False;False;False;False;True;30 €;0 €;https://ratp.parkings-velos.iledefrance-mobilites.fr/;;RATP;65.0;Créteil - Université;70172;Créteil;94028;EPT Grand Paris Sud Est Avenir;2.4513559;48.7906572;48.7906572, 2.4513559;"{""coordinates"": [2.4513559, 48.7906572], ""type"": ""Point""}";526
Creteil-universite;94.0;METRO 8;1044;abri;;12;;true;2020;False;False;False;False;False;False;False;;NC;NC;;RATP;65.0;Créteil - Université;70172;Créteil;94028;EPT Grand Paris Sud Est Avenir;2.4511822;48.7906885;48.7906885, 2.4511822;"{""coordinates"": [2.4511822, 48.7906885], ""type"": ""Point""}";#N/A
Creteil-universite;94.0;METRO 8;1408;abri;;8;;true;2025;False;False;False;False;False;False;False;30 €;0 €;https://ratp-parking-velos.iledefrance-mobilites.fr/;;RATP;65.0;Créteil - Université;70172;Créteil;94028;EPT Grand Paris Sud Est Avenir;2.4504526;48.7892265;48.7892265, 2.4504526;"{""coordinates"": [2.4504526, 48.7892265], ""type"": ""Point""}";#N/A
Dourdan;91.0;RER C;1166;abri;;22;2;true;2025;False;False;False;False;False;False;False;;NC;NC;https://www.iledefrance-mobilites.fr/services-mobilite-alternative/parkings-velos;SNCF;68.0;Dourdan;59836;Dourdan;91200;CC Le Dourdannais en Hurepoix;2.0102091;48.5333613;48.5333613, 2.0102091;"{""coordinates"": [2.0102091, 48.5333613], ""type"": ""Point""}";#N/A
Drancy;93.0;RER B;227;abri;;6;;true;2021;False;False;False;False;False;False;False;;NC;NC;https://www.iledefrance-mobilites.fr/services-mobilite-alternative/parkings-velos;SNCF;68.0;Drancy;72652;Drancy;93029;EPT Paris Terres d'Envol;2.45476634734;48.9327062122;48.9327062122, 2.45476634734;"{""coordinates"": [2.45476634734, 48.9327062122], ""type"": ""Point""}";#N/A
Epinay-sur-orge;91.0;RER C;645;consigne;Epinay-sur-orge - Rer C;16;;true;2020;False;False;True;False;False;False;False;30 €;0 €;https://mon-espace.iledefrance-mobilites.fr/souscription-service-parking-velos/645;https://www.iledefrance-mobilites.fr/services-mobilite-alternative/parkings-velos;SNCF;68.0;Épinay-sur-Orge;60915;Épinay-sur-Orge;91216;CA Paris Saclay;2.3312821520442;48.669354314063;48.669354314063, 2.3312821520442;"{""coordinates"": [2.33128215204, 48.6693543141], ""type"": ""Point""}";548
Epinay-sur-seine;93.0;RER C,TRAM 8,TRAM 11;1018;abri;;20;;true;2023;False;False;True;False;False;False;False;;NC;NC;https://www.iledefrance-mobilites.fr/services-mobilite-alternative/parkings-velos;SNCF;68.0;Épinay-sur-Seine;72383;Épinay-sur-Seine;93031;EPT Plaine Commune;2.30234039642;48.9533965028999;48.9533965028999, 2.30234039642;"{""coordinates"": [2.30234039642, 48.9533965029], ""type"": ""Point""}";#N/A
Étampes;91.0;RER C;881;abri;;8;;true;2023;False;False;False;False;False;False;False;;NC;NC;https://www.iledefrance-mobilites.fr/services-mobilite-alternative/parkings-velos;SNCF;68.0;Étampes;478855;Étampes;91223;CA Étampois Sud-Essonne;2.160151;48.43792;48.43792, 2.160151;"{""coordinates"": [2.160151, 48.43792], ""type"": ""Point""}";#N/A
Fontainebleau-avon;77.0;TRAIN R;374;consigne;Fontainebleau-avon - Cargos;23;3;true;2025;True;True;False;True;False;False;True;30 €;0 €;https://idf-mobilites.fr/pays-de-fontainebleau-parking-velos;;CA - Pays de Fontainebleau;57.0;Fontainebleau - Avon;61579;Avon;77014;CA du Pays de Fontainebleau;2.725668326;48.416806597;48.416806597, 2.725668326;"{""coordinates"": [2.725668326, 48.416806597], ""type"": ""Point""}";511
Fontenay-aux-roses;92.0;RER B;796;abri;;20;;true;2022;False;False;False;False;False;False;False;;NC;NC;;EPT - Vallée Sud Grand Paris;;Fontenay-aux-Roses;70133;Fontenay-aux-Roses;92032;EPT Vallée Sud Grand Paris;2.291858;48.787491;48.787491, 2.291858;"{""coordinates"": [2.291858, 48.787491], ""type"": ""Point""}";#N/A
Fontenay-aux-roses;92.0;RER B;593;consigne;Fontenay-aux-roses - Sud;20;;true;2022;False;False;False;False;False;False;False;30 €;0 €;https://abris-velos.valleesud.fr;;EPT - Vallée Sud Grand Paris;61.0;Fontenay-aux-Roses;70133;Fontenay-aux-Roses;92032;EPT Vallée Sud Grand Paris;2.292708;48.787498;48.787498, 2.292708;"{""coordinates"": [2.292708, 48.787498], ""type"": ""Point""}";511
Fontenay-aux-roses;92.0;RER B;929;consigne;Fontenay-aux-roses - Nord;20;;true;2024;True;True;False;False;True;False;False;30 €;0 €;https://abris-velos.valleesud.fr;;EPT - Vallée Sud Grand Paris;61.0;Fontenay-aux-Roses;70133;Fontenay-aux-Roses;92032;EPT Vallée Sud Grand Paris;2.291167;48.787639;48.787639, 2.291167;"{""coordinates"": [2.291167, 48.787639], ""type"": ""Point""}";511
Fontenay-aux-roses;92.0;RER B;928;abri;;12;;true;2024;False;False;False;False;False;False;False;;NC;NC;;EPT - Vallée Sud Grand Paris;;Fontenay-aux-Roses;70133;Fontenay-aux-Roses;92032;EPT Vallée Sud Grand Paris;2.291222;48.787639;48.787639, 2.291222;"{""coordinates"": [2.291222, 48.787639], ""type"": ""Point""}";#N/A
Fontenay-le-fleury;78.0;TRAIN N;883;consigne;Fontenay-le-fleury;72;;true;2025;False;False;False;False;False;False;False;30 €;0 €;https://mon-espace.iledefrance-mobilites.fr/souscription-service-parking-velos/883;https://www.iledefrance-mobilites.fr/services-mobilite-alternative/parkings-velos;SNCF;68.0;Fontenay-le-Fleury;63999;Fontenay-le-Fleury;78242;CA Versailles Grand Parc;2.0404225948247;48.807526821441;48.807526821441, 2.0404225948247;"{""coordinates"": [2.04042259482, 48.8075268214], ""type"": ""Point""}";548
Fontenay-le-fleury;78.0;TRAIN N;884;abri;;72;;true;2025;False;False;False;False;False;False;False;;NC;NC;;SNCF;68.0;Fontenay-le-Fleury;63999;Fontenay-le-Fleury;78242;CA Versailles Grand Parc;2.040525;48.807525;48.807525, 2.040525;"{""coordinates"": [2.040525, 48.807525], ""type"": ""Point""}";#N/A
Fontenay-sous-bois;94.0;RER A;14;abri;;20;;true;2015;False;False;False;False;False;False;False;;NC;NC;;RATP;65.0;Fontenay-sous-Bois;71630;Fontenay-sous-Bois;94033;EPT Paris Est Marne et Bois;2.46284250436981;48.8439245254668;48.8439245254668, 2.46284250436981;"{""coordinates"": [2.46284250437, 48.8439245255], ""type"": ""Point""}";#N/A
Saint-ouen-l'aumone;95.0;RER C,TRAIN H;660;consigne;Saint-ouen-l'aumone;18;;true;2020;False;False;False;False;False;False;False;30 €;NC;https://portail.cykleo.fr/veligo_cergypontoise;;CA - Cergy Pontoise;53.0;Saint-Ouen-l'Aumône;66803;Saint-Ouen-l'Aumône;95572;CA de Cergy-Pontoise;2.104306;49.045167;49.045167, 2.104306;"{""coordinates"": [2.104306, 49.045167], ""type"": ""Point""}";523
Front Populaire;93.0;METRO 12;554;abri;;60;;true;2025;False;False;False;False;False;False;False;;NC;NC;;RATP;65.0;Front Populaire;74041;Aubervilliers;93001;EPT Plaine Commune;2.3668469;48.9067909;48.9067909, 2.3668469;"{""coordinates"": [2.3668469, 48.9067909], ""type"": ""Point""}";#N/A
Garibaldi;93.0;METRO 13;833;abri;;12;;true;2023;False;False;False;False;False;False;False;;NC;NC;;RATP;65.0;Garibaldi;72128;Saint-Ouen-sur-Seine;93070;EPT Plaine Commune;2.3319435;48.9063719;48.9063719, 2.3319435;"{""coordinates"": [2.3319435, 48.9063719], ""type"": ""Point""}";#N/A
Gif-sur-yvette;91.0;RER B;1425;abri;;12;;true;2023;False;False;False;False;False;False;False;;NC;NC;;RATP;65.0;Gif-Sur-Yvette;62890;Gif-sur-Yvette;91272;CA Paris Saclay;2.13738146320198;48.6980804586531;48.6980804586531, 2.13738146320198;"{""coordinates"": [2.1373814632, 48.6980804587], ""type"": ""Point""}";#N/A
Gretz-armainvilliers;77.0;RER E;336;consigne;Gretz-armainvilliers;12;;true;2019;False;False;False;False;False;True;False;30 €;0 €;https://mon-espace.iledefrance-mobilites.fr/souscription-service-parking-velos/336;https://www.iledefrance-mobilites.fr/services-mobilite-alternative/parkings-velos;SNCF;68.0;Gretz-Armainvilliers;67658;Gretz-Armainvilliers;77215;CC Les Portes Briardes entre Villes et Forêts;2.7285480464237;48.745788139902;48.745788139902, 2.7285480464237;"{""coordinates"": [2.72854804642, 48.7457881399], ""type"": ""Point""}";548
Grigny Cœur De Ville;91.0;TZEN 4;1497;abri;;12;;true;2025;False;False;False;False;False;False;False;;NC;NC;;IDFM;23.0;NC;0;;#N/A;CA Grand Paris Sud Seine Essonne Sénart;2.391281;48.651822;48.651822, 2.391281;"{""coordinates"": [2.391281, 48.651822], ""type"": ""Point""}";#N/A
Grigny-centre;91.0;RER D;18;consigne;Grigny-centre;40;;true;2016;False;False;True;False;False;False;False;30 €;0 €;https://mon-espace.iledefrance-mobilites.fr/souscription-service-parking-velos/18;https://www.iledefrance-mobilites.fr/services-mobilite-alternative/parkings-velos;SNCF;68.0;Grigny Centre;60797;Grigny;91286;CA Grand Paris Sud Seine Essonne Sénart;2.3955976959232;48.653297254351;48.653297254351, 2.3955976959232;"{""coordinates"": [2.39559769592, 48.6532972544], ""type"": ""Point""}";548
Gros Noyer Saint Prix;95.0;TRAIN H;821;abri;;34;0;true;2023;False;False;False;False;False;False;False;;NC;NC;;CA - Val Parisis;58.0;Gros Noyer Saint-Prix;66063;Ermont;95219;CA Val Parisis;2.25872349596446;48.9971632412277;48.9971632412277, 2.25872349596446;"{""coordinates"": [2.25872349596, 48.9971632412], ""type"": ""Point""}";#N/A
Groslay;95.0;TRAIN H;1059;consigne;Groslay;40;;true;2024;True;True;True;False;True;False;False;30 €;0 €;https://mon-espace.iledefrance-mobilites.fr/souscription-service-parking-velos/1059;https://www.iledefrance-mobilites.fr/services-mobilite-alternative/parkings-velos;SNCF;68.0;Groslay;65749;Groslay;95288;CA Plaine Vallée;2.3530711148785;48.984281803065;48.984281803065, 2.3530711148785;"{""coordinates"": [2.35307111488, 48.9842818031], ""type"": ""Point""}";548
Groslay;95.0;TRAIN H;1060;abri;;35;;true;2024;False;False;True;False;False;False;False;;NC;NC;https://www.iledefrance-mobilites.fr/services-mobilite-alternative/parkings-velos;SNCF;68.0;Groslay;65749;Groslay;95288;CA Plaine Vallée;2.353229;48.984549;48.984549, 2.353229;"{""coordinates"": [2.353229, 48.984549], ""type"": ""Point""}";#N/A
Groslay;95.0;TRAIN H;1061;abri;;20;;true;2024;False;False;True;False;False;False;False;;NC;NC;https://www.iledefrance-mobilites.fr/services-mobilite-alternative/parkings-velos;SNCF;68.0;Groslay;65749;Groslay;95288;CA Plaine Vallée;2.353065;48.9842715;48.9842715, 2.353065;"{""coordinates"": [2.353065, 48.9842715], ""type"": ""Point""}";#N/A
Herblay;95.0;TRAIN J;661;consigne;Herblay;82;0;true;2021;False;False;True;False;False;False;False;30 €;0 €;https://velo.valparisis.fr/;;CA - Val Parisis;58.0;Herblay;65897;Herblay-sur-Seine;95306;CA Val Parisis;2.161359;48.990785;48.990785, 2.161359;"{""coordinates"": [2.161359, 48.990785], ""type"": ""Point""}";522
Hopital Beclere;92.0;TRAM 6,TRAM 10;339;consigne;Hopital Beclere;20;;true;2023;False;False;False;False;False;False;False;30 €;0 €;https://abris-velos.valleesud.fr;;EPT - Vallée Sud Grand Paris;61.0;Hôpital Béclère;423879;Clamart;92023;EPT Vallée Sud Grand Paris;2.25320937660121;48.788263408626;48.788263408626, 2.25320937660121;"{""coordinates"": [2.2532093766, 48.7882634086], ""type"": ""Point""}";511
Hôpital De Montfermeil;93.0;TRAM 4;338;abri;;28;;true - non labellisé;2021;False;False;False;False;False;False;False;;NC;NC;;IDFM;;Hôpital de Montfermeil;73329;Montfermeil;93047;EPT Grand Paris Grand Est;2.571072;48.900719;48.900719, 2.571072;"{""coordinates"": [2.571072, 48.900719], ""type"": ""Point""}";#N/A
Igny;91.0;RER C,TRAIN V;19;consigne;Igny;10;;true;2026;True;True;True;False;True;True;False;30 €;0 €;https://mon-espace.iledefrance-mobilites.fr/souscription-service-parking-velos/19;https://www.iledefrance-mobilites.fr/services-mobilite-alternative/parkings-velos;IDFM;26.0;Igny;63352;Igny;91312;CA Paris Saclay;2.2311849085266;48.740220969142;48.740220969142, 2.2311849085266;"{""coordinates"": [2.23118490853, 48.7402209691], ""type"": ""Point""}";520
Joinville-le-pont;94.0;RER A;1196;abri;;34;;true;2025;False;False;False;False;False;False;False;;NC;NC;;RATP;65.0;Joinville-le-Pont;70640;Joinville-le-Pont;94042;EPT Paris Est Marne et Bois;2.4639426;48.8201822;48.8201822, 2.4639426;"{""coordinates"": [2.4639426, 48.8201822], ""type"": ""Point""}";#N/A
Juziers;78.0;TRAIN J;624;abri;;10;;true;2021;False;False;False;False;False;False;False;;NC;https://idf-mobilites.fr/mantois-parking-velos;;IDFM;35.0;Juziers;65988;Juziers;78327;CU Grand Paris Seine et Oise;1.845908;48.9924521;48.9924521, 1.845908;"{""coordinates"": [1.845908, 48.9924521], ""type"": ""Point""}";#N/A
Juziers;78.0;TRAIN J;348;consigne;Juziers;5;;true - non labellisé;2021;False;False;False;False;False;False;False;;NC;NC;;CU - Grand Paris Seine et Oise;;Juziers;65988;Juziers;78327;CU Grand Paris Seine et Oise;1.84513444832;48.9922412479999;48.9922412479999, 1.84513444832;"{""coordinates"": [1.84513444832, 48.992241248], ""type"": ""Point""}";#N/A
La Celle-saint-cloud;78.0;TRAIN L;984;consigne;La Celle-saint-cloud - Place Jean Mermoz;20;;true;2025;True;True;True;False;False;False;False;30 €;0 €;https://mon-espace.iledefrance-mobilites.fr/souscription-service-parking-velos/984;https://www.iledefrance-mobilites.fr/services-mobilite-alternative/parkings-velos;SNCF;68.0;La Celle-Saint-Cloud;64251;La Celle-Saint-Cloud;78126;CA Versailles Grand Parc;2.138277;48.842413;48.842413, 2.138277;"{""coordinates"": [2.138277, 48.842413], ""type"": ""Point""}";548
La Ferte-sous-jouarre;77.0;TRAIN P;1389;abri;;10;;true;2025;False;False;False;False;False;False;False;;NC;NC;;IDFM;12.0;La Ferté-sous-Jouarre;68918;La Ferté-sous-Jouarre;77183;CA Coulommiers Pays de Brie;3.126232;48.950859;48.950859, 3.126232;"{""coordinates"": [3.126232, 48.950859], ""type"": ""Point""}";#N/A
La Hacquiniere;91.0;RER B;99;abri;;10;0;true;2025;False;False;False;False;False;False;False;;NC;NC;;IDFM;26.0;La Hacquinière;62825;Bures-sur-Yvette;91122;CA Paris Saclay;2.153045;48.694838;48.694838, 2.153045;"{""coordinates"": [2.153045, 48.694838], ""type"": ""Point""}";#N/A
La Plaine-stade De France;93.0;RER B;157;abri;;28;;true;2017;False;False;False;False;False;False;False;;NC;NC;https://www.iledefrance-mobilites.fr/services-mobilite-alternative/parkings-velos;SNCF;68.0;La Plaine Stade de France;72211;Saint-Denis;93066;EPT Plaine Commune;2.362248;48.918431;48.918431, 2.362248;"{""coordinates"": [2.362248, 48.918431], ""type"": ""Point""}";#N/A
La Verriere;78.0;TRAIN N,TRAIN U;715;abri;;46;;true;2024;False;False;False;False;False;False;False;;NC;NC;;CA - Saint-Quentin-en-Yvelines;;La Verrière;63426;La Verrière;78644;CA Saint-Quentin-en-Yvelines;1.942778;48.755278;48.755278, 1.942778;"{""coordinates"": [1.942778, 48.755278], ""type"": ""Point""}";#N/A
Lagny-thorigny;77.0;TRAIN P;1063;abri;;12;;true;2023;False;False;False;False;False;False;False;;NC;NC;https://www.iledefrance-mobilites.fr/services-mobilite-alternative/parkings-velos;SNCF;68.0;Lagny - Thorigny;68494;Lagny-sur-Marne;77243;CA Marne et Gondoire;2.703829;48.881881;48.881881, 2.703829;"{""coordinates"": [2.703829, 48.881881], ""type"": ""Point""}";#N/A
Laplace;94.0;RER B;732;consigne;Laplace;20;;true;2025;False;False;False;False;False;False;False;30 €;0 €;https://ratp.parkings-velos.iledefrance-mobilites.fr/;;RATP;65.0;Laplace;70427;Arcueil;94003;EPT Grand Orly Seine Bièvre;2.332836;48.807778;48.807778, 2.332836;"{""coordinates"": [2.332836, 48.807778], ""type"": ""Point""}";526
Le Bras De Fer;91.0;RER D,TZEN 4;942;abri;;10;;true - non labellisé non financé;2024;False;False;False;False;False;False;False;;NC;NC;;GPS;;Le Bras de Fer;60422;Évry-Courcouronnes;91228;CA Grand Paris Sud Seine Essonne Sénart;2.45091624472062;48.6229325728295;48.6229325728295, 2.45091624472062;"{""coordinates"": [2.45091624472, 48.6229325728], ""type"": ""Point""}";#N/A
Le Bras De Fer;91.0;RER D,TZEN 4;959;abri;;10;;true - non labellisé non financé;2025;False;False;False;False;False;False;False;;NC;NC;;GPS;;Le Bras de Fer;60422;Évry-Courcouronnes;91228;CA Grand Paris Sud Seine Essonne Sénart;2.45049000744023;48.6224466031331;48.6224466031331, 2.45049000744023;"{""coordinates"": [2.45049000744, 48.6224466031], ""type"": ""Point""}";#N/A
Le Guichet;91.0;RER B;741;abri;;16;;true;2021;False;False;False;False;False;False;False;;NC;NC;;IDFM;26.0;Le Guichet;63025;Orsay;91471;CA Paris Saclay;2.191222;48.704823;48.704823, 2.191222;"{""coordinates"": [2.191222, 48.704823], ""type"": ""Point""}";#N/A
Le Mee;77.0;RER D;835;consigne;Le Mee - Rue De La Noue;40;;true;2024;True;True;True;False;True;True;False;30 €;0 €;https://mon-espace.iledefrance-mobilites.fr/souscription-service-parking-velos/835;https://www.iledefrance-mobilites.fr/services-mobilite-alternative/parkings-velos;IDFM;18.0;Le Mée;62003;Le Mée-sur-Seine;77285;CA Melun Val de Seine;2.62360609405334;48.5395251284962;48.5395251284962, 2.62360609405334;"{""coordinates"": [2.62360609405, 48.5395251285], ""type"": ""Point""}";516
Saint-germain-en-laye;78.0;RER A;865;abri;;56;2;true;2025;False;False;False;False;False;False;False;;NC;NC;;IDFM;32.0;Saint-Germain-en-Laye;64589;Saint-Germain-en-Laye;78551;CA Saint-Germain Boucles de Seine;2.09489520079154;48.8988877675757;48.8988877675757, 2.09489520079154;"{""coordinates"": [2.09489520079, 48.8988877676], ""type"": ""Point""}";#N/A
Les Noues;95.0;RER D;1247;abri;;54;;true;2026;True;True;False;False;False;False;False;;NC;NC;;IDFM;6.0;Goussainville;66535;Goussainville;95280;CA Roissy Pays de France;2.47621;49.032519;49.032519, 2.47621;"{""coordinates"": [2.47621, 49.032519], ""type"": ""Point""}";#N/A
Les Portes De Saint-cyr;78.0;TRAM 13;1026;abri;;32;;true;2022;False;False;False;False;False;False;False;;NC;NC;;IDFM;28.0;Les Portes de Saint-Cyr;480952;Versailles;78646;CA Versailles Grand Parc;2.076939;48.806262;48.806262, 2.076939;"{""coordinates"": [2.076939, 48.806262], ""type"": ""Point""}";#N/A
Les Saules;94.0;RER C,TRAM 9;902;abri;;36;;true;2023;False;False;False;False;False;False;False;;NC;NC;https://www.iledefrance-mobilites.fr/services-mobilite-alternative/parkings-velos;SNCF;68.0;Les Saules;69662;Orly;94054;EPT Grand Orly Seine Bièvre;2.417201;48.745614;48.745614, 2.417201;"{""coordinates"": [2.417201, 48.745614], ""type"": ""Point""}";#N/A
Les Saules;94.0;RER C,TRAM 9;900;consigne;Les Saules;20;;true;2023;False;False;True;False;False;False;False;30 €;0 €;https://mon-espace.iledefrance-mobilites.fr/souscription-service-parking-velos/900;https://www.iledefrance-mobilites.fr/services-mobilite-alternative/parkings-velos;SNCF;68.0;Les Saules;69662;Orly;94054;EPT Grand Orly Seine Bièvre;2.4181550362388;48.745741462159;48.745741462159, 2.4181550362388;"{""coordinates"": [2.41815503624, 48.7457414622], ""type"": ""Point""}";548
L'hay Les Roses;94.0;METRO 14;314;consigne;L'hay Les Roses;114;2;true;2026;True;True;True;False;False;False;False;30 €;0 €;https://ratp.parkings-velos.iledefrance-mobilites.fr/;;RATP;65.0;L'Haÿ-les-Roses;69974;L'Haÿ-les-Roses;94038;EPT Grand Orly Seine Bièvre;2.353856;48.775495;48.775495, 2.353856;"{""coordinates"": [2.353856, 48.775495], ""type"": ""Point""}";526
Lisière Des Deux Parcs;91.0;TZEN 4;1506;abri;;6;;true;2025;False;False;False;False;False;False;False;;NC;NC;;IDFM;23.0;NC;0;;#N/A;CA Grand Paris Sud Seine Essonne Sénart;2.437555;48.623952;48.623952, 2.437555;"{""coordinates"": [2.437555, 48.623952], ""type"": ""Point""}";#N/A
Lizy-sur-ourcq;77.0;TRAIN P;1173;consigne;Lizy-sur-ourcq;20;;true;2025;True;True;True;False;False;True;False;30 €;0 €;https://mon-espace.iledefrance-mobilites.fr/souscription-service-parking-velos/1173;https://www.iledefrance-mobilites.fr/services-mobilite-alternative/parkings-velos;IDFM;11.0;LIZY-SUR-OURCQ;69237;LIZY-SUR-OURCQ;77257;CC du Pays de l'Ourcq;3.03099312059623;49.0219666447865;49.0219666447865, 3.03099312059623;"{""coordinates"": [3.0309931206, 49.0219666448], ""type"": ""Point""}";528
Lognes;77.0;RER A;936;abri;;12;;true;2023;False;False;False;False;False;False;False;;NC;NC;;RATP;65.0;Lognes;68123;Lognes;77258;CA Paris - Vallée de la Marne;2.6335778;48.8390451;48.8390451, 2.6335778;"{""coordinates"": [2.6335778, 48.8390451], ""type"": ""Point""}";#N/A
Longjumeau;91.0;TRAM 12;896;abri;;16;;true;2024;False;False;False;False;False;False;False;;NC;NC;https://www.iledefrance-mobilites.fr/services-mobilite-alternative/parkings-velos;SNCF;68.0;Longjumeau;62977;Longjumeau;91345;CA Paris Saclay;2.294717;48.702058;48.702058, 2.294717;"{""coordinates"": [2.294717, 48.702058], ""type"": ""Point""}";#N/A
Louvres;95.0;RER D;190;consigne;Louvres;30;;true;2023;False;False;False;False;True;False;False;30 €;0 €;https://idf-mobilites.fr/roissyo-parking-velos;;IDFM;6.0;Louvres;69300;Louvres;95351;CA Roissy Pays de France;2.50093382678;49.0493445051;49.0493445051, 2.50093382678;"{""coordinates"": [2.50093382678, 49.0493445051], ""type"": ""Point""}";543
Louvres;95.0;RER D;1249;abri;;12;;true;2026;False;False;False;False;False;False;False;;NC;NC;;IDFM;6.0;Louvres;69300;Louvres;95351;CA Roissy Pays de France;2.501055;49.0493;49.0493, 2.501055;"{""coordinates"": [2.501055, 49.0493], ""type"": ""Point""}";#N/A
Lycée Robert Doisneau;91.0;TZEN 4;1507;abri;;12;;true;2025;False;False;False;False;False;False;False;;NC;NC;;IDFM;23.0;NC;0;;#N/A;CA Grand Paris Sud Seine Essonne Sénart;2.459052;48.613893;48.613893, 2.459052;"{""coordinates"": [2.459052, 48.613893], ""type"": ""Point""}";#N/A
Mairie De Chevilly-larue;94.0;TVM;111;abri;;12;;true;2017;False;False;False;False;False;False;False;;NC;NC;;Département - Val-de-Marne;;MAIRIE DE CHEVILLY;99999027;Chevilly-Larue;94021;EPT Grand Orly Seine Bièvre;2.349666;48.770109;48.770109, 2.349666;"{""coordinates"": [2.349666, 48.770109], ""type"": ""Point""}";#N/A
Mairie De Montreuil;93.0;METRO 9;178;consigne;Mairie De Montreuil;56;;true;2018;False;False;False;False;False;False;False;25 €;25 €;https://www.montreuil.fr/venir-et-se-deplacer/se-deplacer-a-velo;;Ville de Montreuil;63.0;Mairie de Montreuil;71785;Montreuil;93048;EPT Est Ensemble;2.44090905913;48.8628390184;48.8628390184, 2.44090905913;"{""coordinates"": [2.44090905913, 48.8628390184], ""type"": ""Point""}";521
Mairie Des Lilas;93.0;METRO 11;504;abri;;120;;true;2024;False;False;False;False;False;False;False;;NC;NC;;Ville des Lilas;;Mairie des Lilas;71909;Les Lilas;93045;EPT Est Ensemble;2.416069;48.879689;48.879689, 2.416069;"{""coordinates"": [2.416069, 48.879689], ""type"": ""Point""}";#N/A
Maisons-alfort-alfortville;94.0;RER D;245;consigne;Maisons-alfort-alfortville;72;;true;2019;False;False;True;False;False;False;False;30 €;0 €;https://mon-espace.iledefrance-mobilites.fr/souscription-service-parking-velos/245;https://www.iledefrance-mobilites.fr/services-mobilite-alternative/parkings-velos;SNCF;68.0;Maisons-Alfort - Alfortville;73625;Alfortville;94002;EPT Grand Paris Sud Est Avenir;2.4258831792928;48.802807355075;48.802807355075, 2.4258831792928;"{""coordinates"": [2.42588317929, 48.8028073551], ""type"": ""Point""}";548
Maisons-alfort-les Juilliottes;94.0;METRO 8;244;abri;;24;;true;2019;False;False;False;False;False;False;False;;NC;NC;;RATP;65.0;Maisons-Alfort - Les Juilliottes;70358;Maisons-Alfort;94046;EPT Paris Est Marne et Bois;2.44681254958;48.802556572;48.802556572, 2.44681254958;"{""coordinates"": [2.44681254958, 48.802556572], ""type"": ""Point""}";#N/A
Mery-sur-oise;95.0;TRAIN H;1123;consigne;Mery-sur-oise;40;;true;2025;False;False;True;False;False;False;False;30 €;0 €;https://mon-espace.iledefrance-mobilites.fr/souscription-service-parking-velos/1123;https://www.iledefrance-mobilites.fr/services-mobilite-alternative/parkings-velos;SNCF;68.0;Méry-sur-Oise;66934;Méry-sur-Oise;95394;CC de la Vallée de l'Oise et des Trois Forêts;2.1910760640643;49.058253507982;49.058253507982, 2.1910760640643;"{""coordinates"": [2.19107606406, 49.058253508], ""type"": ""Point""}";548
Malakoff - Rue Etienne Dolet;92.0;METRO 13;143;abri;;36;;true;2023;False;False;False;False;False;False;False;;NC;NC;;EPT - Vallée Sud Grand Paris;;Malakoff - Rue Etienne Dolet;70562;Malakoff;92046;EPT Vallée Sud Grand Paris;2.297304;48.815481;48.815481, 2.297304;"{""coordinates"": [2.297304, 48.815481], ""type"": ""Point""}";#N/A
Marne-la-vallee Chessy;77.0;RER A;249;abri;;20;;true;2019;False;False;False;False;False;False;False;;NC;NC;;CA - Val d'Europe Agglomération;;Marne-la-Vallée Chessy;68385;Chessy;77111;CA Val d'Europe Agglomération;2.78369313107;48.8701410668999;48.8701410668999, 2.78369313107;"{""coordinates"": [2.78369313107, 48.8701410669], ""type"": ""Point""}";#N/A
Maurice Audin;93.0;TRAM 4;1003;abri;;12;;true - non labellisé;2021;False;False;False;False;False;False;False;;NC;NC;;IDFM;;Maurice Audin;73364;Clichy-sous-Bois;93014;EPT Grand Paris Grand Est;2.538065;48.908471;48.908471, 2.538065;"{""coordinates"": [2.538065, 48.908471], ""type"": ""Point""}";#N/A
Meudon;92.0;TRAIN N;24;consigne;Meudon;40;;true;2012;False;False;True;False;False;False;False;30 €;0 €;https://mon-espace.iledefrance-mobilites.fr/souscription-service-parking-velos/24;https://www.iledefrance-mobilites.fr/services-mobilite-alternative/parkings-velos;SNCF;68.0;Meudon;70515;Meudon;92048;EPT Grand Paris Seine Ouest;2.2408050954345;48.81484059866;48.81484059866, 2.2408050954345;"{""coordinates"": [2.24080509543, 48.8148405987], ""type"": ""Point""}";548
Meudon;92.0;TRAIN N;898;abri;;40;;true;2024;True;True;False;False;False;False;False;;NC;NC;https://www.iledefrance-mobilites.fr/services-mobilite-alternative/parkings-velos;SNCF;68.0;Meudon;70515;Meudon;92048;EPT Grand Paris Seine Ouest;2.24092;48.815058;48.815058, 2.24092;"{""coordinates"": [2.24092, 48.815058], ""type"": ""Point""}";#N/A
Meulan-hardricourt;78.0;TRAIN J;843;consigne;Meulan-hardricourt;10;;true;2025;True;True;True;False;False;True;False;30 €;0 €;https://idf-mobilites.fr/poissymur-parking-velos;;IDFM;34.0;Meulan - Hardricourt;66321;Meulan - Hardricourt;#N/A;CU Grand Paris Seine et Oise;1.90232538183442;49.0056782212338;49.0056782212338, 1.90232538183442;"{""coordinates"": [1.90232538183, 49.0056782212], ""type"": ""Point""}";544
Monnerville;91.0;TER;1170;abri;;10;;true;2024;False;False;False;False;False;False;False;;NC;NC;https://www.iledefrance-mobilites.fr/services-mobilite-alternative/parkings-velos;SNCF;68.0;Monnerville;59429;Monnerville;91414;CA Étampois Sud-Essonne;2.031877;48.348334;48.348334, 2.031877;"{""coordinates"": [2.031877, 48.348334], ""type"": ""Point""}";#N/A
Montereau;77.0;TRAIN R;755;abri;;89;;true;2023;False;False;False;False;False;False;False;;NC;NC;https://www.iledefrance-mobilites.fr/services-mobilite-alternative/parkings-velos;SNCF;68.0;Montereau;61414;Montereau-Fault-Yonne;77305;CC Pays de Montereau;2.941821;48.38034;48.38034, 2.941821;"{""coordinates"": [2.941821, 48.38034], ""type"": ""Point""}";#N/A
Montgeron-crosne;91.0;RER D;25;abri;;10;;true;2014;False;False;True;False;False;False;False;;NC;NC;;Ville de Montgeron;;Montgeron - Crosne;63072;Montgeron;91421;CA Val d'Yerres Val de Seine;2.45961528526;48.7093028992999;48.7093028992999, 2.45961528526;"{""coordinates"": [2.45961528526, 48.7093028993], ""type"": ""Point""}";#N/A
Montjean;94.0;TVM;219;abri;;12;;true;2020;False;False;False;False;False;False;False;;NC;NC;;Département - Val-de-Marne;;MONTJEAN;99999030;Fresnes;94034;EPT Grand Orly Seine Bièvre;2.326637;48.754336;48.754336, 2.326637;"{""coordinates"": [2.326637, 48.754336], ""type"": ""Point""}";#N/A
Montreuil;78.0;TRAIN L;399;consigne;;14;;true;2019;False;False;False;False;False;False;False;30 €;0 €;https://mon-espace.iledefrance-mobilites.fr/souscription-service-parking-velos/399;https://www.iledefrance-mobilites.fr/services-mobilite-alternative/parkings-velos;SNCF;68.0;Montreuil;63989;Versailles;78646;CA Versailles Grand Parc;2.1516795670532;48.806655106904;48.806655106904, 2.1516795670532;"{""coordinates"": [2.15167956705, 48.8066551069], ""type"": ""Point""}";548
Montsoult-maffliers;95.0;TRAIN H;1067;abri;;50;;true;2024;False;False;False;False;False;False;False;;NC;NC;https://www.iledefrance-mobilites.fr/services-mobilite-alternative/parkings-velos;SNCF;68.0;Montsoult - Maffliers;67000;Montsoult;95430;CC Carnelle Pays-De-France;2.322781;49.066463;49.066463, 2.322781;"{""coordinates"": [2.322781, 49.066463], ""type"": ""Point""}";#N/A
Mormant;77.0;TRAIN P;1241;consigne;Mormant;10;;true;2025;True;True;True;False;False;True;False;30 €;0 €;https://portail.cykleo.fr/parking-velos-iledefrance-mobilites;;IDFM;13.0;Mormant;62351;Mormant;77317;CC Brie Nangissienne;2.8889635;48.613542;48.613542, 2.8889635;"{""coordinates"": [2.8889635, 48.613542], ""type"": ""Point""}";541
Nemours-saint-pierre;77.0;TRAIN R;50;consigne;Nemours-saint-pierre;40;;true;2022;False;False;True;False;False;False;False;30 €;0 €;https://mon-espace.iledefrance-mobilites.fr/souscription-service-parking-velos/50;https://www.iledefrance-mobilites.fr/services-mobilite-alternative/parkings-velos;CC - Pays de Nemours;59.0;Nemours Saint-Pierre;61218;Saint-Pierre-lès-Nemours;77431;CC Pays de Nemours;2.686399;48.267403;48.267403, 2.686399;"{""coordinates"": [2.686399, 48.267403], ""type"": ""Point""}";801
Nemours-saint-pierre;77.0;TRAIN R;20;abri;;20;;true;2022;False;False;True;False;False;False;False;;NC;NC;;CC - Pays de Nemours;;Nemours Saint-Pierre;61218;Saint-Pierre-lès-Nemours;77431;CC Pays de Nemours;2.686399;48.267414;48.267414, 2.686399;"{""coordinates"": [2.686399, 48.267414], ""type"": ""Point""}";#N/A
Neuilly-plaisance;93.0;RER A;692;abri;;102;;true;2023;False;False;False;False;False;False;False;;NC;NC;;RATP;65.0;Neuilly-Plaisance;73190;Neuilly-Plaisance;93049;EPT Grand Paris Grand Est;2.51362448;48.85380623;48.85380623, 2.51362448;"{""coordinates"": [2.51362448, 48.85380623], ""type"": ""Point""}";#N/A
Neuilly-plaisance;93.0;RER A;681;abri;;50;;true;2023;False;False;False;False;False;False;False;;NC;NC;;RATP;65.0;Neuilly-Plaisance;73190;Neuilly-Plaisance;93049;EPT Grand Paris Grand Est;2.51526383271617;48.8518127898025;48.8518127898025, 2.51526383271617;"{""coordinates"": [2.51526383272, 48.8518127898], ""type"": ""Point""}";#N/A
Nezel-aulnay;78.0;TRAIN N;577;abri;;12;;true;2022;False;False;False;False;False;False;False;;NC;NC;;IDFM;30.0;Nézel - Aulnay;64945;Nézel;78451;CU Grand Paris Seine et Oise;1.8407442;48.9389452;48.9389452, 1.8407442;"{""coordinates"": [1.8407442, 48.9389452], ""type"": ""Point""}";#N/A
Noisiel;77.0;RER A;167;abri;;20;;true;2018;False;False;False;False;False;False;False;;NC;NC;;CA - Paris Vallée de la Marne;56.0;Noisiel;68153;Noisiel;77337;CA Paris - Vallée de la Marne;2.61561701323;48.8433850074;48.8433850074, 2.61561701323;"{""coordinates"": [2.61561701323, 48.8433850074], ""type"": ""Point""}";#N/A
Noisy-champs;77.0;RER A,METRO 15;174;abri;;12;;true;2018;False;False;False;False;False;False;False;;NC;NC;;CA - Paris Vallée de la Marne;56.0;Noisy - Champs;73163;Champs-sur-Marne;77083;EPT Grand Paris Grand Est;2.58210902781;48.8428379985;48.8428379985, 2.58210902781;"{""coordinates"": [2.58210902781, 48.8428379985], ""type"": ""Point""}";#N/A
Notre Dame Des Anges;93.0;TRAM 4;414;abri;;10;;true - non labellisé;2021;False;False;False;False;False;False;False;;NC;NC;;IDFM;;Notre-Dame des Anges;477285;Montfermeil;93047;EPT Grand Paris Grand Est;2.556374;48.899891;48.899891, 2.556374;"{""coordinates"": [2.556374, 48.899891], ""type"": ""Point""}";#N/A
Les Agnettes;92.0;METRO 13;502;abri;;14;;true;2023;False;False;False;False;False;False;False;;NC;NC;;RATP;65.0;Les Agnettes;72240;Asnières-sur-Seine;92004;EPT Boucle Nord de Seine;2.285948;48.922953;48.922953, 2.285948;"{""coordinates"": [2.285948, 48.922953], ""type"": ""Point""}";#N/A
Palaiseau;91.0;RER B;694;consigne;Palaiseau;36;;true;2024;False;False;False;False;False;True;False;30 €;0 €;https://ratp.parkings-velos.iledefrance-mobilites.fr/;;RATP;65.0;Palaiseau;63175;Palaiseau;91477;CA Paris Saclay;2.2467467;48.7179797;48.7179797, 2.2467467;"{""coordinates"": [2.2467467, 48.7179797], ""type"": ""Point""}";526
Palaiseau;91.0;RER B;699;abri;;8;;true;2024;False;False;False;False;False;False;False;;NC;NC;;RATP;65.0;Palaiseau;63175;Palaiseau;91477;CA Paris Saclay;2.24679;48.71796;48.71796, 2.24679;"{""coordinates"": [2.24679, 48.71796], ""type"": ""Point""}";#N/A
Pantin;93.0;RER E,TRAM 3B;235;abri;;28;;true;2019;False;False;False;False;False;False;False;;NC;NC;https://www.iledefrance-mobilites.fr/services-mobilite-alternative/parkings-velos;SNCF;68.0;Pantin;72421;Pantin;93055;EPT Est Ensemble;2.40036169513;48.8981122917999;48.8981122917999, 2.40036169513;"{""coordinates"": [2.40036169513, 48.8981122918], ""type"": ""Point""}";#N/A
Paris Gare De L'est;75.0;METRO 4,METRO 5,METRO 7,TRAIN P;983;abri;;94;;true;2024;False;False;True;False;False;False;False;;NC;NC;https://www.iledefrance-mobilites.fr/services-mobilite-alternative/parkings-velos;SNCF;68.0;Gare de l'Est;71359;Paris 10e Arrondissement;75110;Ville de Paris;2.359123;48.876167;48.876167, 2.359123;"{""coordinates"": [2.359123, 48.876167], ""type"": ""Point""}";#N/A
Paris Gare De L'est;75.0;METRO 4,METRO 5,METRO 7,TRAIN P;978;abri;;20;;true;2024;False;False;True;False;False;False;False;;NC;NC;https://www.iledefrance-mobilites.fr/services-mobilite-alternative/parkings-velos;SNCF;68.0;Gare de l'Est;71359;Paris 10e Arrondissement;75110;Ville de Paris;2.358699;48.876246;48.876246, 2.358699;"{""coordinates"": [2.358699, 48.876246], ""type"": ""Point""}";#N/A
Paris Gare Saint-lazare;75.0;METRO 3,METRO 12,METRO 13,METRO 14,RER E,TRAIN L,TRAIN J;213;consigne;Paris Saint-lazare - Rome;39;;true;2019;False;False;True;False;False;False;False;30 €;0 €;https://mon-espace.iledefrance-mobilites.fr/souscription-service-parking-velos/213;https://www.iledefrance-mobilites.fr/services-mobilite-alternative/parkings-velos;SNCF;68.0;Gare Saint-Lazare;71370;Paris 8e Arrondissement;75108;Ville de Paris;2.3231756820063;48.877388390661;48.877388390661, 2.3231756820063;"{""coordinates"": [2.32317568201, 48.8773883907], ""type"": ""Point""}";548
L'isle-adam-parmain;95.0;TRAIN H;382;consigne;L'isle-adam-parmain;12;;true;2019;False;False;False;False;False;True;False;30 €;0 €;https://mon-espace.iledefrance-mobilites.fr/souscription-service-parking-velos/382;https://www.iledefrance-mobilites.fr/services-mobilite-alternative/parkings-velos;SNCF;68.0;L'Isle-Adam - Parmain;67172;L'Isle-Adam;95313;CC de la Vallée de l'Oise et des Trois Forêts;2.2098181659386;49.114853347825;49.114853347825, 2.2098181659386;"{""coordinates"": [2.20981816594, 49.1148533478], ""type"": ""Point""}";548
Provins;77.0;TRAIN P;1072;abri;;20;;true;2023;False;False;False;False;False;False;False;;NC;NC;https://www.iledefrance-mobilites.fr/services-mobilite-alternative/parkings-velos;SNCF;68.0;Provins;62139;Provins;77379;CC du Provinois;3.303253;48.555836;48.555836, 3.303253;"{""coordinates"": [3.303253, 48.555836], ""type"": ""Point""}";#N/A
Rambouillet;78.0;TRAIN N;34;consigne;Rambouillet;40;;true;2012;False;False;True;False;False;False;False;30 €;0 €;https://mon-espace.iledefrance-mobilites.fr/souscription-service-parking-velos/34;https://www.iledefrance-mobilites.fr/services-mobilite-alternative/parkings-velos;SNCF;68.0;Rambouillet;60665;Rambouillet;78517;CA Rambouillet Territoires;1.8312048016502;48.643906188162;48.643906188162, 1.8312048016502;"{""coordinates"": [1.83120480165, 48.6439061882], ""type"": ""Point""}";548
Republique - Marx Dormoy;93.0;TRAM 4;438;abri;;6;;true - non labellisé;2021;False;False;False;False;False;False;False;;NC;NC;;IDFM;;République - Marx Dormoy;73354;Livry-Gargan;93046;EPT Grand Paris Grand Est;2.522859;48.906124;48.906124, 2.522859;"{""coordinates"": [2.522859, 48.906124], ""type"": ""Point""}";#N/A
Rungis-la Fraternelle;94.0;RER C,TRAM 7;136;abri;;20;;true;2016;False;False;False;False;False;False;False;;NC;NC;;Département - Val-de-Marne;;Rungis la Fraternelle;69633;Rungis;94065;EPT Grand Orly Seine Bièvre;2.35312729282;48.7402503189;48.7402503189, 2.35312729282;"{""coordinates"": [2.35312729282, 48.7402503189], ""type"": ""Point""}";#N/A
Saint-denis-porte De Paris;93.0;METRO 13,TRAM 8;775;abri;;86;;true;2024;False;False;False;False;False;False;False;;NC;NC;;RATP;65.0;Saint-Denis - Porte de Paris;72285;Saint-Denis;93066;EPT Plaine Commune;2.356911;48.929305;48.929305, 2.356911;"{""coordinates"": [2.356911, 48.929305], ""type"": ""Point""}";#N/A
Sainte-colombe Septveilles;77.0;TRAIN P;1140;consigne;Sainte-colombe Septveilles;12;;true;2024;False;False;True;False;False;False;False;30 €;0 €;https://mon-espace.iledefrance-mobilites.fr/souscription-service-parking-velos/1140;https://www.iledefrance-mobilites.fr/services-mobilite-alternative/parkings-velos;SNCF;68.0;Sainte-Colombe Septveilles;61961;Sainte-Colombe;77404;CC du Provinois;3.2569784323232;48.529967716286;48.529967716286, 3.2569784323232;"{""coordinates"": [3.25697843232, 48.5299677163], ""type"": ""Point""}";548
Sainte-genevieve-des-bois;91.0;RER C;555;consigne;Sainte-genevieve-des-bois - Place De La Gare;28;;true;2024;False;False;True;False;False;False;False;30 €;0 €;https://mon-espace.iledefrance-mobilites.fr/souscription-service-parking-velos/555;https://www.iledefrance-mobilites.fr/services-mobilite-alternative/parkings-velos;SNCF;68.0;Sainte-Geneviève-des-Bois;60785;Sainte-Geneviève-des-Bois;91549;CA Cœur d'Essonne Agglomération;2.3142366293395;48.653839227965;48.653839227965, 2.3142366293395;"{""coordinates"": [2.31423662934, 48.653839228], ""type"": ""Point""}";548
Sainte-genevieve-des-bois;91.0;RER C;1017;abri;;11;;true;2025;False;False;False;False;False;False;False;;NC;NC;https://www.iledefrance-mobilites.fr/services-mobilite-alternative/parkings-velos;SNCF;68.0;Sainte-Geneviève-des-Bois;60785;Sainte-Geneviève-des-Bois;91549;CA Cœur d'Essonne Agglomération;2.313867;48.653619;48.653619, 2.313867;"{""coordinates"": [2.313867, 48.653619], ""type"": ""Point""}";#N/A
Saint-ouen;93.0;METRO 14,RER C;559;consigne;Saint-ouen;110;2;true;2025;True;True;True;False;False;False;False;30 €;0 €;https://mon-espace.iledefrance-mobilites.fr/souscription-service-parking-velos/559;https://www.iledefrance-mobilites.fr/services-mobilite-alternative/parkings-velos;SNCF;68.0;Saint-Ouen;72126;Saint-Ouen-sur-Seine;93070;EPT Plaine Commune;2.3222668453867;48.905818440581;48.905818440581, 2.3222668453867;"{""coordinates"": [2.32226684539, 48.9058184406], ""type"": ""Point""}";548
L'etang Les Sablons;78.0;TRAM 13;1027;abri;;12;;true;2022;False;False;False;False;False;False;False;;NC;NC;;IDFM;;L'Etang - Les Sablons;480950;L'Étang-la-Ville;78224;CA Saint-Germain Boucles de Seine;2.06870079798577;48.8723497170933;48.8723497170933, 2.06870079798577;"{""coordinates"": [2.06870079799, 48.8723497171], ""type"": ""Point""}";#N/A
Saint-quentin-en-yvelines;78.0;RER C,TRAIN N,TRAIN U;141;consigne;Delouvrier;30;;true;2017;False;False;False;False;False;False;False;30 €;0 €;https://mon-espace.iledefrance-mobilites.fr/souscription-service-parking-velos/141;;IDFM;29.0;Saint-Quentin en Yvelines - Montigny-le-Bretonneux;63812;Montigny-le-Bretonneux;78423;CA Saint-Quentin-en-Yvelines;2.04351073088;48.7872541023999;48.7872541023999, 2.04351073088;"{""coordinates"": [2.04351073088, 48.7872541024], ""type"": ""Point""}";513
Saint-quentin-en-yvelines;78.0;RER C,TRAIN N,TRAIN U;1299;abri;;12;;true;2017;False;False;False;False;False;False;False;;NC;https://idf-mobilites.fr/sqy-parking-velos;;IDFM;29.0;Saint-Quentin en Yvelines - Montigny-le-Bretonneux;63812;Montigny-le-Bretonneux;78423;CA Saint-Quentin-en-Yvelines;2.04569395807371;48.7862317383345;48.7862317383345, 2.04569395807371;"{""coordinates"": [2.04569395807, 48.7862317383], ""type"": ""Point""}";#N/A
Savigny-le-temple-nandy;77.0;RER D;1383;abri;;12;;true;2024;False;False;False;False;False;False;False;;NC;NC;https://www.iledefrance-mobilites.fr/services-mobilite-alternative/parkings-velos;SNCF;68.0;Savigny-le-Temple - Nandy;62290;Savigny-le-Temple;77445;CA Grand Paris Sud Seine Essonne Sénart;2.584702;48.59557;48.59557, 2.584702;"{""coordinates"": [2.584702, 48.59557], ""type"": ""Point""}";#N/A
Savigny-le-temple-nandy;77.0;RER D;1368;abri;;8;;true;2024;False;False;False;False;False;False;False;;NC;NC;https://www.iledefrance-mobilites.fr/services-mobilite-alternative/parkings-velos;SNCF;68.0;Savigny-le-Temple - Nandy;62290;Savigny-le-Temple;77445;CA Grand Paris Sud Seine Essonne Sénart;2.584532;48.595535;48.595535, 2.584532;"{""coordinates"": [2.584532, 48.595535], ""type"": ""Point""}";#N/A
Sermaise;91.0;RER C;1169;consigne;Sermaise;40;;true;2025;False;False;True;False;False;False;False;;0 €;https://mon-espace.iledefrance-mobilites.fr/souscription-service-parking-velos/1169;https://www.iledefrance-mobilites.fr/services-mobilite-alternative/parkings-velos;SNCF;68.0;Sermaise;59842;Sermaise;91593;CC Le Dourdannais en Hurepoix;2.0693516291097;48.535575838056;48.535575838056, 2.0693516291097;"{""coordinates"": [2.06935162911, 48.5355758381], ""type"": ""Point""}";548
Stade De Bonneuil;94.0;393,423;221;abri;;12;;true;2019;False;False;False;False;False;False;False;;NC;NC;;Département - Val-de-Marne;;Stade de Bonneuil;424094;Bonneuil-sur-Marne;94011;EPT Grand Paris Sud Est Avenir;2.480945;48.765537;48.765537, 2.480945;"{""coordinates"": [2.480945, 48.765537], ""type"": ""Point""}";#N/A
Stains La Cerisaie;93.0;TRAM 11;187;consigne;Stains La Cerisaie;40;;true;2020;False;False;True;False;False;False;False;30 €;0 €;https://mon-espace.iledefrance-mobilites.fr/souscription-service-parking-velos/187;https://www.iledefrance-mobilites.fr/services-mobilite-alternative/parkings-velos;SNCF;68.0;Stains la Cerisaie;426083;Stains;93072;EPT Plaine Commune;2.391561083577;48.954572922813;48.954572922813, 2.391561083577;"{""coordinates"": [2.39156108358, 48.9545729228], ""type"": ""Point""}";548
Taverny;95.0;TRAIN H;1413;consigne;Taverny;40;0;true;2025;True;True;False;False;True;False;False;30 €;0 €;https://velo.valparisis.fr/;;CA - Val Parisis;58.0;Taverny;66557;Taverny;95607;CA Val Parisis;2.221429;49.025094;49.025094, 2.221429;"{""coordinates"": [2.221429, 49.025094], ""type"": ""Point""}";522
Thiais-orly (pont De Rungis);94.0;METRO 14;431;consigne;Thiais-orly (pont De Rungis);38;;true;2025;False;False;False;False;False;True;False;30 €;0 €;https://ratp.parkings-velos.iledefrance-mobilites.fr/;;RATP;65.0;NC;69677;Thiais;94073;EPT Grand Orly Seine Bièvre;2.3729926;48.746951;48.746951, 2.3729926;"{""coordinates"": [2.3729926, 48.746951], ""type"": ""Point""}";526
Thun-le-paradis;78.0;TRAIN J;576;abri;;12;;true;2022;False;False;False;False;False;False;False;;NC;https://idf-mobilites.fr/poissymur-parking-velos;;IDFM;34.0;Thun le Paradis;66334;Meulan-en-Yvelines;78401;CU Grand Paris Seine et Oise;1.9197381;49.0069782;49.0069782, 1.9197381;"{""coordinates"": [1.9197381, 49.0069782], ""type"": ""Point""}";#N/A
Thun-le-paradis;78.0;TRAIN J;850;consigne;Thun-le-paradis;10;;true;2025;True;True;True;False;False;True;False;30 €;0 €;https://idf-mobilites.fr/poissymur-parking-velos;;IDFM;34.0;Thun le Paradis;66334;Thun le Paradis;#N/A;CU Grand Paris Seine et Oise;1.919674;49.006992;49.006992, 1.919674;"{""coordinates"": [1.919674, 49.006992], ""type"": ""Point""}";544
Torcy;77.0;RER A;45;consigne;Torcy;110;;true;2015;True;True;True;False;False;False;False;30 €;0 €;https://portail.cykleo.fr/park_paris_vallee_marne;;CA - Paris Vallée de la Marne;56.0;Torcy;68129;Torcy;77468;CA Paris - Vallée de la Marne;2.653863;48.840086;48.840086, 2.653863;"{""coordinates"": [2.653863, 48.840086], ""type"": ""Point""}";510
Traite De Rome;91.0;TRAM 12;621;abri;;20;;true;2024;True;True;False;False;False;False;False;;NC;NC;;IDFM;23.0;Traité de Rome;486999;Évry-Courcouronnes;91228;CA Grand Paris Sud Seine Essonne Sénart;2.406894;48.625618;48.625618, 2.406894;"{""coordinates"": [2.406894, 48.625618], ""type"": ""Point""}";#N/A
Val De Fontenay;94.0;RER A,RER E;993;abri;;52;;true;2024;False;False;False;False;False;False;False;;NC;NC;;RATP;65.0;Val de Fontenay;71718;Fontenay-sous-Bois;94033;EPT Paris Est Marne et Bois;2.49055472094443;48.8555941430538;48.8555941430538, 2.49055472094443;"{""coordinates"": [2.49055472094, 48.8555941431], ""type"": ""Point""}";#N/A
Val De Fontenay;94.0;RER A,RER E;49;abri;;20;;true;2015;False;False;True;False;False;False;False;;NC;NC;;RATP;65.0;Val de Fontenay;71718;Fontenay-sous-Bois;94033;EPT Paris Est Marne et Bois;2.48785977311906;48.8540013888092;48.8540013888092, 2.48785977311906;"{""coordinates"": [2.48785977312, 48.8540013888], ""type"": ""Point""}";#N/A
Val Pompadour;94.0;393,429,430;222;abri;;10;;true;2019;False;False;False;False;False;False;False;;NC;NC;;Département - Val-de-Marne;;Val Pompadour;69911;Valenton;94074;EPT Grand Orly Seine Bièvre;2.447156;48.768944;48.768944, 2.447156;"{""coordinates"": [2.447156, 48.768944], ""type"": ""Point""}";#N/A
Mareil-marly;78.0;TRAM 13;1029;abri;;12;;true;2022;False;False;False;False;False;False;False;;NC;NC;;IDFM;;Mareil-Marly;73602;Mareil-Marly;78367;CA Saint-Germain Boucles de Seine;2.07941138632199;48.8810300853272;48.8810300853272, 2.07941138632199;"{""coordinates"": [2.07941138632, 48.8810300853], ""type"": ""Point""}";#N/A
Saint-nom-la-breteche Foret De Marly;78.0;TRAIN L,TRAM 13;1038;abri;;20;;true - non labellisé;2022;False;False;False;False;False;False;False;;NC;NC;;IDFM;;Saint-Nom-la-Bretèche Forêt de Marly;64382;L'Étang-la-Ville;78224;CA Saint-Germain Boucles de Seine;2.05102865932423;48.8676532804291;48.8676532804291, 2.05102865932423;"{""coordinates"": [2.05102865932, 48.8676532804], ""type"": ""Point""}";#N/A
Vaux-sur-seine;78.0;TRAIN J;852;consigne;Vaux-sur-seine;10;;true;2025;False;False;False;False;False;False;False;30 €;0 €;https://idf-mobilites.fr/poissymur-parking-velos;;IDFM;34.0;Vaux-sur-Seine;66338;Vaux-sur-Seine;78638;CU Grand Paris Seine et Oise;1.963783;49.006918;49.006918, 1.963783;"{""coordinates"": [1.963783, 49.006918], ""type"": ""Point""}";544
Versailles Chateau Rive Gauche;78.0;RER C;172;abri;;32;;true;2018;False;False;False;False;False;False;False;;NC;NC;https://www.iledefrance-mobilites.fr/services-mobilite-alternative/parkings-velos;SNCF;68.0;Versailles Château Rive Gauche;73721;Versailles;78646;CA Versailles Grand Parc;2.12925123127;48.8005303931999;48.8005303931999, 2.12925123127;"{""coordinates"": [2.12925123127, 48.8005303932], ""type"": ""Point""}";#N/A
Villejuif Gustave Roussy;94.0;METRO 14,15;960;abri;;20;;true;2025;False;False;False;False;False;False;False;;NC;NC;;IDFM;72.0;Villejuif - Gustave Roussy;478860;Villejuif;94076;EPT Grand Orly Seine Bièvre;2.34915239482208;48.7932838907175;48.7932838907175, 2.34915239482208;"{""coordinates"": [2.34915239482, 48.7932838907], ""type"": ""Point""}";537
Villeneuve-triage;94.0;RER D;54;abri;;20;;true;2015;False;False;True;False;False;False;False;;NC;NC;;Département - Val-de-Marne;;Villeneuve Triage;69671;Villeneuve-Saint-Georges;94078;EPT Grand Orly Seine Bièvre;2.43804463376;48.7454037034;48.7454037034, 2.43804463376;"{""coordinates"": [2.43804463376, 48.7454037034], ""type"": ""Point""}";#N/A
Villennes-sur-seine;78.0;RER E,TRAIN J;485;consigne;Villennes-sur-seine;20;;true;2023;False;False;True;False;False;False;False;30 €;0 €;https://mon-espace.iledefrance-mobilites.fr/souscription-service-parking-velos/485;https://www.iledefrance-mobilites.fr/services-mobilite-alternative/parkings-velos;SNCF;68.0;Villennes-sur-Seine;64949;Villennes-sur-Seine;78672;CU Grand Paris Seine et Oise;1.9998536416016;48.939253932057;48.939253932057, 1.9998536416016;"{""coordinates"": [1.9998536416, 48.9392539321], ""type"": ""Point""}";548
Vincennes;94.0;RER A;823;consigne;Vincennes - Republique;212;8;true;2025;True;True;True;False;False;False;True;30 €;0 €;https://ratp.parkings-velos.iledefrance-mobilites.fr/;;RATP;65.0;Vincennes;71651;Vincennes;94080;EPT Paris Est Marne et Bois;2.431084;48.84742;48.84742, 2.431084;"{""coordinates"": [2.431084, 48.84742], ""type"": ""Point""}";526
Vincennes;94.0;RER A;825;abri;;36;;true;2024;False;False;False;False;False;False;False;;NC;NC;;RATP;65.0;Vincennes;71651;Vincennes;94080;EPT Paris Est Marne et Bois;2.431681;48.847493;48.847493, 2.431681;"{""coordinates"": [2.431681, 48.847493], ""type"": ""Point""}";#N/A
Vincennes;94.0;RER A;563;abri;;22;;true;2023;False;False;False;False;False;False;False;;NC;NC;;RATP;65.0;Vincennes;71651;Vincennes;94080;EPT Paris Est Marne et Bois;2.433206;48.84741;48.84741, 2.433206;"{""coordinates"": [2.433206, 48.84741], ""type"": ""Point""}";#N/A
Viry-chatillon;91.0;RER D;613;abri;;26;2;true;2026;False;False;False;False;False;False;False;;NC;https://idf-mobilites.fr/coeures-parking-velos;;IDFM;25.0;Viry-Châtillon;60981;Viry-Châtillon;91687;EPT Grand Orly Seine Bièvre;2.386926;48.675826;48.675826, 2.386926;"{""coordinates"": [2.386926, 48.675826], ""type"": ""Point""}";#N/A
Ablon;94.0;RER C;914;consigne;Ablon;28;;true;2024;True;True;True;False;False;False;False;30 €;0 €;https://mon-espace.iledefrance-mobilites.fr/souscription-service-parking-velos/914;https://www.iledefrance-mobilites.fr/services-mobilite-alternative/parkings-velos;SNCF;68.0;Ablon;69554;Ablon-sur-Seine;94001;EPT Grand Orly Seine Bièvre;2.4194243339531;48.725153671155;48.725153671155, 2.4194243339531;"{""coordinates"": [2.41942433395, 48.7251536712], ""type"": ""Point""}";548
Ablon;94.0;RER C;204;abri;;12;;true;2020;False;False;False;False;False;False;False;;NC;NC;;Département - Val-de-Marne;;Ablon;69554;Ablon-sur-Seine;94001;EPT Grand Orly Seine Bièvre;2.4184657533;48.7250252015999;48.7250252015999, 2.4184657533;"{""coordinates"": [2.4184657533, 48.7250252016], ""type"": ""Point""}";#N/A
Aeroport D'orly;91.0;METRO 14;1309;consigne;Aeroport D'orly;80;2;true;2025;True;True;False;False;False;False;True;30 €;0 €;https://idf-mobilites.fr/orly-parking-velos;;ADP;50.0;Aéroport d’Orly (Terminal 4);63284;Paray-Vieille-Poste;91479;EPT Grand Orly Seine Bièvre;2.364083;48.727778;48.727778, 2.364083;"{""coordinates"": [2.364083, 48.727778], ""type"": ""Point""}";511
Angerville;91.0;TER;1020;abri;;8;;true;2023;False;False;False;False;False;False;False;;NC;NC;https://www.iledefrance-mobilites.fr/services-mobilite-alternative/parkings-velos;SNCF;68.0;Angerville;59403;Angerville;91016;CA Étampois Sud-Essonne;2.00365;48.31179;48.31179, 2.00365;"{""coordinates"": [2.00365, 48.31179], ""type"": ""Point""}";#N/A
Athis-mons;91.0;RER C;872;abri;;12;;true;2024;False;False;False;False;False;False;False;;NC;NC;https://www.iledefrance-mobilites.fr/services-mobilite-alternative/parkings-velos;SNCF;68.0;Athis-Mons;63134;Athis-Mons;91027;EPT Grand Orly Seine Bièvre;2.40302;48.712716;48.712716, 2.40302;"{""coordinates"": [2.40302, 48.712716], ""type"": ""Point""}";#N/A
Bagneaux-sur-loing;77.0;TRAIN R;15;consigne;Bagneaux-sur-loing;20;;true;2022;True;True;False;False;True;False;False;30 €;0 €;https://mon-espace.iledefrance-mobilites.fr/souscription-service-parking-velos/15;https://www.iledefrance-mobilites.fr/services-mobilite-alternative/parkings-velos;CC - Pays de Nemours;59.0;Bagneaux-sur-Loing;61145;Bagneaux-sur-Loing;77016;CC Pays de Nemours;2.703295;48.230334;48.230334, 2.703295;"{""coordinates"": [2.703295, 48.230334], ""type"": ""Point""}";801
Bagneux - Barbara;92.0;METRO 4;340;consigne;Bagneux - Barbara;60;;true;2024;True;True;False;True;False;False;False;30 €;0 €;https://abris-velos.valleesud.fr;;EPT - Vallée Sud Grand Paris;61.0;Barbara;70441;Bagneux;92007;EPT Vallée Sud Grand Paris;2.317415;48.8097;48.8097, 2.317415;"{""coordinates"": [2.317415, 48.8097], ""type"": ""Point""}";511
Bagneux - Lucie Aubrac;92.0;METRO 4;278;consigne;Bagneux - Lucie Aubrac;120;;true;2024;True;True;False;True;False;False;False;30 €;0 €;https://abris-velos.valleesud.fr;;EPT - Vallée Sud Grand Paris;61.0;Bagneux - Lucie Aubrac;483315;Bagneux;92007;EPT Vallée Sud Grand Paris;2.31809;48.803942;48.803942, 2.31809;"{""coordinates"": [2.31809, 48.803942], ""type"": ""Point""}";511
Bailly;78.0;TRAM 13;972;consigne;Bailly;20;;true;2026;True;True;True;False;True;True;False;30 €;0 €;https://mon-espace.iledefrance-mobilites.fr/souscription-service-parking-velos/972;https://www.iledefrance-mobilites.fr/services-mobilite-alternative/parkings-velos;IDFM;28.0;Bailly;480951;Bailly;78043;CA Versailles Grand Parc;2.074139;48.837119;48.837119, 2.074139;"{""coordinates"": [2.074139, 48.837119], ""type"": ""Point""}";535
Bailly;78.0;TRAM 13;967;abri;;10;;true;2025;False;False;False;False;False;False;False;;NC;NC;;IDFM;28.0;Bailly;480951;Bailly;78043;CA Versailles Grand Parc;2.07492;48.836597;48.836597, 2.07492;"{""coordinates"": [2.07492, 48.836597], ""type"": ""Point""}";#N/A
Belloy-saint-martin;95.0;TRAIN H;1130;abri;;20;0;true;2025;False;False;True;False;False;False;False;;NC;NC;https://www.iledefrance-mobilites.fr/services-mobilite-alternative/parkings-velos;SNCF;68.0;Belloy - Saint-Martin;67126;Belloy-en-France;95056;CC Carnelle Pays-De-France;2.361435;49.0983126;49.0983126, 2.361435;"{""coordinates"": [2.361435, 49.0983126], ""type"": ""Point""}";#N/A
Belloy-saint-martin;95.0;TRAIN H;1131;consigne;Belloy-saint-martin;10;;true;2025;True;True;True;False;False;False;False;30 €;0 €;https://mon-espace.iledefrance-mobilites.fr/souscription-service-parking-velos/1131;https://www.iledefrance-mobilites.fr/services-mobilite-alternative/parkings-velos;SNCF;68.0;Belloy - Saint-Martin;67126;Belloy-en-France;95056;CC Carnelle Pays-De-France;2.3614827637611;49.098265643572;49.098265643572, 2.3614827637611;"{""coordinates"": [2.36148276376, 49.0982656436], ""type"": ""Point""}";548
Boissy-saint-leger;94.0;RER A;663;consigne;Boissy-saint-leger;32;;true;2022;False;True;True;False;False;False;False;30 €;0 €;https://ratp.parkings-velos.iledefrance-mobilites.fr/;;RATP;65.0;Boissy-Saint-Léger;72881;Boissy-Saint-Léger;94004;EPT Grand Paris Sud Est Avenir;2.50564915329;48.7531891962999;48.7531891962999, 2.50564915329;"{""coordinates"": [2.50564915329, 48.7531891963], ""type"": ""Point""}";526
Bouray;91.0;RER C;628;abri;;40;;true;2021;False;False;False;False;False;False;False;;NC;NC;https://www.iledefrance-mobilites.fr/services-mobilite-alternative/parkings-velos;SNCF;68.0;Bouray;59830;Lardy;91330;CC Entre Juine et Renarde;2.29018701791;48.5325409734999;48.5325409734999, 2.29018701791;"{""coordinates"": [2.29018701791, 48.5325409735], ""type"": ""Point""}";#N/A
Boussy-saint-antoine;91.0;RER D;1267;abri;;28;;true;2025;False;False;False;False;False;False;False;;NC;NC;https://www.iledefrance-mobilites.fr/services-mobilite-alternative/parkings-velos;SNCF;68.0;Boussy-Saint-Antoine;62596;Boussy-Saint-Antoine;91097;CA Val d'Yerres Val de Seine;2.534668;48.680015;48.680015, 2.534668;"{""coordinates"": [2.534668, 48.680015], ""type"": ""Point""}";#N/A
Boussy-saint-antoine;91.0;RER D;1268;abri;;16;;true;2025;False;False;False;False;False;False;False;;NC;NC;https://www.iledefrance-mobilites.fr/services-mobilite-alternative/parkings-velos;SNCF;68.0;Boussy-Saint-Antoine;62596;Boussy-Saint-Antoine;91097;CA Val d'Yerres Val de Seine;2.534662;48.680048;48.680048, 2.534662;"{""coordinates"": [2.534662, 48.680048], ""type"": ""Point""}";#N/A
Boutigny-sur-essonne;91.0;RER D;922;abri;;16;;true;2024;False;False;False;False;False;False;False;;NC;NC;https://www.iledefrance-mobilites.fr/services-mobilite-alternative/parkings-velos;SNCF;68.0;Boutigny;59565;Boutigny-sur-Essonne;91099;CC des Deux Vallées;2.376405;48.434882;48.434882, 2.376405;"{""coordinates"": [2.376405, 48.434882], ""type"": ""Point""}";#N/A
Breuillet-bruyeres-le-chatel;91.0;RER C;561;abri;;10;;true;2026;False;False;False;False;False;False;False;;NC;NC;;IDFM;25.0;Breuillet - Bruyères-le-Châtel;60028;Breuillet;91105;CA Cœur d'Essonne Agglomération;2.19143270499278;48.5770420737266;48.5770420737266, 2.19143270499278;"{""coordinates"": [2.19143270499, 48.5770420737], ""type"": ""Point""}";#N/A
Breval;78.0;GL;676;abri;;10;;true;2024;False;False;False;False;False;False;False;;NC;https://idf-mobilites.fr/mantois-parking-velos;;IDFM;35.0;Bréval;65051;Bréval;78107;CC Les Portes de l'Ile de France;1.541833;48.943782;48.943782, 1.541833;"{""coordinates"": [1.541833, 48.943782], ""type"": ""Point""}";527
Brunoy;91.0;RER D;176;abri;;20;;true;2018;False;False;False;False;False;False;False;;NC;NC;https://www.iledefrance-mobilites.fr/services-mobilite-alternative/parkings-velos;SNCF;68.0;Brunoy;67476;Brunoy;91114;CA Val d'Yerres Val de Seine;2.50673272991;48.6984010246;48.6984010246, 2.50673272991;"{""coordinates"": [2.50673272991, 48.6984010246], ""type"": ""Point""}";#N/A
Bures-sur-yvette;91.0;RER B;678;consigne;Bures-sur-yvette;22;;true;2021;True;True;True;False;True;True;False;30 €;0 €;https://mon-espace.iledefrance-mobilites.fr/souscription-service-parking-velos/678;https://www.iledefrance-mobilites.fr/services-mobilite-alternative/parkings-velos;IDFM;26.0;Bures-sur-Yvette;62851;Bures-sur-Yvette;91122;CA Paris Saclay;2.163078;48.695907;48.695907, 2.163078;"{""coordinates"": [2.163078, 48.695907], ""type"": ""Point""}";520
Cesson;77.0;RER D;82;consigne;Cesson;40;;true;2015;True;True;True;False;True;True;False;30 €;0 €;https://mon-espace.iledefrance-mobilites.fr/souscription-service-parking-velos/82;https://www.iledefrance-mobilites.fr/services-mobilite-alternative/parkings-velos;IDFM;19.0;Cesson;62176;Cesson;77067;CA Grand Paris Sud Seine Essonne Sénart;2.5936829027;48.5654006831999;48.5654006831999, 2.5936829027;"{""coordinates"": [2.5936829027, 48.5654006832], ""type"": ""Point""}";515
Cesson;77.0;RER D;1399;abri;;20;;true;2025;False;False;False;False;False;False;False;;NC;https://idf-mobilites.fr/senart-parking-velos;;IDFM;19.0;Cesson;62176;Cesson;77067;CA Grand Paris Sud Seine Essonne Sénart;2.59369885119593;48.5653808509284;48.5653808509284, 2.59369885119593;"{""coordinates"": [2.5936988512, 48.5653808509], ""type"": ""Point""}";#N/A
Cesson;77.0;RER D;1194;abri;;12;;true;2025;False;False;False;False;False;False;False;;NC;https://idf-mobilites.fr/senart-parking-velos;;IDFM;19.0;Cesson;62176;Cesson;77067;CA Grand Paris Sud Seine Essonne Sénart;2.5949549473694;48.5633321291394;48.5633321291394, 2.5949549473694;"{""coordinates"": [2.59495494737, 48.5633321291], ""type"": ""Point""}";#N/A
Chamarande;91.0;RER C;1083;abri;;15;;true;2025;False;False;True;False;False;False;False;;NC;NC;https://www.iledefrance-mobilites.fr/services-mobilite-alternative/parkings-velos;SNCF;68.0;Chamarande;59734;Chamarande;91132;CC Entre Juine et Renarde;2.215985;48.514318;48.514318, 2.215985;"{""coordinates"": [2.215985, 48.514318], ""type"": ""Point""}";#N/A
Chamarande;91.0;RER C;1082;consigne;Chamarande;10;;true;2025;True;True;True;False;False;False;False;30 €;0 €;https://mon-espace.iledefrance-mobilites.fr/souscription-service-parking-velos/1082;https://www.iledefrance-mobilites.fr/services-mobilite-alternative/parkings-velos;SNCF;68.0;Chamarande;59734;Chamarande;91132;CC Entre Juine et Renarde;2.2160619359996;48.514362063275;48.514362063275, 2.2160619359996;"{""coordinates"": [2.216061936, 48.5143620633], ""type"": ""Point""}";548
Chatillon-montrouge;92.0;METRO 13,TRAM 6;311;abri;;24;;true;2023;False;False;False;False;False;False;False;;NC;NC;;EPT - Vallée Sud Grand Paris;;Châtillon-Montrouge;461505;Châtillon;92020;EPT Vallée Sud Grand Paris;2.30088454840582;48.8104674945488;48.8104674945488, 2.30088454840582;"{""coordinates"": [2.30088454841, 48.8104674945], ""type"": ""Point""}";#N/A
Chaville - Velizy;78.0;RER C;688;abri;;16;;true;2025;False;False;False;False;False;False;False;;NC;NC;;IDFM;27.0;Chaville - Vélizy;69487;Viroflay;78686;CA Versailles Grand Parc;2.18318;48.799302;48.799302, 2.18318;"{""coordinates"": [2.18318, 48.799302], ""type"": ""Point""}";#N/A
Chelles - Gournay;77.0;RER E,TRAIN P;5;consigne;Chelles - Gournay;152;3;true;2012;True;True;True;True;True;False;False;30 €;0 €;https://mon-espace.iledefrance-mobilites.fr/souscription-service-parking-velos/5;https://www.iledefrance-mobilites.fr/services-mobilite-alternative/parkings-velos;SNCF;68.0;Chelles - Gournay;68407;Chelles;77108;CA Paris - Vallée de la Marne;2.5822157645607;48.873876046367;48.873876046367, 2.5822157645607;"{""coordinates"": [2.58221576456, 48.8738760464], ""type"": ""Point""}";548
Chelles - Gournay;77.0;RER E,TRAIN P;1078;abri;;52;52;true;2025;False;False;False;False;False;False;False;;NC;NC;;SNCF;68.0;Chelles - Gournay;68407;Chelles;77108;CA Paris - Vallée de la Marne;2.58205451874513;48.8745687085362;48.8745687085362, 2.58205451874513;"{""coordinates"": [2.58205451875, 48.8745687085], ""type"": ""Point""}";#N/A
Chevilly Larue (ex Porte De Thiais Min);94.0;METRO 14,TRAM 7;1101;abri;;62;;true;2024;False;False;False;False;False;False;False;;NC;NC;;RATP;65.0;Chevilly-Larue​ (Marché International​);73753;Chevilly-Larue;94021;EPT Grand Orly Seine Bièvre;2.366986;48.759737;48.759737, 2.366986;"{""coordinates"": [2.366986, 48.759737], ""type"": ""Point""}";#N/A
Chevilly Larue (ex Porte De Thiais Min);94.0;METRO 14,TRAM 7;1102;abri;;48;;true;2024;False;False;False;False;False;False;False;;NC;NC;;RATP;65.0;Chevilly-Larue​ (Marché International​);73753;Chevilly-Larue;94021;EPT Grand Orly Seine Bièvre;2.366505;48.759941;48.759941, 2.366505;"{""coordinates"": [2.366505, 48.759941], ""type"": ""Point""}";#N/A
Clamart;92.0;TRAIN N;630;consigne;Clamart;40;;true;2021;False;True;False;False;True;False;False;30 €;0 €;https://abris-velos.valleesud.fr;;EPT - Vallée Sud Grand Paris;61.0;Clamart;70505;Clamart;92023;EPT Vallée Sud Grand Paris;2.2721328;48.8139372;48.8139372, 2.2721328;"{""coordinates"": [2.2721328, 48.8139372], ""type"": ""Point""}";511
Conflans-fin-d'oise;78.0;RER A,TRAIN J,TRAIN L;1356;abri;;8;;true;2026;False;False;False;False;False;False;False;;NC;NC;;SNCF;68.0;Conflans Fin d'Oise;73605;Conflans Fin d'Oise;Conflans Fin d'Oise;CU Grand Paris Seine et Oise;2.0740966734066;48.989330733315;48.989330733315, 2.0740966734066;"{""coordinates"": [2.07409667341, 48.9893307333], ""type"": ""Point""}";#N/A
Corbeil-essonnes;91.0;RER D;7;consigne;Corbeil-essonnes;56;;true;2012;False;False;True;False;False;False;False;30 €;0 €;https://mon-espace.iledefrance-mobilites.fr/souscription-service-parking-velos/7;https://www.iledefrance-mobilites.fr/services-mobilite-alternative/parkings-velos;SNCF;68.0;Corbeil-Essonnes;60309;Corbeil-Essonnes;91174;CA Grand Paris Sud Seine Essonne Sénart;2.4734845539362;48.613418383836;48.613418383836, 2.4734845539362;"{""coordinates"": [2.47348455394, 48.6134183838], ""type"": ""Point""}";548
Corbeil-essonnes Zola;91.0;RER D,TZEN 4;1494;abri;;24;;true;2025;False;False;False;False;False;False;False;;NC;NC;;IDFM;23.0;Corbeil-Essonnes;60309;Corbeil-Essonnes;91174;CA Grand Paris Sud Seine Essonne Sénart;2.471535;48.613272;48.613272, 2.471535;"{""coordinates"": [2.471535, 48.613272], ""type"": ""Point""}";#N/A
Coteaux-beauclair;93.0;METRO 11;1039;abri;;46;;true;2024;False;False;False;False;False;False;False;;NC;NC;;RATP;65.0;Coteaux Beauclair;490783;Rosny-sous-Bois;93064;EPT Est Ensemble;2.4672941;48.8822902;48.8822902, 2.4672941;"{""coordinates"": [2.4672941, 48.8822902], ""type"": ""Point""}";#N/A
Coteaux-beauclair;93.0;METRO 11;1041;abri;;28;;true;2024;False;False;False;False;False;False;False;;NC;NC;;RATP;65.0;Coteaux Beauclair;490783;Rosny-sous-Bois;93064;EPT Est Ensemble;2.4667847;48.8816219;48.8816219, 2.4667847;"{""coordinates"": [2.4667847, 48.8816219], ""type"": ""Point""}";#N/A
Creteil-pointe Du Lac;94.0;METRO 8;493;abri;;40;;true;2025;False;False;False;False;False;False;False;;NC;NC;;RATP;65.0;Pointe du Lac;69884;Créteil;94028;EPT Grand Paris Sud Est Avenir;2.4635416;48.7688172;48.7688172, 2.4635416;"{""coordinates"": [2.4635416, 48.7688172], ""type"": ""Point""}";#N/A
Drancy;93.0;RER B;226;consigne;Drancy;28;;true;2021;False;False;True;False;False;False;False;30 €;0 €;https://mon-espace.iledefrance-mobilites.fr/souscription-service-parking-velos/226;https://www.iledefrance-mobilites.fr/services-mobilite-alternative/parkings-velos;SNCF;68.0;Drancy;72652;Drancy;93029;EPT Paris Terres d'Envol;2.4553925327744;48.932923757128;48.932923757128, 2.4553925327744;"{""coordinates"": [2.45539253277, 48.9329237571], ""type"": ""Point""}";548
Enghien-les-bains;95.0;TRAIN H;228;consigne;Enghien-les-bains;40;;true;2019;False;False;True;False;False;False;True;30 €;0 €;https://mon-espace.iledefrance-mobilites.fr/souscription-service-parking-velos/228;https://www.iledefrance-mobilites.fr/services-mobilite-alternative/parkings-velos;SNCF;68.0;Enghien-les-Bains;65485;Enghien-les-Bains;95210;CA Plaine Vallée;2.3075806887418;48.973062308726;48.973062308726, 2.3075806887418;"{""coordinates"": [2.30758068874, 48.9730623087], ""type"": ""Point""}";548
Epinay-sur-orge;91.0;RER C,TRAM 12;579;consigne;Epinay-sur-orge - Tram T12;40;;true;2025;True;True;True;False;False;True;False;30 €;0 €;https://mon-espace.iledefrance-mobilites.fr/souscription-service-parking-velos/579;https://www.iledefrance-mobilites.fr/services-mobilite-alternative/parkings-velos;IDFM;26.0;Épinay-sur-Orge;60915;Épinay-sur-Orge;91216;CA Paris Saclay;2.335123;48.670522;48.670522, 2.335123;"{""coordinates"": [2.335123, 48.670522], ""type"": ""Point""}";520
Epinay-sur-orge;91.0;RER C,TRAM 12;616;abri;;22;;true;2024;False;False;False;False;False;False;False;;NC;NC;;IDFM;26.0;Épinay-sur-Orge;60915;Épinay-sur-Orge;91216;CA Paris Saclay;2.335125;48.670505;48.670505, 2.335125;"{""coordinates"": [2.335125, 48.670505], ""type"": ""Point""}";#N/A
Epinay-sur-seine;93.0;RER C,TRAM 8,TRAM 11;255;consigne;Epinay-sur-seine;40;;true;2023;False;False;True;False;False;False;False;30 €;0 €;https://mon-espace.iledefrance-mobilites.fr/souscription-service-parking-velos/255;https://www.iledefrance-mobilites.fr/services-mobilite-alternative/parkings-velos;SNCF;68.0;Épinay-sur-Seine;72383;Épinay-sur-Seine;93031;EPT Plaine Commune;2.302637156258;48.954505645521;48.954505645521, 2.302637156258;"{""coordinates"": [2.30263715626, 48.9545056455], ""type"": ""Point""}";548
Epinay-villetaneuse;93.0;TRAIN H,TRAM 11;10;consigne;Epinay-villetaneuse;38;;true;2012;False;False;True;False;False;False;False;30 €;0 €;https://mon-espace.iledefrance-mobilites.fr/souscription-service-parking-velos/10;https://www.iledefrance-mobilites.fr/services-mobilite-alternative/parkings-velos;SNCF;68.0;Épinay - Villetaneuse;65227;Épinay-sur-Seine;93031;EPT Plaine Commune;2.3292007944422;48.957845413861;48.957845413861, 2.3292007944422;"{""coordinates"": [2.32920079444, 48.9578454139], ""type"": ""Point""}";548
Neuville Universite;95.0;RER A,TRAIN L;27;consigne;Neuville Universite;32;;true;2012;False;False;True;False;False;False;False;;NC;https://portail.cykleo.fr/veligo_cergypontoise;;CA - Cergy Pontoise;53.0;Neuville Université;66436;Neuville-sur-Oise;95450;CA de Cergy-Pontoise;2.07911114945;49.0143577214;49.0143577214, 2.07911114945;"{""coordinates"": [2.07911114945, 49.0143577214], ""type"": ""Point""}";523
Evry-courcouronnes;91.0;RER D,TRAM 12,TZEN 4;1156;abri;;24;;true;2025;False;False;False;False;False;False;False;;NC;NC;;SNCF;68.0;Évry - Courcouronnes;60450;Évry-Courcouronnes;91228;CA Grand Paris Sud Seine Essonne Sénart;2.427781;48.625928;48.625928, 2.427781;"{""coordinates"": [2.427781, 48.625928], ""type"": ""Point""}";#N/A
Evry-val De Seine;91.0;RER D;712;abri;;20;;true;2026;True;True;False;False;False;False;False;;NC;NC;;IDFM;23.0;Évry - Val de Seine;60522;Évry-Courcouronnes;91228;CA Grand Paris Sud Seine Essonne Sénart;2.45252;48.634465;48.634465, 2.45252;"{""coordinates"": [2.45252, 48.634465], ""type"": ""Point""}";#N/A
Fontenay-sous-bois;94.0;RER A;730;consigne;Fontenay-sous-bois;120;;true;2024;False;False;False;False;False;True;False;30 €;0 €;https://ratp.parkings-velos.iledefrance-mobilites.fr/;;RATP;65.0;Fontenay-sous-Bois;71630;Fontenay-sous-Bois;94033;EPT Paris Est Marne et Bois;2.4652806648624;48.8433877563212;48.8433877563212, 2.4652806648624;"{""coordinates"": [2.46528066486, 48.8433877563], ""type"": ""Point""}";526
Front Populaire;93.0;METRO 12;584;abri;;48;;true;2025;False;False;False;False;False;False;False;;NC;NC;;RATP;65.0;Front Populaire;74041;Aubervilliers;93001;EPT Plaine Commune;2.3659483;48.9068703;48.9068703, 2.3659483;"{""coordinates"": [2.3659483, 48.9068703], ""type"": ""Point""}";#N/A
Gargenville;78.0;TRAIN J;716;consigne;Gargenville;12;;true;2025;False;False;False;False;False;True;False;30 €;0 €;https://mon-espace.iledefrance-mobilites.fr/souscription-service-parking-velos/716;https://www.iledefrance-mobilites.fr/services-mobilite-alternative/parkings-velos;IDFM;35.0;Gargenville;65732;Gargenville;78267;CU Grand Paris Seine et Oise;1.809149;48.98321;48.98321, 1.809149;"{""coordinates"": [1.809149, 48.98321], ""type"": ""Point""}";527
Grigny-centre;91.0;RER D;1276;abri;;46;;true;2026;False;False;True;False;False;False;False;;NC;NC;;SNCF;68.0;Grigny Centre;60797;Grigny;91286;CA Grand Paris Sud Seine Essonne Sénart;2.395468;48.653302;48.653302, 2.395468;"{""coordinates"": [2.395468, 48.653302], ""type"": ""Point""}";#N/A
Herblay;95.0;TRAIN J;662;abri;;14;0;true;2021;False;False;True;False;False;False;False;;NC;NC;;CA - Val Parisis;58.0;Herblay;65897;Herblay-sur-Seine;95306;CA Val Parisis;2.161172;48.990833;48.990833, 2.161172;"{""coordinates"": [2.161172, 48.990833], ""type"": ""Point""}";#N/A
Hôpital De Montfermeil;93.0;TRAM 4;337;consigne;Hôpital De Montfermeil;32;;true;2022;False;False;True;False;False;False;False;30 €;0 €;https://mon-espace.iledefrance-mobilites.fr/souscription-service-parking-velos/337;https://www.iledefrance-mobilites.fr/services-mobilite-alternative/parkings-velos;SNCF;68.0;Hôpital de Montfermeil;73329;Montfermeil;93047;EPT Grand Paris Grand Est;2.5713580631499;48.90035704833;48.90035704833, 2.5713580631499;"{""coordinates"": [2.57135806315, 48.9003570483], ""type"": ""Point""}";548
Hopital Intercommunal;94.0;TVM;215;abri;;12;;true;2020;False;False;False;False;False;False;False;;NC;NC;;Département - Val-de-Marne;;Hôpital Intercommunal;70292;Créteil;94028;EPT Grand Paris Sud Est Avenir;2.464638;48.797698;48.797698, 2.464638;"{""coordinates"": [2.464638, 48.797698], ""type"": ""Point""}";#N/A
Isles-armentieres-congis;77.0;TRAIN P;1177;abri;;12;;true;2025;False;False;False;False;False;False;False;;NC;NC;;IDFM;11.0;ISLES - ARMENTIÈRES - CONGIS;69162;Isles-les-Meldeuses;77231;CC du Pays de l'Ourcq;3.0072329749875;48.9977829669848;48.9977829669848, 3.0072329749875;"{""coordinates"": [3.00723297499, 48.997782967], ""type"": ""Point""}";#N/A
Issou-porcheville;78.0;TRAIN J;231;abri;;20;;true;2019;False;False;False;False;False;False;False;;NC;NC;https://www.iledefrance-mobilites.fr/services-mobilite-alternative/parkings-velos;SNCF;68.0;Issou - Porcheville;65668;Issou;78314;CU Grand Paris Seine et Oise;1.78397344299;48.9792922588;48.9792922588, 1.78397344299;"{""coordinates"": [1.78397344299, 48.9792922588], ""type"": ""Point""}";#N/A
Issy-val-de-seine;92.0;RER C,TRAM 2;599;abri;;20;;true;2022;False;False;False;False;False;False;False;;NC;NC;https://www.iledefrance-mobilites.fr/services-mobilite-alternative/parkings-velos;SNCF;68.0;Issy Val de Seine;71016;Issy-les-Moulineaux;92040;EPT Grand Paris Seine Ouest;2.26383693514;48.8294900219;48.8294900219, 2.26383693514;"{""coordinates"": [2.26383693514, 48.8294900219], ""type"": ""Point""}";#N/A
Jean Rostand;91.0;TZEN 4;1501;abri;;12;;true;2025;False;False;False;False;False;False;False;;NC;NC;;IDFM;23.0;NC;0;;#N/A;CA Grand Paris Sud Seine Essonne Sénart;2.432004;48.623748;48.623748, 2.432004;"{""coordinates"": [2.432004, 48.623748], ""type"": ""Point""}";#N/A
Joinville-le-pont;94.0;RER A;591;consigne;Joinville-le-pont;132;;true;2025;True;True;True;False;False;True;False;30 €;0 €;https://ratp.parkings-velos.iledefrance-mobilites.fr/;;RATP;65.0;Joinville-le-Pont;70640;Joinville-le-Pont;94042;EPT Paris Est Marne et Bois;2.4633937;48.819861;48.819861, 2.4633937;"{""coordinates"": [2.4633937, 48.819861], ""type"": ""Point""}";526
Jouy-en-josas;78.0;RER C,TRAIN V;955;abri;;20;;true;2025;False;False;False;False;False;False;False;;NC;NC;https://www.iledefrance-mobilites.fr/services-mobilite-alternative/parkings-velos;SNCF;68.0;Jouy-en-Josas;63523;Jouy-en-Josas;78322;CA Versailles Grand Parc;2.163313;48.764973;48.764973, 2.163313;"{""coordinates"": [2.163313, 48.764973], ""type"": ""Point""}";#N/A
Jouy-en-josas;78.0;RER C,TRAIN V;956;abri;;20;;true;2024;False;False;False;False;False;False;False;;NC;NC;https://www.iledefrance-mobilites.fr/services-mobilite-alternative/parkings-velos;SNCF;68.0;Jouy-en-Josas;63523;Jouy-en-Josas;78322;CA Versailles Grand Parc;2.163266;48.764917;48.764917, 2.163266;"{""coordinates"": [2.163266, 48.764917], ""type"": ""Point""}";#N/A
Juvisy;91.0;RER C,RER D;626;consigne;Juvisy - Mairie;120;;true;2020;False;False;True;False;False;True;False;30 €;0 €;https://mon-espace.iledefrance-mobilites.fr/souscription-service-parking-velos/626;https://www.iledefrance-mobilites.fr/services-mobilite-alternative/parkings-velos;IDFM;25.0;Juvisy;478505;Juvisy-sur-Orge;91326;EPT Grand Orly Seine Bièvre;2.382251;48.691457;48.691457, 2.382251;"{""coordinates"": [2.382251, 48.691457], ""type"": ""Point""}";518
La Barre-ormesson;95.0;TRAIN H;1433;consigne;La Barre-ormesson;20;0;true;2026;True;True;True;False;False;False;True;30 €;0 €;https://mon-espace.iledefrance-mobilites.fr/souscription-service-parking-velos/1433;https://www.iledefrance-mobilites.fr/services-mobilite-alternative/parkings-velos;SNCF;68.0;La Barre Ormesson;65360;Deuil-la-Barre;95197;CA Plaine Vallée;2.317128;48.966164;48.966164, 2.317128;"{""coordinates"": [2.317128, 48.966164], ""type"": ""Point""}";548
La Barre-ormesson;95.0;TRAIN H;1434;abri;;6;0;true;2026;False;False;False;False;False;False;False;;NC;NC;;SNCF;68.0;La Barre Ormesson;65360;Deuil-la-Barre;95197;CA Plaine Vallée;2.31716;48.966123;48.966123, 2.31716;"{""coordinates"": [2.31716, 48.966123], ""type"": ""Point""}";#N/A
La Celle-saint-cloud;78.0;TRAIN L;987;abri;;50;;true;2025;False;False;True;False;False;False;False;;NC;NC;;SNCF;68.0;La Celle-Saint-Cloud;64251;La Celle-Saint-Cloud;78126;CA Versailles Grand Parc;2.138288;48.842405;48.842405, 2.138288;"{""coordinates"": [2.138288, 48.842405], ""type"": ""Point""}";548
La Celle-saint-cloud;78.0;TRAIN L;986;abri;;24;;true;2025;False;False;False;False;False;False;False;;NC;NC;;SNCF;68.0;La Celle-Saint-Cloud;64251;La Celle-Saint-Cloud;78126;CA Versailles Grand Parc;2.138183;48.842977;48.842977, 2.138183;"{""coordinates"": [2.138183, 48.842977], ""type"": ""Point""}";548
La Croix De Berny;92.0;RER B,TRAM 10;356;consigne;La Croix De Berny;76;2;true;2023;False;False;False;False;False;False;False;30 €;0 €;https://abris-velos.valleesud.fr;;EPT - Vallée Sud Grand Paris;61.0;La Croix de Berny;69813;Antony;92002;EPT Vallée Sud Grand Paris;2.304118;48.762534;48.762534, 2.304118;"{""coordinates"": [2.304118, 48.762534], ""type"": ""Point""}";511
La Frette-montigny;95.0;TRAIN J;874;abri;;14;0;true;2024;False;False;False;False;False;False;False;;NC;NC;;CA - Val Parisis;58.0;La Frette - Montigny;65659;La Frette-sur-Seine;95257;CA Val Parisis;2.180005;48.980451;48.980451, 2.180005;"{""coordinates"": [2.180005, 48.980451], ""type"": ""Point""}";#N/A
La Plaine-stade De France;93.0;RER B;103;consigne;La Plaine-stade De France;40;;true;2017;False;False;True;False;False;False;False;30 €;0 €;https://mon-espace.iledefrance-mobilites.fr/souscription-service-parking-velos/103;https://www.iledefrance-mobilites.fr/services-mobilite-alternative/parkings-velos;SNCF;68.0;La Plaine Stade de France;72211;Saint-Denis;93066;EPT Plaine Commune;2.3621661977631;48.918263218079;48.918263218079, 2.3621661977631;"{""coordinates"": [2.36216619776, 48.9182632181], ""type"": ""Point""}";548
Le Clos La Garenne;94.0;TVM;216;abri;;12;;true;2020;False;False;False;False;False;False;False;;NC;NC;;Département - Val-de-Marne;;LE CLOS LA GARENNE;99999024;Fresnes;94034;EPT Grand Orly Seine Bièvre;2.327682;48.757517;48.757517, 2.327682;"{""coordinates"": [2.327682, 48.757517], ""type"": ""Point""}";#N/A
Le Mee;77.0;RER D;780;abri;;40;;true;2023;False;False;False;False;False;False;False;;NC;NC;;IDFM;18.0;Le Mée;62003;Le Mée-sur-Seine;77285;CA Melun Val de Seine;2.62681298660878;48.5373278982336;48.5373278982336, 2.62681298660878;"{""coordinates"": [2.62681298661, 48.5373278982], ""type"": ""Point""}";516
Le Petit Fresnes;94.0;TVM;217;abri;;12;;true;2020;False;False;False;False;False;False;False;;NC;NC;;Département - Val-de-Marne;;LE PETIT FRESNES;99999025;Fresnes;94034;EPT Grand Orly Seine Bièvre;2.324939;48.758451;48.758451, 2.324939;"{""coordinates"": [2.324939, 48.758451], ""type"": ""Point""}";#N/A
Les Boullereaux-champigny;94.0;RER E;1100;abri;;34;;true;2024;False;False;False;False;False;False;False;;NC;NC;https://www.iledefrance-mobilites.fr/services-mobilite-alternative/parkings-velos;SNCF;68.0;Les Boullereaux Champigny;73098;Champigny-sur-Marne;94017;EPT Paris Est Marne et Bois;2.51216347510774;48.8249544028078;48.8249544028078, 2.51216347510774;"{""coordinates"": [2.51216347511, 48.8249544028], ""type"": ""Point""}";#N/A
Les Boullereaux-champigny;94.0;RER E;1099;abri;;14;;true;2024;False;False;False;False;False;False;False;;NC;NC;https://www.iledefrance-mobilites.fr/services-mobilite-alternative/parkings-velos;SNCF;68.0;Les Boullereaux Champigny;73098;Champigny-sur-Marne;94017;EPT Paris Est Marne et Bois;2.51200975033273;48.8249479255911;48.8249479255911, 2.51200975033273;"{""coordinates"": [2.51200975033, 48.8249479256], ""type"": ""Point""}";#N/A
Les Clairieres-de-verneuil;78.0;TRAIN J;1228;abri;;10;;true;2025;False;False;False;False;False;False;False;;NC;NC;;IDFM;34.0;Les Clairières de Verneuil;65985;Verneuil-sur-Seine;78642;CU Grand Paris Seine et Oise;1.95523937002587;48.9920709539519;48.9920709539519, 1.95523937002587;"{""coordinates"": [1.95523937003, 48.992070954], ""type"": ""Point""}";#N/A
L'hay Les Roses;94.0;METRO 14;1087;abri;;40;;true;2024;False;False;False;False;False;False;False;;NC;NC;;RATP;65.0;L'Haÿ-les-Roses;69974;L'Haÿ-les-Roses;94038;EPT Grand Orly Seine Bièvre;2.35376680075023;48.7760704382974;48.7760704382974, 2.35376680075023;"{""coordinates"": [2.35376680075, 48.7760704383], ""type"": ""Point""}";#N/A
Lieusaint-moissy;77.0;RER D,TZEN 1;747;consigne;Lieusaint-moissy (sortie Côté Lieusaint);60;;true;2024;True;True;True;False;True;True;False;30 €;0 €;https://mon-espace.iledefrance-mobilites.fr/souscription-service-parking-velos/747;https://www.iledefrance-mobilites.fr/services-mobilite-alternative/parkings-velos;IDFM;19.0;Lieusaint - Moissy;62412;Lieusaint;77251;CA Grand Paris Sud Seine Essonne Sénart;2.568333;48.628039;48.628039, 2.568333;"{""coordinates"": [2.568333, 48.628039], ""type"": ""Point""}";515
Lieusaint-moissy;77.0;RER D,TZEN 1;830;consigne;Lieusaint-moissy (sortie Côté Moisy);60;;true;2024;True;True;True;False;True;True;False;30 €;0 €;https://mon-espace.iledefrance-mobilites.fr/souscription-service-parking-velos/830;https://www.iledefrance-mobilites.fr/services-mobilite-alternative/parkings-velos;IDFM;19.0;Lieusaint - Moissy;62412;Lieusaint;77251;CA Grand Paris Sud Seine Essonne Sénart;2.570539;48.628255;48.628255, 2.570539;"{""coordinates"": [2.570539, 48.628255], ""type"": ""Point""}";515
Lieusaint-moissy;77.0;RER D,TZEN 1;1190;abri;;40;;true;2024;False;False;True;False;False;False;False;;NC;https://idf-mobilites.fr/senart-parking-velos;;IDFM;19.0;Lieusaint - Moissy;62412;Lieusaint;77251;CA Grand Paris Sud Seine Essonne Sénart;2.56834095675136;48.628045905012;48.628045905012, 2.56834095675136;"{""coordinates"": [2.56834095675, 48.628045905], ""type"": ""Point""}";#N/A
Limay;78.0;TRAIN J;232;abri;;20;;true;2019;False;False;False;False;False;False;False;;NC;NC;https://www.iledefrance-mobilites.fr/services-mobilite-alternative/parkings-velos;SNCF;68.0;Limay;65788;Limay;78335;CU Grand Paris Seine et Oise;1.74753589373065;48.9845086074347;48.9845086074347, 1.74753589373065;"{""coordinates"": [1.74753589373, 48.9845086074], ""type"": ""Point""}";#N/A
Chatou - Croissy;78.0;RER A;1150;abri;;34;;true;2025;False;False;False;False;False;False;False;;NC;NC;;RATP;65.0;Chatou - Croissy;64483;Chatou;78146;CA Saint-Germain Boucles de Seine;2.157022;48.8855;48.8855, 2.157022;"{""coordinates"": [2.157022, 48.8855], ""type"": ""Point""}";#N/A
Lognes;77.0;RER A;23;consigne;Lognes;40;;true;2015;False;False;True;False;False;False;False;30 €;0 €;https://portail.cykleo.fr/park_paris_vallee_marne;;CA - Paris Vallée de la Marne;56.0;Lognes;68123;Lognes;77258;CA Paris - Vallée de la Marne;2.63355233775;48.839275174;48.839275174, 2.63355233775;"{""coordinates"": [2.63355233775, 48.839275174], ""type"": ""Point""}";510
Longjumeau;91.0;TRAM 12;891;consigne;Longjumeau;32;;true;2024;False;False;True;False;False;False;False;30 €;0 €;https://mon-espace.iledefrance-mobilites.fr/souscription-service-parking-velos/891;https://www.iledefrance-mobilites.fr/services-mobilite-alternative/parkings-velos;SNCF;68.0;Longjumeau;62977;Longjumeau;91345;CA Paris Saclay;2.2948279986856;48.702167167507;48.702167167507, 2.2948279986856;"{""coordinates"": [2.29482799869, 48.7021671675], ""type"": ""Point""}";548
Gabriel Peri;92.0;METRO 13;1364;abri;;10;;true;2024;False;False;False;False;False;False;False;;NC;NC;;RATP;65.0;Gabriel Péri;72203;Asnières-sur-Seine;92004;EPT Boucle Nord de Seine;2.29451045;48.9160298;48.9160298, 2.29451045;"{""coordinates"": [2.29451045, 48.9160298], ""type"": ""Point""}";#N/A
Garches-marnes-la-coquette;92.0;TRAIN L;570;consigne;Garches-marnes-la-coquette;36;;true;2020;False;False;False;False;False;False;False;20 €;20 €;https://garches.fr/deplacements-et-stationnement/stationnement/;;Garches;62.0;Garches - Marnes-la-Coquette;70713;Garches;92033;EPT Paris Ouest La Défense;2.187367;48.83862;48.83862, 2.187367;"{""coordinates"": [2.187367, 48.83862], ""type"": ""Point""}";530
Louvres;95.0;RER D;1248;abri;;26;;true;2026;True;True;False;False;False;False;False;;NC;NC;;IDFM;6.0;Louvres;69300;Louvres;95351;CA Roissy Pays de France;2.502751;49.049375;49.049375, 2.502751;"{""coordinates"": [2.502751, 49.049375], ""type"": ""Point""}";#N/A
Lozere;91.0;RER B;938;abri;;24;;true;2023;False;False;False;False;False;False;False;;NC;NC;;RATP;65.0;Lozère;63029;Palaiseau;91477;CA Paris Saclay;2.21210848;48.70608776;48.70608776, 2.21210848;"{""coordinates"": [2.21210848, 48.70608776], ""type"": ""Point""}";#N/A
Mairie Des Lilas;93.0;METRO 11;388;consigne;Mairie Des Lilas;28;;true;2024;False;False;False;False;False;True;False;30 €;0 €;https://ratp.parkings-velos.iledefrance-mobilites.fr/;;RATP;65.0;Mairie des Lilas;71909;Les Lilas;93045;EPT Est Ensemble;2.416213;48.879258;48.879258, 2.416213;"{""coordinates"": [2.416213, 48.879258], ""type"": ""Point""}";526
Malakoff - Plateau De Vanves;92.0;METRO 13;110;abri;;104;;true;2023;False;False;False;False;False;False;False;;NC;NC;;RATP;65.0;Malakoff - Plateau de Vanves;73766;Malakoff;92046;EPT Vallée Sud Grand Paris;2.298395;48.822465;48.822465, 2.298395;"{""coordinates"": [2.298395, 48.822465], ""type"": ""Point""}";#N/A
Marchais Guesdon;91.0;TZEN 4;1508;abri;;6;;true;2025;False;False;False;False;False;False;False;;NC;NC;;IDFM;23.0;NC;0;;#N/A;CA Grand Paris Sud Seine Essonne Sénart;2.412396;48.632992;48.632992, 2.412396;"{""coordinates"": [2.412396, 48.632992], ""type"": ""Point""}";#N/A
Mery-sur-oise;95.0;TRAIN H;1124;abri;;24;;true;2025;False;False;False;False;False;False;False;;NC;NC;https://www.iledefrance-mobilites.fr/services-mobilite-alternative/parkings-velos;SNCF;68.0;Méry-sur-Oise;66934;Méry-sur-Oise;95394;CC de la Vallée de l'Oise et des Trois Forêts;2.0984791837431;48.996732049578;48.996732049578, 2.0984791837431;"{""coordinates"": [2.09847918374, 48.9967320496], ""type"": ""Point""}";#N/A
Chatou - Croissy;78.0;RER A;1149;abri;;136;;true;2025;False;False;False;False;False;False;False;;NC;NC;https://www.iledefrance-mobilites.fr/services-mobilite-alternative/parkings-velos;RATP;65.0;Chatou - Croissy;64483;Chatou;78146;CA Saint-Germain Boucles de Seine;2.156924;48.885455;48.885455, 2.156924;"{""coordinates"": [2.156924, 48.885455], ""type"": ""Point""}";#N/A
Maurecourt;78.0;TRAIN J;849;consigne;Maurecourt;10;;true;2025;True;True;True;False;False;False;False;30 €;0 €;https://idf-mobilites.fr/poissymur-parking-velos;;IDFM;34.0;Maurecourt;65827;Andrésy;78015;CU Grand Paris Seine et Oise;2.059841;48.987392;48.987392, 2.059841;"{""coordinates"": [2.059841, 48.987392], ""type"": ""Point""}";544
Mennecy;91.0;RER D;1164;abri;;12;;true;2024;False;False;False;False;False;False;False;;NC;NC;https://www.iledefrance-mobilites.fr/services-mobilite-alternative/parkings-velos;SNCF;68.0;Mennecy;59984;Mennecy;91386;CC du Val d'Essonne;2.432762;48.571053;48.571053, 2.432762;"{""coordinates"": [2.432762, 48.571053], ""type"": ""Point""}";#N/A
Messidor Libertes;94.0;393,423,451;218;abri;;12;;true;2020;False;False;False;False;False;False;False;;NC;NC;;Département - Val-de-Marne;;Messidor - Libertés;69872;Bonneuil-sur-Marne;94011;EPT Grand Paris Sud Est Avenir;2.486529;48.767909;48.767909, 2.486529;"{""coordinates"": [2.486529, 48.767909], ""type"": ""Point""}";#N/A
Meudon;92.0;TRAIN N;897;abri;;10;;true;2024;False;False;True;False;False;False;False;;NC;NC;https://www.iledefrance-mobilites.fr/services-mobilite-alternative/parkings-velos;SNCF;68.0;Meudon;70515;Meudon;92048;EPT Grand Paris Seine Ouest;2.240891;48.814843;48.814843, 2.240891;"{""coordinates"": [2.240891, 48.814843], ""type"": ""Point""}";#N/A
Montigny-beauchamp;95.0;RER C,TRAIN H;26;consigne;Montigny - Rue De La Gare;40;;true;2012;False;False;True;False;False;False;False;30 €;0 €;https://mon-espace.iledefrance-mobilites.fr/souscription-service-parking-velos/26;https://www.iledefrance-mobilites.fr/services-mobilite-alternative/parkings-velos;SNCF;68.0;Montigny - Beauchamp;66335;Montigny-lès-Cormeilles;95424;CA Val Parisis;2.1980280198898;49.007112857602;49.007112857602, 2.1980280198898;"{""coordinates"": [2.19802801989, 49.0071128576], ""type"": ""Point""}";548
Montsoult-maffliers;95.0;TRAIN H;1068;abri;;9;;true;2024;False;False;False;False;False;False;False;;NC;NC;https://www.iledefrance-mobilites.fr/services-mobilite-alternative/parkings-velos;SNCF;68.0;Montsoult - Maffliers;67000;Montsoult;95430;CC Carnelle Pays-De-France;2.322052;49.06597;49.06597, 2.322052;"{""coordinates"": [2.322052, 49.06597], ""type"": ""Point""}";#N/A
Les Agnettes;92.0;METRO 13;572;abri;;22;;true;2023;False;False;False;False;False;False;False;;NC;NC;;RATP;65.0;Les Agnettes;72240;Asnières-sur-Seine;92004;EPT Boucle Nord de Seine;2.28603;48.92302;48.92302, 2.28603;"{""coordinates"": [2.28603, 48.92302], ""type"": ""Point""}";#N/A
Nogent-le-perreux;94.0;RER E;163;consigne;Nogent-le-perreux;40;;true;2018;False;False;True;False;False;False;False;30 €;0 €;https://mon-espace.iledefrance-mobilites.fr/souscription-service-parking-velos/163;https://www.iledefrance-mobilites.fr/services-mobilite-alternative/parkings-velos;SNCF;68.0;Nogent - Le Perreux;71609;Nogent-sur-Marne;94052;EPT Paris Est Marne et Bois;2.4938878423838;48.838573168459;48.838573168459, 2.4938878423838;"{""coordinates"": [2.49388784238, 48.8385731685], ""type"": ""Point""}";548
Nogent-le-perreux;94.0;RER E;165;abri;;14;;true;2018;False;False;False;False;False;False;False;;NC;NC;;Département - Val-de-Marne;;Nogent - Le Perreux;71609;Le Perreux-sur-Marne;94058;EPT Paris Est Marne et Bois;2.49475104804;48.8384035837;48.8384035837, 2.49475104804;"{""coordinates"": [2.49475104804, 48.8384035837], ""type"": ""Point""}";#N/A
