{"type":"FeatureCollection","crs":{"type":"name","properties":{"name":"EPSG:4326"}},"features":[{"type":"Feature","geometry":{"type":"Point","coordinates":[2.373317,48.878683]},"properties":{"nom_voie":"ALL ANNE DE BEAUJEU","code_postal":"75019","arrondissement":19,"prix_m2_median":9822.222222222223,"nb_transactions":3,"nb_lignes_metro":2,"nb_lignes_bus":7,"nb_points_velib":0,"score_accessibilite":9,"iaml_brut":1091.358024691358,"iaml_score":56.7,"iaml_label":"Modéré"}},{"type":"Feature","geometry":{"type":"Point","coordinates":[2.378821,48.89379]},"properties":{"nom_voie":"ALL DES EIDERS","code_postal":"75019","arrondissement":19,"prix_m2_median":7564.102564102564,"nb_transactions":15,"nb_lignes_metro":1,"nb_lignes_bus":9,"nb_points_velib":0,"score_accessibilite":10,"iaml_brut":756.4102564102565,"iaml_score":23.7,"iaml_label":"Accessible"}},{"type":"Feature","geometry":{"type":"Point","coordinates":[2.379313,48.873229]},"properties":{"nom_voie":"ALL GABRIELLE DESTREES","code_postal":"75019","arrondissement":19,"prix_m2_median":8397.677580466148,"nb_transactions":6,"nb_lignes_metro":2,"nb_lignes_bus":6,"nb_points_velib":0,"score_accessibilite":8,"iaml_brut":1049.7096975582685,"iaml_score":53.2,"iaml_label":"Modéré"}},{"type":"Feature","geometry":{"type":"Point","coordinates":[2.384231,48.869706]},"properties":{"nom_voie":"ALL GEORGES ROUAULT","code_postal":"75020","arrondissement":20,"prix_m2_median":9226.5625,"nb_transactions":4,"nb_lignes_metro":2,"nb_lignes_bus":6,"nb_points_velib":0,"score_accessibilite":8,"iaml_brut":1153.3203125,"iaml_score":62.3,"iaml_label":"Tendu"}},{"type":"Feature","geometry":{"type":"Point","coordinates":[2.377983,48.875228]},"properties":{"nom_voie":"ALL LOUISE LABE","code_postal":"75019","arrondissement":19,"prix_m2_median":9597.701149425287,"nb_transactions":11,"nb_lignes_metro":3,"nb_lignes_bus":6,"nb_points_velib":0,"score_accessibilite":9,"iaml_brut":1066.411238825032,"iaml_score":54.8,"iaml_label":"Modéré"}},{"type":"Feature","geometry":{"type":"Point","coordinates":[2.376561,48.874667]},"properties":{"nom_voie":"ALL PERNETTE DU GUILLET","code_postal":"75019","arrondissement":19,"prix_m2_median":8239.43661971831,"nb_transactions":3,"nb_lignes_metro":2,"nb_lignes_bus":7,"nb_points_velib":0,"score_accessibilite":9,"iaml_brut":915.4929577464789,"iaml_score":40.5,"iaml_label":"Modéré"}},{"type":"Feature","geometry":{"type":"Point","coordinates":[2.370954,48.85945]},"properties":{"nom_voie":"ALL VERTE","code_postal":"75011","arrondissement":11,"prix_m2_median":11609.756097560976,"nb_transactions":3,"nb_lignes_metro":3,"nb_lignes_bus":7,"nb_points_velib":1,"score_accessibilite":11,"iaml_brut":1055.4323725055433,"iaml_score":53.9,"iaml_label":"Modéré"}},{"type":"Feature","geometry":{"type":"Point","coordinates":[2.355189,48.86544]},"properties":{"nom_voie":"ARTS ET METIERS","code_postal":"75003","arrondissement":3,"prix_m2_median":25694.444444444445,"nb_transactions":5,"nb_lignes_metro":5,"nb_lignes_bus":10,"nb_points_velib":3,"score_accessibilite":18,"iaml_brut":1427.4691358024693,"iaml_score":78.7,"iaml_label":"Tendu"}},{"type":"Feature","geometry":{"type":"Point","coordinates":[2.280999,48.856588]},"properties":{"nom_voie":"AV ALPHONSE XIII","code_postal":"75016","arrondissement":16,"prix_m2_median":11069.094117647059,"nb_transactions":7,"nb_lignes_metro":1,"nb_lignes_bus":6,"nb_points_velib":1,"score_accessibilite":8,"iaml_brut":1383.6367647058823,"iaml_score":77.1,"iaml_label":"Tendu"}},{"type":"Feature","geometry":{"type":"Point","coordinates":[2.303125,48.859459]},"properties":{"nom_voie":"AV BOSQUET","code_postal":"75007","arrondissement":7,"prix_m2_median":14056.842105263158,"nb_transactions":29,"nb_lignes_metro":1,"nb_lignes_bus":7,"nb_points_velib":0,"score_accessibilite":8,"iaml_brut":1757.1052631578948,"iaml_score":88.0,"iaml_label":"Très tendu"}},{"type":"Feature","geometry":{"type":"Point","coordinates":[2.28078,48.870347]},"properties":{"nom_voie":"AV BUGEAUD","code_postal":"75016","arrondissement":16,"prix_m2_median":12051.28205128205,"nb_transactions":13,"nb_lignes_metro":1,"nb_lignes_bus":4,"nb_points_velib":0,"score_accessibilite":5,"iaml_brut":2410.25641025641,"iaml_score":93.5,"iaml_label":"Très tendu"}},{"type":"Feature","geometry":{"type":"Point","coordinates":[2.293434,48.876111]},"properties":{"nom_voie":"AV CARNOT","code_postal":"75017","arrondissement":17,"prix_m2_median":13108.293721973094,"nb_transactions":13,"nb_lignes_metro":3,"nb_lignes_bus":13,"nb_points_velib":1,"score_accessibilite":17,"iaml_brut":771.076101292535,"iaml_score":25.6,"iaml_label":"Accessible"}},{"type":"Feature","geometry":{"type":"Point","coordinates":[2.298471,48.853487]},"properties":{"nom_voie":"AV CHARLES FLOQUET","code_postal":"75007","arrondissement":7,"prix_m2_median":21109.93883792049,"nb_transactions":6,"nb_lignes_metro":2,"nb_lignes_bus":6,"nb_points_velib":0,"score_accessibilite":8,"iaml_brut":2638.7423547400613,"iaml_score":94.2,"iaml_label":"Très tendu"}},{"type":"Feature","geometry":{"type":"Point","coordinates":[2.370405,48.874909]},"properties":{"nom_voie":"AV CLAUDE VELLEFAUX","code_postal":"75010","arrondissement":10,"prix_m2_median":9482.758620689656,"nb_transactions":25,"nb_lignes_metro":1,"nb_lignes_bus":4,"nb_points_velib":0,"score_accessibilite":5,"iaml_brut":1896.5517241379312,"iaml_score":90.1,"iaml_label":"Très tendu"}},{"type":"Feature","geometry":{"type":"Point","coordinates":[2.316983,48.847977]},"properties":{"nom_voie":"AV CONSTANT COQUELIN","code_postal":"75007","arrondissement":7,"prix_m2_median":5623.747927031509,"nb_transactions":4,"nb_lignes_metro":3,"nb_lignes_bus":6,"nb_points_velib":0,"score_accessibilite":9,"iaml_brut":624.8608807812788,"iaml_score":12.8,"iaml_label":"Très accessible"}},{"type":"Feature","geometry":{"type":"Point","coordinates":[2.382586,48.895257]},"properties":{"nom_voie":"AV CORENTIN CARIOU","code_postal":"75019","arrondissement":19,"prix_m2_median":8375.555555555555,"nb_transactions":10,"nb_lignes_metro":1,"nb_lignes_bus":9,"nb_points_velib":0,"score_accessibilite":10,"iaml_brut":837.5555555555554,"iaml_score":32.6,"iaml_label":"Accessible"}},{"type":"Feature","geometry":{"type":"Point","coordinates":[2.284776,48.864759]},"properties":{"nom_voie":"AV D EYLAU","code_postal":"75016","arrondissement":16,"prix_m2_median":12117.900172117039,"nb_transactions":10,"nb_lignes_metro":2,"nb_lignes_bus":7,"nb_points_velib":2,"score_accessibilite":11,"iaml_brut":1101.6272883742763,"iaml_score":58.0,"iaml_label":"Modéré"}},{"type":"Feature","geometry":{"type":"Point","coordinates":[2.295233,48.866718]},"properties":{"nom_voie":"AV D IENA","code_postal":"75016","arrondissement":16,"prix_m2_median":14558.823529411764,"nb_transactions":11,"nb_lignes_metro":2,"nb_lignes_bus":8,"nb_points_velib":1,"score_accessibilite":11,"iaml_brut":1323.5294117647059,"iaml_score":73.7,"iaml_label":"Tendu"}},{"type":"Feature","geometry":{"type":"Point","coordinates":[2.357079,48.827961]},"properties":{"nom_voie":"AV D ITALIE","code_postal":"75013","arrondissement":13,"prix_m2_median":8840.277777777777,"nb_transactions":82,"nb_lignes_metro":3,"nb_lignes_bus":14,"nb_points_velib":0,"score_accessibilite":17,"iaml_brut":520.0163398692811,"iaml_score":7.4,"iaml_label":"Très accessible"}},{"type":"Feature","geometry":{"type":"Point","coordinates":[2.367141,48.823249]},"properties":{"nom_voie":"AV D IVRY","code_postal":"75013","arrondissement":13,"prix_m2_median":7286.766076421249,"nb_transactions":22,"nb_lignes_metro":2,"nb_lignes_bus":6,"nb_points_velib":0,"score_accessibilite":8,"iaml_brut":910.8457595526561,"iaml_score":39.9,"iaml_label":"Accessible"}},{"type":"Feature","geometry":{"type":"Point","coordinates":[2.317529,48.847529]},"properties":{"nom_voie":"AV DANIEL LESUEUR","code_postal":"75007","arrondissement":7,"prix_m2_median":11280.0,"nb_transactions":3,"nb_lignes_metro":3,"nb_lignes_bus":6,"nb_points_velib":0,"score_accessibilite":9,"iaml_brut":1253.3333333333333,"iaml_score":69.3,"iaml_label":"Tendu"}},{"type":"Feature","geometry":{"type":"Point","coordinates":[2.392845,48.839999]},"properties":{"nom_voie":"AV DAUMESNIL","code_postal":"75012","arrondissement":12,"prix_m2_median":10833.333333333334,"nb_transactions":89,"nb_lignes_metro":2,"nb_lignes_bus":9,"nb_points_velib":0,"score_accessibilite":11,"iaml_brut":984.8484848484849,"iaml_score":47.5,"iaml_label":"Modéré"}},{"type":"Feature","geometry":{"type":"Point","coordinates":[2.395841,48.850192]},"properties":{"nom_voie":"AV DE BOUVINES","code_postal":"75011","arrondissement":11,"prix_m2_median":9937.5,"nb_transactions":8,"nb_lignes_metro":4,"nb_lignes_bus":9,"nb_points_velib":1,"score_accessibilite":14,"iaml_brut":709.8214285714286,"iaml_score":18.8,"iaml_label":"Très accessible"}},{"type":"Feature","geometry":{"type":"Point","coordinates":[2.311465,48.850855]},"properties":{"nom_voie":"AV DE BRETEUIL","code_postal":"75007","arrondissement":7,"prix_m2_median":17248.48373644704,"nb_transactions":16,"nb_lignes_metro":2,"nb_lignes_bus":4,"nb_points_velib":0,"score_accessibilite":6,"iaml_brut":2874.74728940784,"iaml_score":94.7,"iaml_label":"Très tendu"}},{"type":"Feature","geometry":{"type":"Point","coordinates":[2.310901,48.845933]},"properties":{"nom_voie":"AV DE BRETEUIL","code_postal":"75015","arrondissement":15,"prix_m2_median":13750.47972972973,"nb_transactions":4,"nb_lignes_metro":4,"nb_lignes_bus":13,"nb_points_velib":1,"score_accessibilite":18,"iaml_brut":763.9155405405405,"iaml_score":24.5,"iaml_label":"Accessible"}},{"type":"Feature","geometry":{"type":"Point","coordinates":[2.286792,48.85961]},"properties":{"nom_voie":"AV DE CAMOENS","code_postal":"75016","arrondissement":16,"prix_m2_median":12952.380952380952,"nb_transactions":3,"nb_lignes_metro":2,"nb_lignes_bus":7,"nb_points_velib":0,"score_accessibilite":9,"iaml_brut":1439.1534391534392,"iaml_score":79.3,"iaml_label":"Tendu"}},{"type":"Feature","geometry":{"type":"Point","coordinates":[2.357785,48.828148]},"properties":{"nom_voie":"AV DE CHOISY","code_postal":"75013","arrondissement":13,"prix_m2_median":8660.714285714286,"nb_transactions":76,"nb_lignes_metro":3,"nb_lignes_bus":13,"nb_points_velib":0,"score_accessibilite":16,"iaml_brut":541.2946428571429,"iaml_score":8.4,"iaml_label":"Très accessible"}},{"type":"Feature","geometry":{"type":"Point","coordinates":[2.322377,48.889142]},"properties":{"nom_voie":"AV DE CLICHY","code_postal":"75017","arrondissement":17,"prix_m2_median":10312.5,"nb_transactions":73,"nb_lignes_metro":2,"nb_lignes_bus":10,"nb_points_velib":0,"score_accessibilite":12,"iaml_brut":859.375,"iaml_score":34.7,"iaml_label":"Accessible"}},{"type":"Feature","geometry":{"type":"Point","coordinates":[2.32636,48.886536]},"properties":{"nom_voie":"AV DE CLICHY","code_postal":"75018","arrondissement":18,"prix_m2_median":10692.307692307691,"nb_transactions":13,"nb_lignes_metro":2,"nb_lignes_bus":13,"nb_points_velib":0,"score_accessibilite":15,"iaml_brut":712.8205128205128,"iaml_score":19.1,"iaml_label":"Très accessible"}},{"type":"Feature","geometry":{"type":"Point","coordinates":[2.376704,48.890248]},"properties":{"nom_voie":"AV DE FLANDRE","code_postal":"75019","arrondissement":19,"prix_m2_median":8750.0,"nb_transactions":82,"nb_lignes_metro":1,"nb_lignes_bus":7,"nb_points_velib":0,"score_accessibilite":8,"iaml_brut":1093.75,"iaml_score":57.1,"iaml_label":"Modéré"}},{"type":"Feature","geometry":{"type":"Point","coordinates":[2.301713,48.874415]},"properties":{"nom_voie":"AV DE FRIEDLAND","code_postal":"75008","arrondissement":8,"prix_m2_median":12788.571428571428,"nb_transactions":6,"nb_lignes_metro":2,"nb_lignes_bus":12,"nb_points_velib":0,"score_accessibilite":14,"iaml_brut":913.4693877551019,"iaml_score":40.4,"iaml_label":"Modéré"}},{"type":"Feature","geometry":{"type":"Point","coordinates":[2.337895,48.843747]},"properties":{"nom_voie":"AV DE L OBSERVATOIRE","code_postal":"75006","arrondissement":6,"prix_m2_median":19365.384615384617,"nb_transactions":4,"nb_lignes_metro":0,"nb_lignes_bus":16,"nb_points_velib":0,"score_accessibilite":16,"iaml_brut":1210.3365384615386,"iaml_score":66.3,"iaml_label":"Tendu"}},{"type":"Feature","geometry":{"type":"Point","coordinates":[2.334231,48.865101]},"properties":{"nom_voie":"AV DE L OPERA","code_postal":"75001","arrondissement":1,"prix_m2_median":1166666.6666666667,"nb_transactions":9,"nb_lignes_metro":3,"nb_lignes_bus":11,"nb_points_velib":0,"score_accessibilite":14,"iaml_brut":83333.33333333334,"iaml_score":99.9,"iaml_label":"Très tendu"}},{"type":"Feature","geometry":{"type":"Point","coordinates":[2.300875,48.856983]},"properties":{"nom_voie":"AV DE LA BOURDONNAIS","code_postal":"75007","arrondissement":7,"prix_m2_median":14262.5,"nb_transactions":43,"nb_lignes_metro":1,"nb_lignes_bus":7,"nb_points_velib":0,"score_accessibilite":8,"iaml_brut":1782.8125,"iaml_score":88.6,"iaml_label":"Très tendu"}},{"type":"Feature","geometry":{"type":"Point","coordinates":[2.260381,48.840914]},"properties":{"nom_voie":"AV DE LA FRILLIERE","code_postal":"75016","arrondissement":16,"prix_m2_median":76811.59999999999,"nb_transactions":4,"nb_lignes_metro":2,"nb_lignes_bus":12,"nb_points_velib":0,"score_accessibilite":14,"iaml_brut":5486.5428571428565,"iaml_score":96.8,"iaml_label":"Très tendu"}},{"type":"Feature","geometry":{"type":"Point","coordinates":[2.288597,48.876321]},"properties":{"nom_voie":"AV DE LA GRANDE ARMEE","code_postal":"75017","arrondissement":17,"prix_m2_median":11071.42857142857,"nb_transactions":5,"nb_lignes_metro":1,"nb_lignes_bus":10,"nb_points_velib":1,"score_accessibilite":12,"iaml_brut":922.6190476190476,"iaml_score":40.9,"iaml_label":"Modéré"}},{"type":"Feature","geometry":{"type":"Point","coordinates":[2.307929,48.855429]},"properties":{"nom_voie":"AV DE LA MOTTE PICQUET","code_postal":"75007","arrondissement":7,"prix_m2_median":14686.612903225807,"nb_transactions":17,"nb_lignes_metro":1,"nb_lignes_bus":6,"nb_points_velib":0,"score_accessibilite":7,"iaml_brut":2098.0875576036865,"iaml_score":91.7,"iaml_label":"Très tendu"}},{"type":"Feature","geometry":{"type":"Point","coordinates":[2.299646,48.850646]},"properties":{"nom_voie":"AV DE LA MOTTE PICQUET","code_postal":"75015","arrondissement":15,"prix_m2_median":13794.559291231259,"nb_transactions":14,"nb_lignes_metro":3,"nb_lignes_bus":4,"nb_points_velib":0,"score_accessibilite":7,"iaml_brut":1970.6513273187513,"iaml_score":90.7,"iaml_label":"Très tendu"}},{"type":"Feature","geometry":{"type":"Point","coordinates":[2.377298,48.864864]},"properties":{"nom_voie":"AV DE LA REPUBLIQUE","code_postal":"75011","arrondissement":11,"prix_m2_median":10788.555555555555,"nb_transactions":53,"nb_lignes_metro":2,"nb_lignes_bus":7,"nb_points_velib":0,"score_accessibilite":9,"iaml_brut":1198.7283950617284,"iaml_score":65.3,"iaml_label":"Tendu"}},{"type":"Feature","geometry":{"type":"Point","coordinates":[2.353635,48.832233]},"properties":{"nom_voie":"AV DE LA SOEUR ROSALIE","code_postal":"75013","arrondissement":13,"prix_m2_median":10945.438282647585,"nb_transactions":4,"nb_lignes_metro":3,"nb_lignes_bus":12,"nb_points_velib":0,"score_accessibilite":15,"iaml_brut":729.695885509839,"iaml_score":20.8,"iaml_label":"Accessible"}},{"type":"Feature","geometry":{"type":"Point","coordinates":[2.28012,48.854291]},"properties":{"nom_voie":"AV DE LAMBALLE","code_postal":"75016","arrondissement":16,"prix_m2_median":10973.07142857143,"nb_transactions":11,"nb_lignes_metro":0,"nb_lignes_bus":7,"nb_points_velib":1,"score_accessibilite":8,"iaml_brut":1371.6339285714287,"iaml_score":76.6,"iaml_label":"Tendu"}},{"type":"Feature","geometry":{"type":"Point","coordinates":[2.38045,48.88356]},"properties":{"nom_voie":"AV DE LAUMIERE","code_postal":"75019","arrondissement":19,"prix_m2_median":10767.738658536586,"nb_transactions":20,"nb_lignes_metro":1,"nb_lignes_bus":7,"nb_points_velib":0,"score_accessibilite":8,"iaml_brut":1345.9673323170732,"iaml_score":75.0,"iaml_label":"Tendu"}},{"type":"Feature","geometry":{"type":"Point","coordinates":[2.30915,48.852752]},"properties":{"nom_voie":"AV DE LOWENDAL","code_postal":"75007","arrondissement":7,"prix_m2_median":250000.0,"nb_transactions":11,"nb_lignes_metro":2,"nb_lignes_bus":5,"nb_points_velib":0,"score_accessibilite":7,"iaml_brut":35714.28571428572,"iaml_score":99.7,"iaml_label":"Très tendu"}},{"type":"Feature","geometry":{"type":"Point","coordinates":[2.303531,48.848777]},"properties":{"nom_voie":"AV DE LOWENDAL","code_postal":"75015","arrondissement":15,"prix_m2_median":10315.217391304348,"nb_transactions":10,"nb_lignes_metro":3,"nb_lignes_bus":4,"nb_points_velib":1,"score_accessibilite":8,"iaml_brut":1289.4021739130435,"iaml_score":71.5,"iaml_label":"Tendu"}},{"type":"Feature","geometry":{"type":"Point","coordinates":[2.284003,48.874731]},"properties":{"nom_voie":"AV DE MALAKOFF","code_postal":"75016","arrondissement":16,"prix_m2_median":12281.963591375043,"nb_transactions":20,"nb_lignes_metro":1,"nb_lignes_bus":8,"nb_points_velib":0,"score_accessibilite":9,"iaml_brut":1364.6626212638937,"iaml_score":76.1,"iaml_label":"Tendu"}},{"type":"Feature","geometry":{"type":"Point","coordinates":[2.315601,48.870908]},"properties":{"nom_voie":"AV DE MARIGNY","code_postal":"75008","arrondissement":8,"prix_m2_median":15441.50333400687,"nb_transactions":4,"nb_lignes_metro":3,"nb_lignes_bus":15,"nb_points_velib":0,"score_accessibilite":18,"iaml_brut":857.861296333715,"iaml_score":34.5,"iaml_label":"Accessible"}},{"type":"Feature","geometry":{"type":"Point","coordinates":[2.313078,48.876463]},"properties":{"nom_voie":"AV DE MESSINE","code_postal":"75008","arrondissement":8,"prix_m2_median":15911.47038327526,"nb_transactions":4,"nb_lignes_metro":2,"nb_lignes_bus":12,"nb_points_velib":0,"score_accessibilite":14,"iaml_brut":1136.5335988053757,"iaml_score":60.9,"iaml_label":"Tendu"}},{"type":"Feature","geometry":{"type":"Point","coordinates":[2.277953,48.865626]},"properties":{"nom_voie":"AV DE MONTESPAN","code_postal":"75016","arrondissement":16,"prix_m2_median":13529.411764705883,"nb_transactions":5,"nb_lignes_metro":1,"nb_lignes_bus":3,"nb_points_velib":0,"score_accessibilite":4,"iaml_brut":3382.3529411764707,"iaml_score":95.7,"iaml_label":"Très tendu"}},{"type":"Feature","geometry":{"type":"Point","coordinates":[2.293628,48.862756]},"properties":{"nom_voie":"AV DE NEW YORK","code_postal":"75016","arrondissement":16,"prix_m2_median":14041.666666666666,"nb_transactions":9,"nb_lignes_metro":2,"nb_lignes_bus":8,"nb_points_velib":1,"score_accessibilite":11,"iaml_brut":1276.5151515151515,"iaml_score":70.8,"iaml_label":"Tendu"}},{"type":"Feature","geometry":{"type":"Point","coordinates":[2.288009,48.882141]},"properties":{"nom_voie":"AV DE PETERHOF","code_postal":"75017","arrondissement":17,"prix_m2_median":11492.708333333334,"nb_transactions":3,"nb_lignes_metro":1,"nb_lignes_bus":9,"nb_points_velib":1,"score_accessibilite":11,"iaml_brut":1044.7916666666667,"iaml_score":52.9,"iaml_label":"Modéré"}},{"type":"Feature","geometry":{"type":"Point","coordinates":[2.327484,48.892201]},"properties":{"nom_voie":"AV DE SAINT OUEN","code_postal":"75018","arrondissement":18,"prix_m2_median":10216.216216216217,"nb_transactions":33,"nb_lignes_metro":1,"nb_lignes_bus":8,"nb_points_velib":0,"score_accessibilite":9,"iaml_brut":1135.1351351351352,"iaml_score":60.6,"iaml_label":"Tendu"}},{"type":"Feature","geometry":{"type":"Point","coordinates":[2.403593,48.845164]},"properties":{"nom_voie":"AV DE SAINT-MANDE","code_postal":"75012","arrondissement":12,"prix_m2_median":42142.857142857145,"nb_transactions":71,"nb_lignes_metro":1,"nb_lignes_bus":9,"nb_points_velib":1,"score_accessibilite":11,"iaml_brut":3831.1688311688313,"iaml_score":96.2,"iaml_label":"Très tendu"}},{"type":"Feature","geometry":{"type":"Point","coordinates":[2.326004,48.889551]},"properties":{"nom_voie":"AV DE SAINT-OUEN","code_postal":"75017","arrondissement":17,"prix_m2_median":11112.244897959185,"nb_transactions":39,"nb_lignes_metro":1,"nb_lignes_bus":8,"nb_points_velib":0,"score_accessibilite":9,"iaml_brut":1234.6938775510205,"iaml_score":68.0,"iaml_label":"Tendu"}},{"type":"Feature","geometry":{"type":"Point","coordinates":[2.284407,48.882343]},"properties":{"nom_voie":"AV DE SALONIQUE","code_postal":"75017","arrondissement":17,"prix_m2_median":9907.35294117647,"nb_transactions":4,"nb_lignes_metro":0,"nb_lignes_bus":6,"nb_points_velib":1,"score_accessibilite":7,"iaml_brut":1415.3361344537814,"iaml_score":78.2,"iaml_label":"Tendu"}},{"type":"Feature","geometry":{"type":"Point","coordinates":[2.309727,48.84807]},"properties":{"nom_voie":"AV DE SAXE","code_postal":"75007","arrondissement":7,"prix_m2_median":14232.142857142857,"nb_transactions":6,"nb_lignes_metro":3,"nb_lignes_bus":11,"nb_points_velib":0,"score_accessibilite":14,"iaml_brut":1016.5816326530612,"iaml_score":50.6,"iaml_label":"Modéré"}},{"type":"Feature","geometry":{"type":"Point","coordinates":[2.310307,48.8478]},"properties":{"nom_voie":"AV DE SAXE","code_postal":"75015","arrondissement":15,"prix_m2_median":2362.5,"nb_transactions":4,"nb_lignes_metro":3,"nb_lignes_bus":11,"nb_points_velib":1,"score_accessibilite":15,"iaml_brut":157.5,"iaml_score":0.4,"iaml_label":"Très accessible"}},{"type":"Feature","geometry":{"type":"Point","coordinates":[2.309897,48.851161]},"properties":{"nom_voie":"AV DE SEGUR","code_postal":"75007","arrondissement":7,"prix_m2_median":12428.57142857143,"nb_transactions":23,"nb_lignes_metro":3,"nb_lignes_bus":4,"nb_points_velib":0,"score_accessibilite":7,"iaml_brut":1775.5102040816328,"iaml_score":88.4,"iaml_label":"Très tendu"}},{"type":"Feature","geometry":{"type":"Point","coordinates":[2.307577,48.847441]},"properties":{"nom_voie":"AV DE SUFFREN","code_postal":"75007","arrondissement":7,"prix_m2_median":93.61702127659575,"nb_transactions":21,"nb_lignes_metro":2,"nb_lignes_bus":10,"nb_points_velib":1,"score_accessibilite":13,"iaml_brut":7.201309328968904,"iaml_score":0.0,"iaml_label":"Très accessible"}},{"type":"Feature","geometry":{"type":"Point","coordinates":[2.29604,48.853809]},"properties":{"nom_voie":"AV DE SUFFREN","code_postal":"75015","arrondissement":15,"prix_m2_median":13295.161290322581,"nb_transactions":57,"nb_lignes_metro":2,"nb_lignes_bus":5,"nb_points_velib":0,"score_accessibilite":7,"iaml_brut":1899.3087557603687,"iaml_score":90.2,"iaml_label":"Très tendu"}},{"type":"Feature","geometry":{"type":"Point","coordinates":[2.397804,48.850312]},"properties":{"nom_voie":"AV DE TAILLEBOURG","code_postal":"75011","arrondissement":11,"prix_m2_median":10359.770114942528,"nb_transactions":5,"nb_lignes_metro":4,"nb_lignes_bus":9,"nb_points_velib":1,"score_accessibilite":14,"iaml_brut":739.9835796387521,"iaml_score":21.8,"iaml_label":"Accessible"}},{"type":"Feature","geometry":{"type":"Point","coordinates":[2.308216,48.853681]},"properties":{"nom_voie":"AV DE TOURVILLE","code_postal":"75007","arrondissement":7,"prix_m2_median":14421.844660194174,"nb_transactions":5,"nb_lignes_metro":1,"nb_lignes_bus":6,"nb_points_velib":0,"score_accessibilite":7,"iaml_brut":2060.263522884882,"iaml_score":91.5,"iaml_label":"Très tendu"}},{"type":"Feature","geometry":{"type":"Point","coordinates":[2.362925,48.876418]},"properties":{"nom_voie":"AV DE VERDUN","code_postal":"75010","arrondissement":10,"prix_m2_median":8854.166666666666,"nb_transactions":3,"nb_lignes_metro":3,"nb_lignes_bus":30,"nb_points_velib":5,"score_accessibilite":38,"iaml_brut":233.00438596491227,"iaml_score":0.8,"iaml_label":"Très accessible"}},{"type":"Feature","geometry":{"type":"Point","coordinates":[2.269967,48.843018]},"properties":{"nom_voie":"AV DE VERSAILLES","code_postal":"75016","arrondissement":16,"prix_m2_median":10175.925925925925,"nb_transactions":96,"nb_lignes_metro":1,"nb_lignes_bus":10,"nb_points_velib":0,"score_accessibilite":11,"iaml_brut":925.0841750841751,"iaml_score":41.2,"iaml_label":"Modéré"}},{"type":"Feature","geometry":{"type":"Point","coordinates":[2.287887,48.881612]},"properties":{"nom_voie":"AV DE VERZY","code_postal":"75017","arrondissement":17,"prix_m2_median":11818.181818181818,"nb_transactions":3,"nb_lignes_metro":0,"nb_lignes_bus":8,"nb_points_velib":1,"score_accessibilite":9,"iaml_brut":1313.1313131313132,"iaml_score":72.7,"iaml_label":"Tendu"}},{"type":"Feature","geometry":{"type":"Point","coordinates":[2.313601,48.852344]},"properties":{"nom_voie":"AV DE VILLARS","code_postal":"75007","arrondissement":7,"prix_m2_median":15658.690476190477,"nb_transactions":4,"nb_lignes_metro":1,"nb_lignes_bus":4,"nb_points_velib":0,"score_accessibilite":5,"iaml_brut":3131.7380952380954,"iaml_score":95.4,"iaml_label":"Très tendu"}},{"type":"Feature","geometry":{"type":"Point","coordinates":[2.298877,48.884874]},"properties":{"nom_voie":"AV DE VILLIERS","code_postal":"75017","arrondissement":17,"prix_m2_median":11820.689655172413,"nb_transactions":31,"nb_lignes_metro":1,"nb_lignes_bus":10,"nb_points_velib":1,"score_accessibilite":12,"iaml_brut":985.0574712643678,"iaml_score":47.6,"iaml_label":"Modéré"}},{"type":"Feature","geometry":{"type":"Point","coordinates":[2.297517,48.876403]},"properties":{"nom_voie":"AV DE WAGRAM","code_postal":"75008","arrondissement":8,"prix_m2_median":13076.923076923076,"nb_transactions":9,"nb_lignes_metro":3,"nb_lignes_bus":13,"nb_points_velib":2,"score_accessibilite":18,"iaml_brut":726.4957264957264,"iaml_score":20.4,"iaml_label":"Accessible"}},{"type":"Feature","geometry":{"type":"Point","coordinates":[2.29966,48.880076]},"properties":{"nom_voie":"AV DE WAGRAM","code_postal":"75017","arrondissement":17,"prix_m2_median":12357.142857142857,"nb_transactions":53,"nb_lignes_metro":1,"nb_lignes_bus":9,"nb_points_velib":2,"score_accessibilite":12,"iaml_brut":1029.7619047619048,"iaml_score":51.5,"iaml_label":"Modéré"}},{"type":"Feature","geometry":{"type":"Point","coordinates":[2.33362,48.835223]},"properties":{"nom_voie":"AV DENFERT ROCHEREAU","code_postal":"75014","arrondissement":14,"prix_m2_median":12790.697674418605,"nb_transactions":7,"nb_lignes_metro":2,"nb_lignes_bus":10,"nb_points_velib":1,"score_accessibilite":13,"iaml_brut":983.8998211091234,"iaml_score":47.4,"iaml_label":"Modéré"}},{"type":"Feature","geometry":{"type":"Point","coordinates":[2.304678,48.871669]},"properties":{"nom_voie":"AV DES CHAMPS ELYSEES","code_postal":"75008","arrondissement":8,"prix_m2_median":18630.95238095238,"nb_transactions":4,"nb_lignes_metro":2,"nb_lignes_bus":13,"nb_points_velib":0,"score_accessibilite":15,"iaml_brut":1242.063492063492,"iaml_score":68.5,"iaml_label":"Tendu"}},{"type":"Feature","geometry":{"type":"Point","coordinates":[2.305708,48.887023]},"properties":{"nom_voie":"AV DES CHASSEURS","code_postal":"75017","arrondissement":17,"prix_m2_median":12011.337868480725,"nb_transactions":8,"nb_lignes_metro":1,"nb_lignes_bus":8,"nb_points_velib":1,"score_accessibilite":10,"iaml_brut":1201.1337868480725,"iaml_score":65.7,"iaml_label":"Tendu"}},{"type":"Feature","geometry":{"type":"Point","coordinates":[2.351345,48.837855]},"properties":{"nom_voie":"AV DES GOBELINS","code_postal":"75005","arrondissement":5,"prix_m2_median":12352.941176470587,"nb_transactions":11,"nb_lignes_metro":1,"nb_lignes_bus":12,"nb_points_velib":0,"score_accessibilite":13,"iaml_brut":950.2262443438914,"iaml_score":44.3,"iaml_label":"Modéré"}},{"type":"Feature","geometry":{"type":"Point","coordinates":[2.35328,48.835619]},"properties":{"nom_voie":"AV DES GOBELINS","code_postal":"75013","arrondissement":13,"prix_m2_median":11052.5,"nb_transactions":22,"nb_lignes_metro":2,"nb_lignes_bus":14,"nb_points_velib":0,"score_accessibilite":16,"iaml_brut":690.78125,"iaml_score":17.2,"iaml_label":"Très accessible"}},{"type":"Feature","geometry":{"type":"Point","coordinates":[2.291351,48.879434]},"properties":{"nom_voie":"AV DES TERNES","code_postal":"75017","arrondissement":17,"prix_m2_median":12645.0,"nb_transactions":45,"nb_lignes_metro":1,"nb_lignes_bus":8,"nb_points_velib":2,"score_accessibilite":11,"iaml_brut":1149.5454545454545,"iaml_score":61.8,"iaml_label":"Tendu"}},{"type":"Feature","geometry":{"type":"Point","coordinates":[2.397104,48.846159]},"properties":{"nom_voie":"AV DU BEL AIR","code_postal":"75012","arrondissement":12,"prix_m2_median":10465.618448637317,"nb_transactions":12,"nb_lignes_metro":4,"nb_lignes_bus":9,"nb_points_velib":1,"score_accessibilite":14,"iaml_brut":747.5441749026655,"iaml_score":23.0,"iaml_label":"Accessible"}},{"type":"Feature","geometry":{"type":"Point","coordinates":[2.278618,48.85502]},"properties":{"nom_voie":"AV DU COL BONNET","code_postal":"75016","arrondissement":16,"prix_m2_median":12547.80564263323,"nb_transactions":8,"nb_lignes_metro":1,"nb_lignes_bus":8,"nb_points_velib":1,"score_accessibilite":10,"iaml_brut":1254.780564263323,"iaml_score":69.4,"iaml_label":"Tendu"}},{"type":"Feature","geometry":{"type":"Point","coordinates":[2.404505,48.844133]},"properties":{"nom_voie":"AV DU DOC ARNOLD NETTER","code_postal":"75012","arrondissement":12,"prix_m2_median":10411.605937921728,"nb_transactions":40,"nb_lignes_metro":1,"nb_lignes_bus":10,"nb_points_velib":1,"score_accessibilite":12,"iaml_brut":867.6338281601439,"iaml_score":35.6,"iaml_label":"Accessible"}},{"type":"Feature","geometry":{"type":"Point","coordinates":[2.259506,48.844886]},"properties":{"nom_voie":"AV DU GAL BALFOURIER","code_postal":"75016","arrondissement":16,"prix_m2_median":9885.135135135135,"nb_transactions":5,"nb_lignes_metro":2,"nb_lignes_bus":9,"nb_points_velib":0,"score_accessibilite":11,"iaml_brut":898.6486486486486,"iaml_score":38.6,"iaml_label":"Accessible"}},{"type":"Feature","geometry":{"type":"Point","coordinates":[2.400914,48.835059]},"properties":{"nom_voie":"AV DU GAL MICHEL BIZOT","code_postal":"75012","arrondissement":12,"prix_m2_median":10944.444444444445,"nb_transactions":89,"nb_lignes_metro":1,"nb_lignes_bus":6,"nb_points_velib":0,"score_accessibilite":7,"iaml_brut":1563.4920634920636,"iaml_score":83.6,"iaml_label":"Très tendu"}},{"type":"Feature","geometry":{"type":"Point","coordinates":[2.328273,48.830533]},"properties":{"nom_voie":"AV DU GENERAL LECLERC","code_postal":"75014","arrondissement":14,"prix_m2_median":11000.0,"nb_transactions":63,"nb_lignes_metro":1,"nb_lignes_bus":14,"nb_points_velib":0,"score_accessibilite":15,"iaml_brut":733.3333333333334,"iaml_score":21.2,"iaml_label":"Accessible"}},{"type":"Feature","geometry":{"type":"Point","coordinates":[2.324307,48.833837]},"properties":{"nom_voie":"AV DU MAINE","code_postal":"75014","arrondissement":14,"prix_m2_median":11319.148936170213,"nb_transactions":59,"nb_lignes_metro":1,"nb_lignes_bus":9,"nb_points_velib":0,"score_accessibilite":10,"iaml_brut":1131.9148936170213,"iaml_score":60.5,"iaml_label":"Tendu"}},{"type":"Feature","geometry":{"type":"Point","coordinates":[2.320242,48.84377]},"properties":{"nom_voie":"AV DU MAINE","code_postal":"75015","arrondissement":15,"prix_m2_median":9823.739205569205,"nb_transactions":8,"nb_lignes_metro":5,"nb_lignes_bus":24,"nb_points_velib":0,"score_accessibilite":29,"iaml_brut":338.74962777824845,"iaml_score":2.8,"iaml_label":"Très accessible"}},{"type":"Feature","geometry":{"type":"Point","coordinates":[2.397535,48.864257]},"properties":{"nom_voie":"AV DU PERE LACHAISE","code_postal":"75020","arrondissement":20,"prix_m2_median":10298.387096774193,"nb_transactions":4,"nb_lignes_metro":2,"nb_lignes_bus":10,"nb_points_velib":0,"score_accessibilite":12,"iaml_brut":858.1989247311827,"iaml_score":34.6,"iaml_label":"Accessible"}},{"type":"Feature","geometry":{"type":"Point","coordinates":[2.308152,48.853317]},"properties":{"nom_voie":"AV DUQUESNE","code_postal":"75007","arrondissement":7,"prix_m2_median":13636.363636363636,"nb_transactions":15,"nb_lignes_metro":1,"nb_lignes_bus":5,"nb_points_velib":0,"score_accessibilite":6,"iaml_brut":2272.7272727272725,"iaml_score":92.8,"iaml_label":"Très tendu"}},{"type":"Feature","geometry":{"type":"Point","coordinates":[2.298622,48.857997]},"properties":{"nom_voie":"AV ELISEE RECLUS","code_postal":"75007","arrondissement":7,"prix_m2_median":18066.8720190779,"nb_transactions":6,"nb_lignes_metro":0,"nb_lignes_bus":7,"nb_points_velib":0,"score_accessibilite":7,"iaml_brut":2580.9817170111282,"iaml_score":94.1,"iaml_label":"Très tendu"}},{"type":"Feature","geometry":{"type":"Point","coordinates":[2.300144,48.852121]},"properties":{"nom_voie":"AV EMILE ACOLLAS","code_postal":"75007","arrondissement":7,"prix_m2_median":13509.569791176009,"nb_transactions":6,"nb_lignes_metro":3,"nb_lignes_bus":9,"nb_points_velib":0,"score_accessibilite":12,"iaml_brut":1125.7974825980007,"iaml_score":59.8,"iaml_label":"Modéré"}},{"type":"Feature","geometry":{"type":"Point","coordinates":[2.271384,48.852985]},"properties":{"nom_voie":"AV EMILE BERGERAT","code_postal":"75016","arrondissement":16,"prix_m2_median":16367.097435897436,"nb_transactions":3,"nb_lignes_metro":1,"nb_lignes_bus":3,"nb_points_velib":0,"score_accessibilite":4,"iaml_brut":4091.774358974359,"iaml_score":96.2,"iaml_label":"Très tendu"}},{"type":"Feature","geometry":{"type":"Point","coordinates":[2.302615,48.85546]},"properties":{"nom_voie":"AV EMILE DESCHANEL","code_postal":"75007","arrondissement":7,"prix_m2_median":21787.878787878788,"nb_transactions":11,"nb_lignes_metro":1,"nb_lignes_bus":7,"nb_points_velib":0,"score_accessibilite":8,"iaml_brut":2723.4848484848485,"iaml_score":94.4,"iaml_label":"Très tendu"}},{"type":"Feature","geometry":{"type":"Point","coordinates":[2.287214,48.846405]},"properties":{"nom_voie":"AV EMILE ZOLA","code_postal":"75015","arrondissement":15,"prix_m2_median":10820.51282051282,"nb_transactions":29,"nb_lignes_metro":1,"nb_lignes_bus":7,"nb_points_velib":1,"score_accessibilite":9,"iaml_brut":1202.2792022792023,"iaml_score":65.8,"iaml_label":"Tendu"}},{"type":"Feature","geometry":{"type":"Point","coordinates":[2.262648,48.847676]},"properties":{"nom_voie":"AV ERLANGER","code_postal":"75016","arrondissement":16,"prix_m2_median":11355.93220338983,"nb_transactions":3,"nb_lignes_metro":2,"nb_lignes_bus":8,"nb_points_velib":0,"score_accessibilite":10,"iaml_brut":1135.593220338983,"iaml_score":60.7,"iaml_label":"Tendu"}},{"type":"Feature","geometry":{"type":"Point","coordinates":[2.284248,48.83992]},"properties":{"nom_voie":"AV FELIX FAURE","code_postal":"75015","arrondissement":15,"prix_m2_median":10212.765957446809,"nb_transactions":69,"nb_lignes_metro":1,"nb_lignes_bus":9,"nb_points_velib":0,"score_accessibilite":10,"iaml_brut":1021.2765957446809,"iaml_score":51.0,"iaml_label":"Modéré"}},{"type":"Feature","geometry":{"type":"Point","coordinates":[2.286709,48.872829]},"properties":{"nom_voie":"AV FOCH","code_postal":"75016","arrondissement":16,"prix_m2_median":16014.394961763384,"nb_transactions":74,"nb_lignes_metro":3,"nb_lignes_bus":8,"nb_points_velib":0,"score_accessibilite":11,"iaml_brut":1455.854087433035,"iaml_score":80.0,"iaml_label":"Tendu"}},{"type":"Feature","geometry":{"type":"Point","coordinates":[2.298829,48.85996]},"properties":{"nom_voie":"AV FRANCO RUSSE","code_postal":"75007","arrondissement":7,"prix_m2_median":16821.53846153846,"nb_transactions":3,"nb_lignes_metro":0,"nb_lignes_bus":9,"nb_points_velib":0,"score_accessibilite":9,"iaml_brut":1869.059829059829,"iaml_score":89.8,"iaml_label":"Très tendu"}},{"type":"Feature","geometry":{"type":"Point","coordinates":[2.309818,48.871953]},"properties":{"nom_voie":"AV FRANKLIN D ROOSEVELT","code_postal":"75008","arrondissement":8,"prix_m2_median":15590.919370698131,"nb_transactions":8,"nb_lignes_metro":3,"nb_lignes_bus":15,"nb_points_velib":0,"score_accessibilite":18,"iaml_brut":866.1621872610073,"iaml_score":35.3,"iaml_label":"Accessible"}},{"type":"Feature","geometry":{"type":"Point","coordinates":[2.304396,48.854444]},"properties":{"nom_voie":"AV FREDERIC LE PLAY","code_postal":"75007","arrondissement":7,"prix_m2_median":347610.84804132587,"nb_transactions":26,"nb_lignes_metro":1,"nb_lignes_bus":7,"nb_points_velib":0,"score_accessibilite":8,"iaml_brut":43451.35600516573,"iaml_score":99.8,"iaml_label":"Très tendu"}},{"type":"Feature","geometry":{"type":"Point","coordinates":[2.285135,48.856647]},"properties":{"nom_voie":"AV FREMIET","code_postal":"75016","arrondissement":16,"prix_m2_median":10882.35294117647,"nb_transactions":3,"nb_lignes_metro":1,"nb_lignes_bus":5,"nb_points_velib":0,"score_accessibilite":6,"iaml_brut":1813.7254901960785,"iaml_score":88.9,"iaml_label":"Très tendu"}},{"type":"Feature","geometry":{"type":"Point","coordinates":[2.338189,48.881297]},"properties":{"nom_voie":"AV FROCHOT","code_postal":"75009","arrondissement":9,"prix_m2_median":23833.333333333332,"nb_transactions":3,"nb_lignes_metro":2,"nb_lignes_bus":8,"nb_points_velib":1,"score_accessibilite":11,"iaml_brut":2166.6666666666665,"iaml_score":92.2,"iaml_label":"Très tendu"}},{"type":"Feature","geometry":{"type":"Point","coordinates":[2.255896,48.843853]},"properties":{"nom_voie":"AV GAL SARRAIL","code_postal":"75016","arrondissement":16,"prix_m2_median":10340.666666666666,"nb_transactions":3,"nb_lignes_metro":2,"nb_lignes_bus":8,"nb_points_velib":0,"score_accessibilite":10,"iaml_brut":1034.0666666666666,"iaml_score":51.8,"iaml_label":"Modéré"}},{"type":"Feature","geometry":{"type":"Point","coordinates":[2.399963,48.867023]},"properties":{"nom_voie":"AV GAMBETTA","code_postal":"75020","arrondissement":20,"prix_m2_median":10660.599415204679,"nb_transactions":106,"nb_lignes_metro":2,"nb_lignes_bus":8,"nb_points_velib":1,"score_accessibilite":11,"iaml_brut":969.1454013822436,"iaml_score":46.1,"iaml_label":"Modéré"}},{"type":"Feature","geometry":{"type":"Point","coordinates":[2.301586,48.868893]},"properties":{"nom_voie":"AV GEORGE V","code_postal":"75008","arrondissement":8,"prix_m2_median":21214.797507788164,"nb_transactions":14,"nb_lignes_metro":2,"nb_lignes_bus":9,"nb_points_velib":0,"score_accessibilite":11,"iaml_brut":1928.6179552534695,"iaml_score":90.4,"iaml_label":"Très tendu"}},{"type":"Feature","geometry":{"type":"Point","coordinates":[2.282322,48.863739]},"properties":{"nom_voie":"AV GEORGES MANDEL","code_postal":"75016","arrondissement":16,"prix_m2_median":15000.0,"nb_transactions":17,"nb_lignes_metro":2,"nb_lignes_bus":6,"nb_points_velib":1,"score_accessibilite":9,"iaml_brut":1666.6666666666667,"iaml_score":86.1,"iaml_label":"Très tendu"}},{"type":"Feature","geometry":{"type":"Point","coordinates":[2.297673,48.886387]},"properties":{"nom_voie":"AV GOURGAUD","code_postal":"75017","arrondissement":17,"prix_m2_median":11197.962962962964,"nb_transactions":7,"nb_lignes_metro":1,"nb_lignes_bus":12,"nb_points_velib":1,"score_accessibilite":14,"iaml_brut":799.8544973544974,"iaml_score":28.6,"iaml_label":"Accessible"}},{"type":"Feature","geometry":{"type":"Point","coordinates":[2.274309,48.86389]},"properties":{"nom_voie":"AV HENRI MARTIN","code_postal":"75016","arrondissement":16,"prix_m2_median":12890.354166666668,"nb_transactions":18,"nb_lignes_metro":1,"nb_lignes_bus":3,"nb_points_velib":0,"score_accessibilite":4,"iaml_brut":3222.588541666667,"iaml_score":95.6,"iaml_label":"Très tendu"}},{"type":"Feature","geometry":{"type":"Point","coordinates":[2.303517,48.876873]},"properties":{"nom_voie":"AV HOCHE","code_postal":"75008","arrondissement":8,"prix_m2_median":17969.43723060345,"nb_transactions":12,"nb_lignes_metro":1,"nb_lignes_bus":7,"nb_points_velib":1,"score_accessibilite":9,"iaml_brut":1996.6041367337166,"iaml_score":91.0,"iaml_label":"Très tendu"}},{"type":"Feature","geometry":{"type":"Point","coordinates":[2.264915,48.85664]},"properties":{"nom_voie":"AV INGRES","code_postal":"75016","arrondissement":16,"prix_m2_median":11530.952380952382,"nb_transactions":4,"nb_lignes_metro":1,"nb_lignes_bus":5,"nb_points_velib":0,"score_accessibilite":6,"iaml_brut":1921.8253968253969,"iaml_score":90.3,"iaml_label":"Très tendu"}},{"type":"Feature","geometry":{"type":"Point","coordinates":[2.381457,48.865511]},"properties":{"nom_voie":"AV JEAN AICARD","code_postal":"75011","arrondissement":11,"prix_m2_median":11219.791666666666,"nb_transactions":5,"nb_lignes_metro":2,"nb_lignes_bus":6,"nb_points_velib":0,"score_accessibilite":8,"iaml_brut":1402.4739583333333,"iaml_score":77.8,"iaml_label":"Tendu"}},{"type":"Feature","geometry":{"type":"Point","coordinates":[2.381879,48.885682]},"properties":{"nom_voie":"AV JEAN JAURES","code_postal":"75019","arrondissement":19,"prix_m2_median":10040.54054054054,"nb_transactions":131,"nb_lignes_metro":1,"nb_lignes_bus":7,"nb_points_velib":1,"score_accessibilite":9,"iaml_brut":1115.6156156156155,"iaml_score":59.1,"iaml_label":"Modéré"}},{"type":"Feature","geometry":{"type":"Point","coordinates":[2.323119,48.825931]},"properties":{"nom_voie":"AV JEAN MOULIN","code_postal":"75014","arrondissement":14,"prix_m2_median":10319.047619047618,"nb_transactions":28,"nb_lignes_metro":1,"nb_lignes_bus":20,"nb_points_velib":0,"score_accessibilite":21,"iaml_brut":491.3832199546485,"iaml_score":6.8,"iaml_label":"Très accessible"}},{"type":"Feature","geometry":{"type":"Point","coordinates":[2.336114,48.888335]},"properties":{"nom_voie":"AV JUNOT","code_postal":"75018","arrondissement":18,"prix_m2_median":12965.5,"nb_transactions":17,"nb_lignes_metro":1,"nb_lignes_bus":4,"nb_points_velib":0,"score_accessibilite":5,"iaml_brut":2593.1,"iaml_score":94.2,"iaml_label":"Très tendu"}},{"type":"Feature","geometry":{"type":"Point","coordinates":[2.289653,48.865895]},"properties":{"nom_voie":"AV KLEBER","code_postal":"75016","arrondissement":16,"prix_m2_median":14720.0,"nb_transactions":25,"nb_lignes_metro":2,"nb_lignes_bus":7,"nb_points_velib":2,"score_accessibilite":11,"iaml_brut":1338.1818181818182,"iaml_score":74.5,"iaml_label":"Tendu"}},{"type":"Feature","geometry":{"type":"Point","coordinates":[2.290797,48.874612]},"properties":{"nom_voie":"AV LA GRANDE ARMEE","code_postal":"75016","arrondissement":16,"prix_m2_median":12000.0,"nb_transactions":7,"nb_lignes_metro":3,"nb_lignes_bus":12,"nb_points_velib":1,"score_accessibilite":16,"iaml_brut":750.0,"iaml_score":23.2,"iaml_label":"Accessible"}},{"type":"Feature","geometry":{"type":"Point","coordinates":[2.286403,48.883402]},"properties":{"nom_voie":"AV LA PORTE DE VILLIERS","code_postal":"75017","arrondissement":17,"prix_m2_median":8014.705882352941,"nb_transactions":5,"nb_lignes_metro":1,"nb_lignes_bus":9,"nb_points_velib":1,"score_accessibilite":11,"iaml_brut":728.6096256684492,"iaml_score":20.7,"iaml_label":"Accessible"}},{"type":"Feature","geometry":{"type":"Point","coordinates":[2.378021,48.854607]},"properties":{"nom_voie":"AV LEDRU ROLLIN","code_postal":"75011","arrondissement":11,"prix_m2_median":12004.310344827587,"nb_transactions":13,"nb_lignes_metro":1,"nb_lignes_bus":8,"nb_points_velib":1,"score_accessibilite":10,"iaml_brut":1200.4310344827586,"iaml_score":65.7,"iaml_label":"Tendu"}},{"type":"Feature","geometry":{"type":"Point","coordinates":[2.373826,48.848974]},"properties":{"nom_voie":"AV LEDRU ROLLIN","code_postal":"75012","arrondissement":12,"prix_m2_median":11098.636712749616,"nb_transactions":34,"nb_lignes_metro":3,"nb_lignes_bus":25,"nb_points_velib":2,"score_accessibilite":30,"iaml_brut":369.95455709165384,"iaml_score":3.9,"iaml_label":"Très accessible"}},{"type":"Feature","geometry":{"type":"Point","coordinates":[2.271493,48.847275]},"properties":{"nom_voie":"AV LEON HEUZEY","code_postal":"75016","arrondissement":16,"prix_m2_median":12341.883029073699,"nb_transactions":4,"nb_lignes_metro":1,"nb_lignes_bus":9,"nb_points_velib":0,"score_accessibilite":10,"iaml_brut":1234.18830290737,"iaml_score":67.8,"iaml_label":"Tendu"}},{"type":"Feature","geometry":{"type":"Point","coordinates":[2.294146,48.876614]},"properties":{"nom_voie":"AV MAC MAHON","code_postal":"75017","arrondissement":17,"prix_m2_median":13333.333333333334,"nb_transactions":11,"nb_lignes_metro":3,"nb_lignes_bus":13,"nb_points_velib":1,"score_accessibilite":17,"iaml_brut":784.3137254901961,"iaml_score":26.9,"iaml_label":"Accessible"}},{"type":"Feature","geometry":{"type":"Point","coordinates":[2.263132,48.856588]},"properties":{"nom_voie":"AV MAL FRANCHET D ESPEREY","code_postal":"75016","arrondissement":16,"prix_m2_median":20069.310344827587,"nb_transactions":3,"nb_lignes_metro":0,"nb_lignes_bus":3,"nb_points_velib":0,"score_accessibilite":3,"iaml_brut":6689.770114942529,"iaml_score":97.1,"iaml_label":"Très tendu"}},{"type":"Feature","geometry":{"type":"Point","coordinates":[2.260423,48.851924]},"properties":{"nom_voie":"AV MAL LYAUTEY","code_postal":"75016","arrondissement":16,"prix_m2_median":20230.738636363636,"nb_transactions":9,"nb_lignes_metro":1,"nb_lignes_bus":3,"nb_points_velib":0,"score_accessibilite":4,"iaml_brut":5057.684659090909,"iaml_score":96.6,"iaml_label":"Très tendu"}},{"type":"Feature","geometry":{"type":"Point","coordinates":[2.299793,48.867469]},"properties":{"nom_voie":"AV MARCEAU","code_postal":"75008","arrondissement":8,"prix_m2_median":15748.031496062993,"nb_transactions":7,"nb_lignes_metro":1,"nb_lignes_bus":6,"nb_points_velib":0,"score_accessibilite":7,"iaml_brut":2249.718785151856,"iaml_score":92.7,"iaml_label":"Très tendu"}},{"type":"Feature","geometry":{"type":"Point","coordinates":[2.298131,48.86889]},"properties":{"nom_voie":"AV MARCEAU","code_postal":"75016","arrondissement":16,"prix_m2_median":17500.0,"nb_transactions":7,"nb_lignes_metro":2,"nb_lignes_bus":9,"nb_points_velib":0,"score_accessibilite":11,"iaml_brut":1590.909090909091,"iaml_score":84.2,"iaml_label":"Très tendu"}},{"type":"Feature","geometry":{"type":"Point","coordinates":[2.37487,48.878189]},"properties":{"nom_voie":"AV MATHURIN MOREAU","code_postal":"75019","arrondissement":19,"prix_m2_median":10267.857142857143,"nb_transactions":17,"nb_lignes_metro":2,"nb_lignes_bus":4,"nb_points_velib":0,"score_accessibilite":6,"iaml_brut":1711.3095238095239,"iaml_score":87.2,"iaml_label":"Très tendu"}},{"type":"Feature","geometry":{"type":"Point","coordinates":[2.272214,48.853113]},"properties":{"nom_voie":"AV MILLERET DE BROU","code_postal":"75016","arrondissement":16,"prix_m2_median":11927.64705882353,"nb_transactions":3,"nb_lignes_metro":1,"nb_lignes_bus":6,"nb_points_velib":0,"score_accessibilite":7,"iaml_brut":1703.9495798319329,"iaml_score":87.1,"iaml_label":"Très tendu"}},{"type":"Feature","geometry":{"type":"Point","coordinates":[2.305024,48.866074]},"properties":{"nom_voie":"AV MONTAIGNE","code_postal":"75008","arrondissement":8,"prix_m2_median":21980.19801980198,"nb_transactions":21,"nb_lignes_metro":2,"nb_lignes_bus":11,"nb_points_velib":0,"score_accessibilite":13,"iaml_brut":1690.7844630616908,"iaml_score":86.8,"iaml_label":"Très tendu"}},{"type":"Feature","geometry":{"type":"Point","coordinates":[2.26943,48.854591]},"properties":{"nom_voie":"AV MOZART","code_postal":"75016","arrondissement":16,"prix_m2_median":11697.938530734631,"nb_transactions":50,"nb_lignes_metro":1,"nb_lignes_bus":6,"nb_points_velib":0,"score_accessibilite":7,"iaml_brut":1671.134075819233,"iaml_score":86.4,"iaml_label":"Très tendu"}},{"type":"Feature","geometry":{"type":"Point","coordinates":[2.294913,48.881002]},"properties":{"nom_voie":"AV NIEL","code_postal":"75017","arrondissement":17,"prix_m2_median":12136.363636363636,"nb_transactions":25,"nb_lignes_metro":1,"nb_lignes_bus":10,"nb_points_velib":2,"score_accessibilite":13,"iaml_brut":933.5664335664335,"iaml_score":42.3,"iaml_label":"Modéré"}},{"type":"Feature","geometry":{"type":"Point","coordinates":[2.370227,48.871058]},"properties":{"nom_voie":"AV PARMENTIER","code_postal":"75010","arrondissement":10,"prix_m2_median":10631.648936170212,"nb_transactions":20,"nb_lignes_metro":2,"nb_lignes_bus":5,"nb_points_velib":0,"score_accessibilite":7,"iaml_brut":1518.806990881459,"iaml_score":82.5,"iaml_label":"Très tendu"}},{"type":"Feature","geometry":{"type":"Point","coordinates":[2.374279,48.865925]},"properties":{"nom_voie":"AV PARMENTIER","code_postal":"75011","arrondissement":11,"prix_m2_median":11488.888888888889,"nb_transactions":87,"nb_lignes_metro":3,"nb_lignes_bus":7,"nb_points_velib":0,"score_accessibilite":10,"iaml_brut":1148.888888888889,"iaml_score":61.7,"iaml_label":"Tendu"}},{"type":"Feature","geometry":{"type":"Point","coordinates":[2.281888,48.860306]},"properties":{"nom_voie":"AV PAUL DOUMER","code_postal":"75016","arrondissement":16,"prix_m2_median":12727.272727272728,"nb_transactions":47,"nb_lignes_metro":2,"nb_lignes_bus":5,"nb_points_velib":1,"score_accessibilite":8,"iaml_brut":1590.909090909091,"iaml_score":84.2,"iaml_label":"Très tendu"}},{"type":"Feature","geometry":{"type":"Point","coordinates":[2.291288,48.864389]},"properties":{"nom_voie":"AV PDT WILSON","code_postal":"75016","arrondissement":16,"prix_m2_median":16850.980392156864,"nb_transactions":8,"nb_lignes_metro":2,"nb_lignes_bus":7,"nb_points_velib":2,"score_accessibilite":11,"iaml_brut":1531.9073083778967,"iaml_score":83.0,"iaml_label":"Très tendu"}},{"type":"Feature","geometry":{"type":"Point","coordinates":[2.272801,48.84979]},"properties":{"nom_voie":"AV PERRICHONT","code_postal":"75016","arrondissement":16,"prix_m2_median":11134.782608695652,"nb_transactions":9,"nb_lignes_metro":2,"nb_lignes_bus":10,"nb_points_velib":0,"score_accessibilite":12,"iaml_brut":927.8985507246376,"iaml_score":41.5,"iaml_label":"Modéré"}},{"type":"Feature","geometry":{"type":"Point","coordinates":[2.391569,48.855459]},"properties":{"nom_voie":"AV PHILIPPE AUGUSTE","code_postal":"75011","arrondissement":11,"prix_m2_median":10132.38229755179,"nb_transactions":86,"nb_lignes_metro":2,"nb_lignes_bus":6,"nb_points_velib":0,"score_accessibilite":8,"iaml_brut":1266.5477871939738,"iaml_score":70.2,"iaml_label":"Tendu"}},{"type":"Feature","geometry":{"type":"Point","coordinates":[2.35255,48.900565]},"properties":{"nom_voie":"AV PTE DES POISSONNIERS","code_postal":"75018","arrondissement":18,"prix_m2_median":6817.511904761905,"nb_transactions":14,"nb_lignes_metro":0,"nb_lignes_bus":5,"nb_points_velib":0,"score_accessibilite":5,"iaml_brut":1363.502380952381,"iaml_score":76.0,"iaml_label":"Tendu"}},{"type":"Feature","geometry":{"type":"Point","coordinates":[2.330421,48.884789]},"properties":{"nom_voie":"AV RACHEL","code_postal":"75018","arrondissement":18,"prix_m2_median":11596.341085271317,"nb_transactions":6,"nb_lignes_metro":2,"nb_lignes_bus":12,"nb_points_velib":0,"score_accessibilite":14,"iaml_brut":828.3100775193798,"iaml_score":31.5,"iaml_label":"Accessible"}},{"type":"Feature","geometry":{"type":"Point","coordinates":[2.266913,48.858752]},"properties":{"nom_voie":"AV RAPHAEL","code_postal":"75016","arrondissement":16,"prix_m2_median":16153.846153846154,"nb_transactions":3,"nb_lignes_metro":1,"nb_lignes_bus":5,"nb_points_velib":0,"score_accessibilite":6,"iaml_brut":2692.3076923076924,"iaml_score":94.3,"iaml_label":"Très tendu"}},{"type":"Feature","geometry":{"type":"Point","coordinates":[2.300698,48.859242]},"properties":{"nom_voie":"AV RAPP","code_postal":"75007","arrondissement":7,"prix_m2_median":15010.588235294117,"nb_transactions":19,"nb_lignes_metro":0,"nb_lignes_bus":6,"nb_points_velib":0,"score_accessibilite":6,"iaml_brut":2501.7647058823527,"iaml_score":93.9,"iaml_label":"Très tendu"}},{"type":"Feature","geometry":{"type":"Point","coordinates":[2.285527,48.867773]},"properties":{"nom_voie":"AV RAYMOND POINCARE","code_postal":"75016","arrondissement":16,"prix_m2_median":12507.35294117647,"nb_transactions":17,"nb_lignes_metro":2,"nb_lignes_bus":5,"nb_points_velib":2,"score_accessibilite":9,"iaml_brut":1389.7058823529412,"iaml_score":77.4,"iaml_label":"Tendu"}},{"type":"Feature","geometry":{"type":"Point","coordinates":[2.339827,48.825127]},"properties":{"nom_voie":"AV REILLE","code_postal":"75014","arrondissement":14,"prix_m2_median":10636.274509803921,"nb_transactions":14,"nb_lignes_metro":0,"nb_lignes_bus":7,"nb_points_velib":0,"score_accessibilite":7,"iaml_brut":1519.4677871148458,"iaml_score":82.5,"iaml_label":"Très tendu"}},{"type":"Feature","geometry":{"type":"Point","coordinates":[2.283585,48.856167]},"properties":{"nom_voie":"AV RENE BOYLESVE","code_postal":"75016","arrondissement":16,"prix_m2_median":15086.666666666666,"nb_transactions":5,"nb_lignes_metro":1,"nb_lignes_bus":4,"nb_points_velib":0,"score_accessibilite":5,"iaml_brut":3017.333333333333,"iaml_score":95.2,"iaml_label":"Très tendu"}},{"type":"Feature","geometry":{"type":"Point","coordinates":[2.334064,48.828744]},"properties":{"nom_voie":"AV RENE COTY","code_postal":"75014","arrondissement":14,"prix_m2_median":8375.0,"nb_transactions":41,"nb_lignes_metro":1,"nb_lignes_bus":8,"nb_points_velib":0,"score_accessibilite":9,"iaml_brut":930.5555555555555,"iaml_score":41.9,"iaml_label":"Modéré"}},{"type":"Feature","geometry":{"type":"Point","coordinates":[2.366064,48.87207]},"properties":{"nom_voie":"AV RICHERAND","code_postal":"75010","arrondissement":10,"prix_m2_median":11747.899159663866,"nb_transactions":6,"nb_lignes_metro":2,"nb_lignes_bus":11,"nb_points_velib":0,"score_accessibilite":13,"iaml_brut":903.6845507433743,"iaml_score":38.9,"iaml_label":"Accessible"}},{"type":"Feature","geometry":{"type":"Point","coordinates":[2.274707,48.863452]},"properties":{"nom_voie":"AV RODIN","code_postal":"75016","arrondissement":16,"prix_m2_median":13821.42857142857,"nb_transactions":3,"nb_lignes_metro":1,"nb_lignes_bus":6,"nb_points_velib":0,"score_accessibilite":7,"iaml_brut":1974.4897959183672,"iaml_score":90.8,"iaml_label":"Très tendu"}},{"type":"Feature","geometry":{"type":"Point","coordinates":[2.372266,48.881813]},"properties":{"nom_voie":"AV SECRETAN","code_postal":"75019","arrondissement":19,"prix_m2_median":11567.361111111111,"nb_transactions":78,"nb_lignes_metro":4,"nb_lignes_bus":9,"nb_points_velib":0,"score_accessibilite":13,"iaml_brut":889.7970085470085,"iaml_score":37.9,"iaml_label":"Accessible"}},{"type":"Feature","geometry":{"type":"Point","coordinates":[2.376731,48.876575]},"properties":{"nom_voie":"AV SIMON BOLIVAR","code_postal":"75019","arrondissement":19,"prix_m2_median":10377.358490566037,"nb_transactions":81,"nb_lignes_metro":2,"nb_lignes_bus":6,"nb_points_velib":0,"score_accessibilite":8,"iaml_brut":1297.1698113207547,"iaml_score":71.8,"iaml_label":"Tendu"}},{"type":"Feature","geometry":{"type":"Point","coordinates":[2.286727,48.867548]},"properties":{"nom_voie":"AV ST HONORE D EYLAU","code_postal":"75016","arrondissement":16,"prix_m2_median":15086.72463768116,"nb_transactions":3,"nb_lignes_metro":3,"nb_lignes_bus":7,"nb_points_velib":2,"score_accessibilite":12,"iaml_brut":1257.2270531400966,"iaml_score":69.6,"iaml_label":"Tendu"}},{"type":"Feature","geometry":{"type":"Point","coordinates":[2.293362,48.886351]},"properties":{"nom_voie":"AV STEPHANE MALLARME","code_postal":"75017","arrondissement":17,"prix_m2_median":9122.807017543859,"nb_transactions":3,"nb_lignes_metro":1,"nb_lignes_bus":11,"nb_points_velib":0,"score_accessibilite":12,"iaml_brut":760.2339181286549,"iaml_score":24.1,"iaml_label":"Accessible"}},{"type":"Feature","geometry":{"type":"Point","coordinates":[2.35926,48.832494]},"properties":{"nom_voie":"AV STEPHEN PICHON","code_postal":"75013","arrondissement":13,"prix_m2_median":9500.0,"nb_transactions":7,"nb_lignes_metro":3,"nb_lignes_bus":12,"nb_points_velib":0,"score_accessibilite":15,"iaml_brut":633.3333333333334,"iaml_score":13.4,"iaml_label":"Très accessible"}},{"type":"Feature","geometry":{"type":"Point","coordinates":[2.394148,48.874204]},"properties":{"nom_voie":"AV TAILLADE","code_postal":"75020","arrondissement":20,"prix_m2_median":10046.511627906977,"nb_transactions":5,"nb_lignes_metro":2,"nb_lignes_bus":7,"nb_points_velib":0,"score_accessibilite":9,"iaml_brut":1116.2790697674418,"iaml_score":59.2,"iaml_label":"Modéré"}},{"type":"Feature","geometry":{"type":"Point","coordinates":[2.26976,48.854117]},"properties":{"nom_voie":"AV THEODORE ROUSSEAU","code_postal":"75016","arrondissement":16,"prix_m2_median":12150.0,"nb_transactions":4,"nb_lignes_metro":1,"nb_lignes_bus":4,"nb_points_velib":0,"score_accessibilite":5,"iaml_brut":2430.0,"iaml_score":93.7,"iaml_label":"Très tendu"}},{"type":"Feature","geometry":{"type":"Point","coordinates":[2.27345,48.850312]},"properties":{"nom_voie":"AV THEOPHILE GAUTIER","code_postal":"75016","arrondissement":16,"prix_m2_median":10834.782608695652,"nb_transactions":32,"nb_lignes_metro":2,"nb_lignes_bus":7,"nb_points_velib":0,"score_accessibilite":9,"iaml_brut":1203.8647342995168,"iaml_score":66.0,"iaml_label":"Tendu"}},{"type":"Feature","geometry":{"type":"Point","coordinates":[2.343313,48.881119]},"properties":{"nom_voie":"AV TRUDAINE","code_postal":"75009","arrondissement":9,"prix_m2_median":12900.0,"nb_transactions":27,"nb_lignes_metro":2,"nb_lignes_bus":11,"nb_points_velib":2,"score_accessibilite":15,"iaml_brut":860.0,"iaml_score":34.8,"iaml_label":"Accessible"}},{"type":"Feature","geometry":{"type":"Point","coordinates":[2.313123,48.8797]},"properties":{"nom_voie":"AV VELASQUEZ","code_postal":"75008","arrondissement":8,"prix_m2_median":15086.95652173913,"nb_transactions":3,"nb_lignes_metro":2,"nb_lignes_bus":9,"nb_points_velib":0,"score_accessibilite":11,"iaml_brut":1371.5415019762845,"iaml_score":76.5,"iaml_label":"Tendu"}},{"type":"Feature","geometry":{"type":"Point","coordinates":[2.282292,48.867956]},"properties":{"nom_voie":"AV VICTOR HUGO","code_postal":"75016","arrondissement":16,"prix_m2_median":16566.666666666668,"nb_transactions":73,"nb_lignes_metro":1,"nb_lignes_bus":3,"nb_points_velib":0,"score_accessibilite":4,"iaml_brut":4141.666666666667,"iaml_score":96.3,"iaml_label":"Très tendu"}},{"type":"Feature","geometry":{"type":"Point","coordinates":[2.349688,48.857422]},"properties":{"nom_voie":"AV VICTORIA","code_postal":"75004","arrondissement":4,"prix_m2_median":13027.522935779816,"nb_transactions":5,"nb_lignes_metro":5,"nb_lignes_bus":25,"nb_points_velib":0,"score_accessibilite":30,"iaml_brut":434.2507645259939,"iaml_score":5.4,"iaml_label":"Très accessible"}},{"type":"Feature","geometry":{"type":"Point","coordinates":[2.316501,48.831743]},"properties":{"nom_voie":"AV VILLEMAIN","code_postal":"75014","arrondissement":14,"prix_m2_median":10931.818181818182,"nb_transactions":8,"nb_lignes_metro":1,"nb_lignes_bus":4,"nb_points_velib":1,"score_accessibilite":6,"iaml_brut":1821.969696969697,"iaml_score":89.1,"iaml_label":"Très tendu"}},{"type":"Feature","geometry":{"type":"Point","coordinates":[2.269776,48.856311]},"properties":{"nom_voie":"AV VION WHITCOMB","code_postal":"75016","arrondissement":16,"prix_m2_median":10839.285714285714,"nb_transactions":4,"nb_lignes_metro":1,"nb_lignes_bus":6,"nb_points_velib":0,"score_accessibilite":7,"iaml_brut":1548.469387755102,"iaml_score":83.4,"iaml_label":"Très tendu"}},{"type":"Feature","geometry":{"type":"Point","coordinates":[2.347938,48.835282]},"properties":{"nom_voie":"BD ARAGO","code_postal":"75013","arrondissement":13,"prix_m2_median":11937.5,"nb_transactions":35,"nb_lignes_metro":1,"nb_lignes_bus":11,"nb_points_velib":0,"score_accessibilite":12,"iaml_brut":994.7916666666666,"iaml_score":48.7,"iaml_label":"Modéré"}},{"type":"Feature","geometry":{"type":"Point","coordinates":[2.334138,48.834187]},"properties":{"nom_voie":"BD ARAGO","code_postal":"75014","arrondissement":14,"prix_m2_median":30936.490296220632,"nb_transactions":20,"nb_lignes_metro":2,"nb_lignes_bus":10,"nb_points_velib":1,"score_accessibilite":13,"iaml_brut":2379.7300227862024,"iaml_score":93.3,"iaml_label":"Très tendu"}},{"type":"Feature","geometry":{"type":"Point","coordinates":[2.343623,48.830555]},"properties":{"nom_voie":"BD AUGUSTE BLANQUI","code_postal":"75013","arrondissement":13,"prix_m2_median":9662.611198325485,"nb_transactions":34,"nb_lignes_metro":1,"nb_lignes_bus":6,"nb_points_velib":0,"score_accessibilite":7,"iaml_brut":1380.3730283322122,"iaml_score":77.0,"iaml_label":"Tendu"}},{"type":"Feature","geometry":{"type":"Point","coordinates":[2.35004,48.889078]},"properties":{"nom_voie":"BD BARBES","code_postal":"75018","arrondissement":18,"prix_m2_median":9990.24717093508,"nb_transactions":56,"nb_lignes_metro":2,"nb_lignes_bus":9,"nb_points_velib":0,"score_accessibilite":11,"iaml_brut":908.2042882668254,"iaml_score":39.5,"iaml_label":"Accessible"}},{"type":"Feature","geometry":{"type":"Point","coordinates":[2.36731,48.859067]},"properties":{"nom_voie":"BD BEAUMARCHAIS","code_postal":"75003","arrondissement":3,"prix_m2_median":12975.585585585586,"nb_transactions":10,"nb_lignes_metro":2,"nb_lignes_bus":7,"nb_points_velib":0,"score_accessibilite":9,"iaml_brut":1441.7317317317318,"iaml_score":79.5,"iaml_label":"Tendu"}},{"type":"Feature","geometry":{"type":"Point","coordinates":[2.36843,48.854425]},"properties":{"nom_voie":"BD BEAUMARCHAIS","code_postal":"75004","arrondissement":4,"prix_m2_median":12217.021276595744,"nb_transactions":7,"nb_lignes_metro":3,"nb_lignes_bus":11,"nb_points_velib":0,"score_accessibilite":14,"iaml_brut":872.644376899696,"iaml_score":36.2,"iaml_label":"Accessible"}},{"type":"Feature","geometry":{"type":"Point","coordinates":[2.368768,48.856441]},"properties":{"nom_voie":"BD BEAUMARCHAIS","code_postal":"75011","arrondissement":11,"prix_m2_median":11739.130434782608,"nb_transactions":23,"nb_lignes_metro":3,"nb_lignes_bus":11,"nb_points_velib":0,"score_accessibilite":14,"iaml_brut":838.5093167701863,"iaml_score":32.7,"iaml_label":"Accessible"}},{"type":"Feature","geometry":{"type":"Point","coordinates":[2.300514,48.887994]},"properties":{"nom_voie":"BD BERTHIER","code_postal":"75017","arrondissement":17,"prix_m2_median":10961.702127659575,"nb_transactions":29,"nb_lignes_metro":1,"nb_lignes_bus":10,"nb_points_velib":0,"score_accessibilite":11,"iaml_brut":996.5183752417796,"iaml_score":48.9,"iaml_label":"Modéré"}},{"type":"Feature","geometry":{"type":"Point","coordinates":[2.326563,48.897301]},"properties":{"nom_voie":"BD BESSIERES","code_postal":"75017","arrondissement":17,"prix_m2_median":8027.997364953887,"nb_transactions":12,"nb_lignes_metro":1,"nb_lignes_bus":6,"nb_points_velib":0,"score_accessibilite":7,"iaml_brut":1146.8567664219838,"iaml_score":61.6,"iaml_label":"Tendu"}},{"type":"Feature","geometry":{"type":"Point","coordinates":[2.36705,48.851428]},"properties":{"nom_voie":"BD BOURDON","code_postal":"75004","arrondissement":4,"prix_m2_median":32048.192771084337,"nb_transactions":16,"nb_lignes_metro":4,"nb_lignes_bus":12,"nb_points_velib":1,"score_accessibilite":17,"iaml_brut":1885.1878100637846,"iaml_score":90.1,"iaml_label":"Très tendu"}},{"type":"Feature","geometry":{"type":"Point","coordinates":[2.313635,48.826255]},"properties":{"nom_voie":"BD BRUNE","code_postal":"75014","arrondissement":14,"prix_m2_median":9741.024305555555,"nb_transactions":20,"nb_lignes_metro":1,"nb_lignes_bus":7,"nb_points_velib":1,"score_accessibilite":9,"iaml_brut":1082.336033950617,"iaml_score":56.0,"iaml_label":"Modéré"}},{"type":"Feature","geometry":{"type":"Point","coordinates":[2.409286,48.858592]},"properties":{"nom_voie":"BD DAVOUT","code_postal":"75020","arrondissement":20,"prix_m2_median":9859.569264069265,"nb_transactions":38,"nb_lignes_metro":1,"nb_lignes_bus":9,"nb_points_velib":0,"score_accessibilite":10,"iaml_brut":985.9569264069265,"iaml_score":47.7,"iaml_label":"Modéré"}},{"type":"Feature","geometry":{"type":"Point","coordinates":[2.266688,48.856605]},"properties":{"nom_voie":"BD DE BEAUSEJOUR","code_postal":"75016","arrondissement":16,"prix_m2_median":12098.721023181455,"nb_transactions":10,"nb_lignes_metro":1,"nb_lignes_bus":5,"nb_points_velib":0,"score_accessibilite":6,"iaml_brut":2016.4535038635759,"iaml_score":91.2,"iaml_label":"Très tendu"}},{"type":"Feature","geometry":{"type":"Point","coordinates":[2.380374,48.868411]},"properties":{"nom_voie":"BD DE BELLEVILLE","code_postal":"75011","arrondissement":11,"prix_m2_median":9632.25371120108,"nb_transactions":26,"nb_lignes_metro":2,"nb_lignes_bus":5,"nb_points_velib":0,"score_accessibilite":7,"iaml_brut":1376.036244457297,"iaml_score":76.7,"iaml_label":"Tendu"}},{"type":"Feature","geometry":{"type":"Point","coordinates":[2.379834,48.870056]},"properties":{"nom_voie":"BD DE BELLEVILLE","code_postal":"75020","arrondissement":20,"prix_m2_median":9230.76923076923,"nb_transactions":11,"nb_lignes_metro":2,"nb_lignes_bus":5,"nb_points_velib":0,"score_accessibilite":7,"iaml_brut":1318.6813186813185,"iaml_score":73.3,"iaml_label":"Tendu"}},{"type":"Feature","geometry":{"type":"Point","coordinates":[2.388056,48.838576]},"properties":{"nom_voie":"BD DE BERCY","code_postal":"75012","arrondissement":12,"prix_m2_median":10188.57142857143,"nb_transactions":3,"nb_lignes_metro":1,"nb_lignes_bus":11,"nb_points_velib":2,"score_accessibilite":14,"iaml_brut":727.7551020408164,"iaml_score":20.5,"iaml_label":"Accessible"}},{"type":"Feature","geometry":{"type":"Point","coordinates":[2.352093,48.869578]},"properties":{"nom_voie":"BD DE BONNE NOUVELLE","code_postal":"75002","arrondissement":2,"prix_m2_median":7303.541666666666,"nb_transactions":4,"nb_lignes_metro":4,"nb_lignes_bus":8,"nb_points_velib":3,"score_accessibilite":15,"iaml_brut":486.9027777777777,"iaml_score":6.6,"iaml_label":"Très accessible"}},{"type":"Feature","geometry":{"type":"Point","coordinates":[2.351695,48.87023]},"properties":{"nom_voie":"BD DE BONNE NOUVELLE","code_postal":"75010","arrondissement":10,"prix_m2_median":11352.1875,"nb_transactions":10,"nb_lignes_metro":4,"nb_lignes_bus":6,"nb_points_velib":3,"score_accessibilite":13,"iaml_brut":873.2451923076923,"iaml_score":36.4,"iaml_label":"Accessible"}},{"type":"Feature","geometry":{"type":"Point","coordinates":[2.395923,48.853255]},"properties":{"nom_voie":"BD DE CHARONNE","code_postal":"75011","arrondissement":11,"prix_m2_median":10000.0,"nb_transactions":44,"nb_lignes_metro":2,"nb_lignes_bus":8,"nb_points_velib":0,"score_accessibilite":10,"iaml_brut":1000.0,"iaml_score":49.2,"iaml_label":"Modéré"}},{"type":"Feature","geometry":{"type":"Point","coordinates":[2.396628,48.854336]},"properties":{"nom_voie":"BD DE CHARONNE","code_postal":"75020","arrondissement":20,"prix_m2_median":10266.571969696968,"nb_transactions":48,"nb_lignes_metro":2,"nb_lignes_bus":6,"nb_points_velib":0,"score_accessibilite":8,"iaml_brut":1283.321496212121,"iaml_score":71.1,"iaml_label":"Tendu"}},{"type":"Feature","geometry":{"type":"Point","coordinates":[2.33938,48.881779]},"properties":{"nom_voie":"BD DE CLICHY","code_postal":"75009","arrondissement":9,"prix_m2_median":6060.606060606061,"nb_transactions":30,"nb_lignes_metro":2,"nb_lignes_bus":7,"nb_points_velib":0,"score_accessibilite":9,"iaml_brut":673.4006734006734,"iaml_score":15.9,"iaml_label":"Très accessible"}},{"type":"Feature","geometry":{"type":"Point","coordinates":[2.33465,48.883727]},"properties":{"nom_voie":"BD DE CLICHY","code_postal":"75018","arrondissement":18,"prix_m2_median":12267.219387755102,"nb_transactions":40,"nb_lignes_metro":2,"nb_lignes_bus":9,"nb_points_velib":0,"score_accessibilite":11,"iaml_brut":1115.201762523191,"iaml_score":59.1,"iaml_label":"Modéré"}},{"type":"Feature","geometry":{"type":"Point","coordinates":[2.304369,48.87901]},"properties":{"nom_voie":"BD DE COURCELLES","code_postal":"75008","arrondissement":8,"prix_m2_median":13487.080745341615,"nb_transactions":29,"nb_lignes_metro":1,"nb_lignes_bus":7,"nb_points_velib":1,"score_accessibilite":9,"iaml_brut":1498.5645272601794,"iaml_score":81.9,"iaml_label":"Très tendu"}},{"type":"Feature","geometry":{"type":"Point","coordinates":[2.307332,48.880394]},"properties":{"nom_voie":"BD DE COURCELLES","code_postal":"75017","arrondissement":17,"prix_m2_median":12518.518518518518,"nb_transactions":9,"nb_lignes_metro":2,"nb_lignes_bus":6,"nb_points_velib":1,"score_accessibilite":9,"iaml_brut":1390.946502057613,"iaml_score":77.4,"iaml_label":"Tendu"}},{"type":"Feature","geometry":{"type":"Point","coordinates":[2.354023,48.879803]},"properties":{"nom_voie":"BD DE DENAIN","code_postal":"75010","arrondissement":10,"prix_m2_median":9641.02564102564,"nb_transactions":4,"nb_lignes_metro":3,"nb_lignes_bus":28,"nb_points_velib":2,"score_accessibilite":33,"iaml_brut":292.15229215229215,"iaml_score":1.8,"iaml_label":"Très accessible"}},{"type":"Feature","geometry":{"type":"Point","coordinates":[2.284755,48.882766]},"properties":{"nom_voie":"BD DE DIXMUDE","code_postal":"75017","arrondissement":17,"prix_m2_median":8521.791352093342,"nb_transactions":4,"nb_lignes_metro":0,"nb_lignes_bus":6,"nb_points_velib":1,"score_accessibilite":7,"iaml_brut":1217.398764584763,"iaml_score":66.8,"iaml_label":"Tendu"}},{"type":"Feature","geometry":{"type":"Point","coordinates":[2.294449,48.850286]},"properties":{"nom_voie":"BD DE GRENELLE","code_postal":"75015","arrondissement":15,"prix_m2_median":11785.714285714286,"nb_transactions":75,"nb_lignes_metro":3,"nb_lignes_bus":6,"nb_points_velib":1,"score_accessibilite":10,"iaml_brut":1178.5714285714287,"iaml_score":64.3,"iaml_label":"Tendu"}},{"type":"Feature","geometry":{"type":"Point","coordinates":[2.36201,48.841111]},"properties":{"nom_voie":"BD DE L HOPITAL","code_postal":"75005","arrondissement":5,"prix_m2_median":11264.754285714285,"nb_transactions":22,"nb_lignes_metro":2,"nb_lignes_bus":14,"nb_points_velib":5,"score_accessibilite":21,"iaml_brut":536.4168707482993,"iaml_score":8.0,"iaml_label":"Très accessible"}},{"type":"Feature","geometry":{"type":"Point","coordinates":[2.359337,48.837111]},"properties":{"nom_voie":"BD DE L HOPITAL","code_postal":"75013","arrondissement":13,"prix_m2_median":10454.545454545454,"nb_transactions":29,"nb_lignes_metro":2,"nb_lignes_bus":9,"nb_points_velib":0,"score_accessibilite":11,"iaml_brut":950.4132231404958,"iaml_score":44.4,"iaml_label":"Modéré"}},{"type":"Feature","geometry":{"type":"Point","coordinates":[2.368854,48.849983]},"properties":{"nom_voie":"BD DE LA BASTILLE","code_postal":"75012","arrondissement":12,"prix_m2_median":11586.41715727502,"nb_transactions":18,"nb_lignes_metro":3,"nb_lignes_bus":16,"nb_points_velib":1,"score_accessibilite":20,"iaml_brut":579.320857863751,"iaml_score":10.1,"iaml_label":"Très accessible"}},{"type":"Feature","geometry":{"type":"Point","coordinates":[2.358666,48.884044]},"properties":{"nom_voie":"BD DE LA CHAPELLE","code_postal":"75010","arrondissement":10,"prix_m2_median":8145.900058445353,"nb_transactions":8,"nb_lignes_metro":2,"nb_lignes_bus":17,"nb_points_velib":3,"score_accessibilite":22,"iaml_brut":370.26818447478877,"iaml_score":4.0,"iaml_label":"Très accessible"}},{"type":"Feature","geometry":{"type":"Point","coordinates":[2.363817,48.884993]},"properties":{"nom_voie":"BD DE LA CHAPELLE","code_postal":"75018","arrondissement":18,"prix_m2_median":8338.874643874644,"nb_transactions":12,"nb_lignes_metro":4,"nb_lignes_bus":14,"nb_points_velib":1,"score_accessibilite":19,"iaml_brut":438.888139151297,"iaml_score":5.6,"iaml_label":"Très accessible"}},{"type":"Feature","geometry":{"type":"Point","coordinates":[2.326914,48.870127]},"properties":{"nom_voie":"BD DE LA MADELEINE","code_postal":"75009","arrondissement":9,"prix_m2_median":13461.538461538461,"nb_transactions":5,"nb_lignes_metro":7,"nb_lignes_bus":17,"nb_points_velib":0,"score_accessibilite":24,"iaml_brut":560.8974358974359,"iaml_score":9.4,"iaml_label":"Très accessible"}},{"type":"Feature","geometry":{"type":"Point","coordinates":[2.290599,48.886442]},"properties":{"nom_voie":"BD DE LA SOMME","code_postal":"75017","arrondissement":17,"prix_m2_median":10146.825396825396,"nb_transactions":4,"nb_lignes_metro":1,"nb_lignes_bus":9,"nb_points_velib":0,"score_accessibilite":10,"iaml_brut":1014.6825396825395,"iaml_score":50.5,"iaml_label":"Modéré"}},{"type":"Feature","geometry":{"type":"Point","coordinates":[2.309776,48.858833]},"properties":{"nom_voie":"BD DE LA TOUR MAUBOURG","code_postal":"75007","arrondissement":7,"prix_m2_median":14414.893617021276,"nb_transactions":21,"nb_lignes_metro":2,"nb_lignes_bus":6,"nb_points_velib":0,"score_accessibilite":8,"iaml_brut":1801.8617021276596,"iaml_score":88.7,"iaml_label":"Très tendu"}},{"type":"Feature","geometry":{"type":"Point","coordinates":[2.37184,48.875724]},"properties":{"nom_voie":"BD DE LA VILLETTE","code_postal":"75010","arrondissement":10,"prix_m2_median":9791.666666666666,"nb_transactions":45,"nb_lignes_metro":2,"nb_lignes_bus":7,"nb_points_velib":0,"score_accessibilite":9,"iaml_brut":1087.9629629629628,"iaml_score":56.5,"iaml_label":"Modéré"}},{"type":"Feature","geometry":{"type":"Point","coordinates":[2.372137,48.877073]},"properties":{"nom_voie":"BD DE LA VILLETTE","code_postal":"75019","arrondissement":19,"prix_m2_median":9609.756097560976,"nb_transactions":21,"nb_lignes_metro":2,"nb_lignes_bus":7,"nb_points_velib":0,"score_accessibilite":9,"iaml_brut":1067.750677506775,"iaml_score":54.9,"iaml_label":"Modéré"}},{"type":"Feature","geometry":{"type":"Point","coordinates":[2.356624,48.875689]},"properties":{"nom_voie":"BD DE MAGENTA","code_postal":"75010","arrondissement":10,"prix_m2_median":10193.661971830987,"nb_transactions":75,"nb_lignes_metro":3,"nb_lignes_bus":26,"nb_points_velib":6,"score_accessibilite":35,"iaml_brut":291.2474849094568,"iaml_score":1.7,"iaml_label":"Très accessible"}},{"type":"Feature","geometry":{"type":"Point","coordinates":[2.38514,48.86446]},"properties":{"nom_voie":"BD DE MENILMONTANT","code_postal":"75011","arrondissement":11,"prix_m2_median":10663.057124921532,"nb_transactions":16,"nb_lignes_metro":2,"nb_lignes_bus":5,"nb_points_velib":0,"score_accessibilite":7,"iaml_brut":1523.2938749887903,"iaml_score":82.7,"iaml_label":"Très tendu"}},{"type":"Feature","geometry":{"type":"Point","coordinates":[2.386579,48.864209]},"properties":{"nom_voie":"BD DE MENILMONTANT","code_postal":"75020","arrondissement":20,"prix_m2_median":10377.083333333334,"nb_transactions":15,"nb_lignes_metro":2,"nb_lignes_bus":9,"nb_points_velib":0,"score_accessibilite":11,"iaml_brut":943.3712121212121,"iaml_score":43.5,"iaml_label":"Modéré"}},{"type":"Feature","geometry":{"type":"Point","coordinates":[2.26329,48.853007]},"properties":{"nom_voie":"BD DE MONTMORENCY","code_postal":"75016","arrondissement":16,"prix_m2_median":11657.142857142857,"nb_transactions":17,"nb_lignes_metro":1,"nb_lignes_bus":5,"nb_points_velib":0,"score_accessibilite":6,"iaml_brut":1942.857142857143,"iaml_score":90.5,"iaml_label":"Très tendu"}},{"type":"Feature","geometry":{"type":"Point","coordinates":[2.401503,48.842785]},"properties":{"nom_voie":"BD DE PICPUS","code_postal":"75012","arrondissement":12,"prix_m2_median":10722.402597402597,"nb_transactions":26,"nb_lignes_metro":2,"nb_lignes_bus":7,"nb_points_velib":1,"score_accessibilite":10,"iaml_brut":1072.2402597402597,"iaml_score":55.4,"iaml_label":"Modéré"}},{"type":"Feature","geometry":{"type":"Point","coordinates":[2.345164,48.838019]},"properties":{"nom_voie":"BD DE PORT-ROYAL","code_postal":"75005","arrondissement":5,"prix_m2_median":12645.833333333334,"nb_transactions":25,"nb_lignes_metro":0,"nb_lignes_bus":11,"nb_points_velib":0,"score_accessibilite":11,"iaml_brut":1149.6212121212122,"iaml_score":61.9,"iaml_label":"Tendu"}},{"type":"Feature","geometry":{"type":"Point","coordinates":[2.34823,48.836849]},"properties":{"nom_voie":"BD DE PORT-ROYAL","code_postal":"75013","arrondissement":13,"prix_m2_median":11352.107279693486,"nb_transactions":18,"nb_lignes_metro":1,"nb_lignes_bus":11,"nb_points_velib":0,"score_accessibilite":12,"iaml_brut":946.0089399744571,"iaml_score":43.8,"iaml_label":"Modéré"}},{"type":"Feature","geometry":{"type":"Point","coordinates":[2.39752,48.839404]},"properties":{"nom_voie":"BD DE REUILLY","code_postal":"75012","arrondissement":12,"prix_m2_median":10600.0,"nb_transactions":42,"nb_lignes_metro":2,"nb_lignes_bus":7,"nb_points_velib":0,"score_accessibilite":9,"iaml_brut":1177.7777777777778,"iaml_score":64.2,"iaml_label":"Tendu"}},{"type":"Feature","geometry":{"type":"Point","coordinates":[2.341185,48.881966]},"properties":{"nom_voie":"BD DE ROCHECHOUART","code_postal":"75009","arrondissement":9,"prix_m2_median":11118.730729166666,"nb_transactions":18,"nb_lignes_metro":2,"nb_lignes_bus":9,"nb_points_velib":1,"score_accessibilite":12,"iaml_brut":926.5608940972221,"iaml_score":41.4,"iaml_label":"Modéré"}},{"type":"Feature","geometry":{"type":"Point","coordinates":[2.350545,48.86331]},"properties":{"nom_voie":"BD DE SEBASTOPOL","code_postal":"75001","arrondissement":1,"prix_m2_median":363416.6666666666,"nb_transactions":16,"nb_lignes_metro":3,"nb_lignes_bus":9,"nb_points_velib":2,"score_accessibilite":14,"iaml_brut":25958.333333333332,"iaml_score":99.5,"iaml_label":"Très tendu"}},{"type":"Feature","geometry":{"type":"Point","coordinates":[2.352224,48.866277]},"properties":{"nom_voie":"BD DE SEBASTOPOL","code_postal":"75002","arrondissement":2,"prix_m2_median":11964.285714285714,"nb_transactions":6,"nb_lignes_metro":5,"nb_lignes_bus":10,"nb_points_velib":2,"score_accessibilite":17,"iaml_brut":703.7815126050419,"iaml_score":18.5,"iaml_label":"Très accessible"}},{"type":"Feature","geometry":{"type":"Point","coordinates":[2.349891,48.860785]},"properties":{"nom_voie":"BD DE SEBASTOPOL","code_postal":"75004","arrondissement":4,"prix_m2_median":12275.160724722384,"nb_transactions":4,"nb_lignes_metro":5,"nb_lignes_bus":26,"nb_points_velib":0,"score_accessibilite":31,"iaml_brut":395.9729266039479,"iaml_score":4.4,"iaml_label":"Très accessible"}},{"type":"Feature","geometry":{"type":"Point","coordinates":[2.355511,48.871786]},"properties":{"nom_voie":"BD DE STRASBOURG","code_postal":"75010","arrondissement":10,"prix_m2_median":10193.16877152698,"nb_transactions":38,"nb_lignes_metro":4,"nb_lignes_bus":20,"nb_points_velib":4,"score_accessibilite":28,"iaml_brut":364.0417418402493,"iaml_score":3.8,"iaml_label":"Très accessible"}},{"type":"Feature","geometry":{"type":"Point","coordinates":[2.316841,48.842126]},"properties":{"nom_voie":"BD DE VAUGIRARD","code_postal":"75015","arrondissement":15,"prix_m2_median":12260.87962962963,"nb_transactions":10,"nb_lignes_metro":3,"nb_lignes_bus":25,"nb_points_velib":2,"score_accessibilite":30,"iaml_brut":408.69598765432096,"iaml_score":4.6,"iaml_label":"Très accessible"}},{"type":"Feature","geometry":{"type":"Point","coordinates":[2.28668,48.858657]},"properties":{"nom_voie":"BD DELESSERT","code_postal":"75016","arrondissement":16,"prix_m2_median":148.92857142857142,"nb_transactions":3,"nb_lignes_metro":2,"nb_lignes_bus":7,"nb_points_velib":0,"score_accessibilite":9,"iaml_brut":16.547619047619047,"iaml_score":0.1,"iaml_label":"Très accessible"}},{"type":"Feature","geometry":{"type":"Point","coordinates":[2.325299,48.882661]},"properties":{"nom_voie":"BD DES BATIGNOLLES","code_postal":"75008","arrondissement":8,"prix_m2_median":12272.727272727272,"nb_transactions":10,"nb_lignes_metro":2,"nb_lignes_bus":16,"nb_points_velib":1,"score_accessibilite":19,"iaml_brut":645.9330143540669,"iaml_score":14.3,"iaml_label":"Très accessible"}},{"type":"Feature","geometry":{"type":"Point","coordinates":[2.318877,48.882283]},"properties":{"nom_voie":"BD DES BATIGNOLLES","code_postal":"75017","arrondissement":17,"prix_m2_median":12704.048979591837,"nb_transactions":6,"nb_lignes_metro":2,"nb_lignes_bus":11,"nb_points_velib":1,"score_accessibilite":14,"iaml_brut":907.4320699708454,"iaml_score":39.4,"iaml_label":"Accessible"}},{"type":"Feature","geometry":{"type":"Point","coordinates":[2.314227,48.849952]},"properties":{"nom_voie":"BD DES INVALIDES","code_postal":"75007","arrondissement":7,"prix_m2_median":16830.065359477125,"nb_transactions":15,"nb_lignes_metro":2,"nb_lignes_bus":6,"nb_points_velib":0,"score_accessibilite":8,"iaml_brut":2103.7581699346406,"iaml_score":91.8,"iaml_label":"Très tendu"}},{"type":"Feature","geometry":{"type":"Point","coordinates":[2.386347,48.847089]},"properties":{"nom_voie":"BD DIDEROT","code_postal":"75012","arrondissement":12,"prix_m2_median":10563.91347826087,"nb_transactions":32,"nb_lignes_metro":2,"nb_lignes_bus":9,"nb_points_velib":3,"score_accessibilite":14,"iaml_brut":754.565248447205,"iaml_score":23.6,"iaml_label":"Accessible"}},{"type":"Feature","geometry":{"type":"Point","coordinates":[2.325215,48.844028]},"properties":{"nom_voie":"BD DU MONTPARNASSE","code_postal":"75006","arrondissement":6,"prix_m2_median":12712.264150943396,"nb_transactions":24,"nb_lignes_metro":4,"nb_lignes_bus":22,"nb_points_velib":0,"score_accessibilite":26,"iaml_brut":488.933236574746,"iaml_score":6.7,"iaml_label":"Très accessible"}},{"type":"Feature","geometry":{"type":"Point","coordinates":[2.330464,48.841345]},"properties":{"nom_voie":"BD DU MONTPARNASSE","code_postal":"75014","arrondissement":14,"prix_m2_median":12500.0,"nb_transactions":17,"nb_lignes_metro":3,"nb_lignes_bus":12,"nb_points_velib":0,"score_accessibilite":15,"iaml_brut":833.3333333333334,"iaml_score":32.0,"iaml_label":"Accessible"}},{"type":"Feature","geometry":{"type":"Point","coordinates":[2.321994,48.844162]},"properties":{"nom_voie":"BD DU MONTPARNASSE","code_postal":"75015","arrondissement":15,"prix_m2_median":12432.692307692309,"nb_transactions":5,"nb_lignes_metro":4,"nb_lignes_bus":25,"nb_points_velib":0,"score_accessibilite":29,"iaml_brut":428.71352785145893,"iaml_score":5.2,"iaml_label":"Très accessible"}},{"type":"Feature","geometry":{"type":"Point","coordinates":[2.365575,48.864018]},"properties":{"nom_voie":"BD DU TEMPLE","code_postal":"75003","arrondissement":3,"prix_m2_median":19200.0,"nb_transactions":4,"nb_lignes_metro":5,"nb_lignes_bus":11,"nb_points_velib":1,"score_accessibilite":17,"iaml_brut":1129.4117647058824,"iaml_score":60.0,"iaml_label":"Modéré"}},{"type":"Feature","geometry":{"type":"Point","coordinates":[2.366004,48.865285]},"properties":{"nom_voie":"BD DU TEMPLE","code_postal":"75011","arrondissement":11,"prix_m2_median":11059.134615384615,"nb_transactions":20,"nb_lignes_metro":5,"nb_lignes_bus":11,"nb_points_velib":0,"score_accessibilite":16,"iaml_brut":691.1959134615385,"iaml_score":17.2,"iaml_label":"Très accessible"}},{"type":"Feature","geometry":{"type":"Point","coordinates":[2.324333,48.84128]},"properties":{"nom_voie":"BD EDGAR QUINET","code_postal":"75014","arrondissement":14,"prix_m2_median":12080.833333333332,"nb_transactions":24,"nb_lignes_metro":4,"nb_lignes_bus":24,"nb_points_velib":0,"score_accessibilite":28,"iaml_brut":431.4583333333333,"iaml_score":5.4,"iaml_label":"Très accessible"}},{"type":"Feature","geometry":{"type":"Point","coordinates":[2.273122,48.862461]},"properties":{"nom_voie":"BD EMILE AUGIER","code_postal":"75016","arrondissement":16,"prix_m2_median":12865.384615384615,"nb_transactions":10,"nb_lignes_metro":1,"nb_lignes_bus":6,"nb_points_velib":0,"score_accessibilite":7,"iaml_brut":1837.9120879120878,"iaml_score":89.6,"iaml_label":"Très tendu"}},{"type":"Feature","geometry":{"type":"Point","coordinates":[2.260738,48.842888]},"properties":{"nom_voie":"BD EXELMANS","code_postal":"75016","arrondissement":16,"prix_m2_median":10387.241379310344,"nb_transactions":47,"nb_lignes_metro":2,"nb_lignes_bus":9,"nb_points_velib":0,"score_accessibilite":11,"iaml_brut":944.294670846395,"iaml_score":43.6,"iaml_label":"Modéré"}},{"type":"Feature","geometry":{"type":"Point","coordinates":[2.27295,48.865885]},"properties":{"nom_voie":"BD FLANDRIN","code_postal":"75016","arrondissement":16,"prix_m2_median":12414.965986394558,"nb_transactions":27,"nb_lignes_metro":1,"nb_lignes_bus":3,"nb_points_velib":0,"score_accessibilite":4,"iaml_brut":3103.7414965986395,"iaml_score":95.3,"iaml_label":"Très tendu"}},{"type":"Feature","geometry":{"type":"Point","coordinates":[2.304771,48.846218]},"properties":{"nom_voie":"BD GARIBALDI","code_postal":"75015","arrondissement":15,"prix_m2_median":10549.82456140351,"nb_transactions":30,"nb_lignes_metro":3,"nb_lignes_bus":9,"nb_points_velib":1,"score_accessibilite":13,"iaml_brut":811.5249662618085,"iaml_score":29.6,"iaml_label":"Accessible"}},{"type":"Feature","geometry":{"type":"Point","coordinates":[2.28652,48.882278]},"properties":{"nom_voie":"BD GOUVION ST-CYR","code_postal":"75017","arrondissement":17,"prix_m2_median":10957.752130681818,"nb_transactions":22,"nb_lignes_metro":0,"nb_lignes_bus":7,"nb_points_velib":1,"score_accessibilite":8,"iaml_brut":1369.7190163352273,"iaml_score":76.4,"iaml_label":"Tendu"}},{"type":"Feature","geometry":{"type":"Point","coordinates":[2.311643,48.875339]},"properties":{"nom_voie":"BD HAUSSMANN","code_postal":"75008","arrondissement":8,"prix_m2_median":15053.837535014005,"nb_transactions":8,"nb_lignes_metro":2,"nb_lignes_bus":12,"nb_points_velib":0,"score_accessibilite":14,"iaml_brut":1075.2741096438574,"iaml_score":55.5,"iaml_label":"Modéré"}},{"type":"Feature","geometry":{"type":"Point","coordinates":[2.363993,48.851984]},"properties":{"nom_voie":"BD HENRI IV","code_postal":"75004","arrondissement":4,"prix_m2_median":13148.0,"nb_transactions":9,"nb_lignes_metro":4,"nb_lignes_bus":13,"nb_points_velib":0,"score_accessibilite":17,"iaml_brut":773.4117647058823,"iaml_score":25.9,"iaml_label":"Accessible"}},{"type":"Feature","geometry":{"type":"Point","coordinates":[2.34323,48.82017]},"properties":{"nom_voie":"BD JOURDAN","code_postal":"75014","arrondissement":14,"prix_m2_median":8549.319727891158,"nb_transactions":14,"nb_lignes_metro":0,"nb_lignes_bus":6,"nb_points_velib":1,"score_accessibilite":7,"iaml_brut":1221.3313896987368,"iaml_score":67.0,"iaml_label":"Tendu"}},{"type":"Feature","geometry":{"type":"Point","coordinates":[2.367828,48.867325]},"properties":{"nom_voie":"BD JULES FERRY","code_postal":"75011","arrondissement":11,"prix_m2_median":12652.788461538461,"nb_transactions":10,"nb_lignes_metro":5,"nb_lignes_bus":12,"nb_points_velib":0,"score_accessibilite":17,"iaml_brut":744.2816742081448,"iaml_score":22.5,"iaml_label":"Accessible"}},{"type":"Feature","geometry":{"type":"Point","coordinates":[2.345656,48.820082]},"properties":{"nom_voie":"BD KELLERMANN","code_postal":"75013","arrondissement":13,"prix_m2_median":8048.780487804878,"nb_transactions":3,"nb_lignes_metro":0,"nb_lignes_bus":6,"nb_points_velib":1,"score_accessibilite":7,"iaml_brut":1149.8257839721255,"iaml_score":61.9,"iaml_label":"Tendu"}},{"type":"Feature","geometry":{"type":"Point","coordinates":[2.271351,48.865763]},"properties":{"nom_voie":"BD LANNES","code_postal":"75016","arrondissement":16,"prix_m2_median":11435.049019607843,"nb_transactions":24,"nb_lignes_metro":0,"nb_lignes_bus":3,"nb_points_velib":0,"score_accessibilite":3,"iaml_brut":3811.6830065359477,"iaml_score":96.1,"iaml_label":"Très tendu"}},{"type":"Feature","geometry":{"type":"Point","coordinates":[2.291034,48.831901]},"properties":{"nom_voie":"BD LEFEBVRE","code_postal":"75015","arrondissement":15,"prix_m2_median":11313.072916666668,"nb_transactions":28,"nb_lignes_metro":1,"nb_lignes_bus":9,"nb_points_velib":0,"score_accessibilite":10,"iaml_brut":1131.3072916666667,"iaml_score":60.4,"iaml_label":"Tendu"}},{"type":"Feature","geometry":{"type":"Point","coordinates":[2.378428,48.899188]},"properties":{"nom_voie":"BD MACDONALD","code_postal":"75019","arrondissement":19,"prix_m2_median":7533.51539225422,"nb_transactions":4,"nb_lignes_metro":0,"nb_lignes_bus":7,"nb_points_velib":0,"score_accessibilite":7,"iaml_brut":1076.2164846077458,"iaml_score":55.6,"iaml_label":"Modéré"}},{"type":"Feature","geometry":{"type":"Point","coordinates":[2.315022,48.878329]},"properties":{"nom_voie":"BD MALESHERBES","code_postal":"75008","arrondissement":8,"prix_m2_median":13520.301724137931,"nb_transactions":30,"nb_lignes_metro":2,"nb_lignes_bus":14,"nb_points_velib":0,"score_accessibilite":16,"iaml_brut":845.0188577586207,"iaml_score":33.4,"iaml_label":"Accessible"}},{"type":"Feature","geometry":{"type":"Point","coordinates":[2.306221,48.885765]},"properties":{"nom_voie":"BD MALESHERBES","code_postal":"75017","arrondissement":17,"prix_m2_median":10209.40092059839,"nb_transactions":38,"nb_lignes_metro":1,"nb_lignes_bus":8,"nb_points_velib":0,"score_accessibilite":9,"iaml_brut":1134.3778800664877,"iaml_score":60.6,"iaml_label":"Tendu"}},{"type":"Feature","geometry":{"type":"Point","coordinates":[2.367319,48.821948]},"properties":{"nom_voie":"BD MASSENA","code_postal":"75013","arrondissement":13,"prix_m2_median":6748.421717171717,"nb_transactions":28,"nb_lignes_metro":1,"nb_lignes_bus":3,"nb_points_velib":0,"score_accessibilite":4,"iaml_brut":1687.1054292929293,"iaml_score":86.7,"iaml_label":"Très tendu"}},{"type":"Feature","geometry":{"type":"Point","coordinates":[2.364563,48.848333]},"properties":{"nom_voie":"BD MORLAND","code_postal":"75004","arrondissement":4,"prix_m2_median":13304.4267053701,"nb_transactions":14,"nb_lignes_metro":2,"nb_lignes_bus":18,"nb_points_velib":1,"score_accessibilite":21,"iaml_brut":633.5441288271477,"iaml_score":13.4,"iaml_label":"Très accessible"}},{"type":"Feature","geometry":{"type":"Point","coordinates":[2.25791,48.840263]},"properties":{"nom_voie":"BD MURAT","code_postal":"75016","arrondissement":16,"prix_m2_median":10620.689655172413,"nb_transactions":51,"nb_lignes_metro":1,"nb_lignes_bus":10,"nb_points_velib":0,"score_accessibilite":11,"iaml_brut":965.5172413793102,"iaml_score":45.7,"iaml_label":"Modéré"}},{"type":"Feature","geometry":{"type":"Point","coordinates":[2.340117,48.897638]},"properties":{"nom_voie":"BD NEY","code_postal":"75018","arrondissement":18,"prix_m2_median":91304.34782608696,"nb_transactions":30,"nb_lignes_metro":1,"nb_lignes_bus":11,"nb_points_velib":0,"score_accessibilite":12,"iaml_brut":7608.695652173913,"iaml_score":97.3,"iaml_label":"Très tendu"}},{"type":"Feature","geometry":{"type":"Point","coordinates":[2.347028,48.89443]},"properties":{"nom_voie":"BD ORNANO","code_postal":"75018","arrondissement":18,"prix_m2_median":9660.887021475257,"nb_transactions":46,"nb_lignes_metro":2,"nb_lignes_bus":11,"nb_points_velib":0,"score_accessibilite":13,"iaml_brut":743.1451554980966,"iaml_score":22.3,"iaml_label":"Accessible"}},{"type":"Feature","geometry":{"type":"Point","coordinates":[2.315143,48.840897]},"properties":{"nom_voie":"BD PASTEUR","code_postal":"75015","arrondissement":15,"prix_m2_median":11805.729166666666,"nb_transactions":27,"nb_lignes_metro":3,"nb_lignes_bus":22,"nb_points_velib":2,"score_accessibilite":27,"iaml_brut":437.2492283950617,"iaml_score":5.6,"iaml_label":"Très accessible"}},{"type":"Feature","geometry":{"type":"Point","coordinates":[2.295969,48.884335]},"properties":{"nom_voie":"BD PEREIRE","code_postal":"75017","arrondissement":17,"prix_m2_median":11956.521739130434,"nb_transactions":107,"nb_lignes_metro":1,"nb_lignes_bus":11,"nb_points_velib":1,"score_accessibilite":13,"iaml_brut":919.7324414715719,"iaml_score":40.8,"iaml_label":"Modéré"}},{"type":"Feature","geometry":{"type":"Point","coordinates":[2.401411,48.83349]},"properties":{"nom_voie":"BD PONIATOWSKI","code_postal":"75012","arrondissement":12,"prix_m2_median":9236.842105263158,"nb_transactions":13,"nb_lignes_metro":1,"nb_lignes_bus":6,"nb_points_velib":0,"score_accessibilite":7,"iaml_brut":1319.548872180451,"iaml_score":73.5,"iaml_label":"Tendu"}},{"type":"Feature","geometry":{"type":"Point","coordinates":[2.328655,48.844444]},"properties":{"nom_voie":"BD RASPAIL","code_postal":"75006","arrondissement":6,"prix_m2_median":15311.554917950267,"nb_transactions":22,"nb_lignes_metro":3,"nb_lignes_bus":16,"nb_points_velib":0,"score_accessibilite":19,"iaml_brut":805.8713114710666,"iaml_score":29.1,"iaml_label":"Accessible"}},{"type":"Feature","geometry":{"type":"Point","coordinates":[2.326293,48.852994]},"properties":{"nom_voie":"BD RASPAIL","code_postal":"75007","arrondissement":7,"prix_m2_median":17260.0,"nb_transactions":11,"nb_lignes_metro":3,"nb_lignes_bus":16,"nb_points_velib":0,"score_accessibilite":19,"iaml_brut":908.421052631579,"iaml_score":39.5,"iaml_label":"Accessible"}},{"type":"Feature","geometry":{"type":"Point","coordinates":[2.331008,48.838654]},"properties":{"nom_voie":"BD RASPAIL","code_postal":"75014","arrondissement":14,"prix_m2_median":12192.307692307691,"nb_transactions":29,"nb_lignes_metro":2,"nb_lignes_bus":12,"nb_points_velib":0,"score_accessibilite":14,"iaml_brut":870.8791208791208,"iaml_score":36.0,"iaml_label":"Accessible"}},{"type":"Feature","geometry":{"type":"Point","coordinates":[2.371534,48.860773]},"properties":{"nom_voie":"BD RICHARD LENOIR","code_postal":"75011","arrondissement":11,"prix_m2_median":11118.935837245695,"nb_transactions":76,"nb_lignes_metro":3,"nb_lignes_bus":9,"nb_points_velib":1,"score_accessibilite":13,"iaml_brut":855.3027567112074,"iaml_score":34.5,"iaml_label":"Accessible"}},{"type":"Feature","geometry":{"type":"Point","coordinates":[2.343318,48.883086]},"properties":{"nom_voie":"BD ROCHECHOUART","code_postal":"75018","arrondissement":18,"prix_m2_median":11497.575757575758,"nb_transactions":20,"nb_lignes_metro":2,"nb_lignes_bus":8,"nb_points_velib":0,"score_accessibilite":10,"iaml_brut":1149.7575757575758,"iaml_score":61.9,"iaml_label":"Tendu"}},{"type":"Feature","geometry":{"type":"Point","coordinates":[2.349841,48.849858]},"properties":{"nom_voie":"BD SAINT GERMAIN","code_postal":"75005","arrondissement":5,"prix_m2_median":13511.111111111111,"nb_transactions":25,"nb_lignes_metro":2,"nb_lignes_bus":10,"nb_points_velib":0,"score_accessibilite":12,"iaml_brut":1125.9259259259259,"iaml_score":59.9,"iaml_label":"Modéré"}},{"type":"Feature","geometry":{"type":"Point","coordinates":[2.336987,48.853108]},"properties":{"nom_voie":"BD SAINT GERMAIN","code_postal":"75006","arrondissement":6,"prix_m2_median":15600.890233785822,"nb_transactions":14,"nb_lignes_metro":2,"nb_lignes_bus":19,"nb_points_velib":0,"score_accessibilite":21,"iaml_brut":742.899534942182,"iaml_score":22.2,"iaml_label":"Accessible"}},{"type":"Feature","geometry":{"type":"Point","coordinates":[2.323994,48.85803]},"properties":{"nom_voie":"BD SAINT GERMAIN","code_postal":"75007","arrondissement":7,"prix_m2_median":18811.881188118812,"nb_transactions":17,"nb_lignes_metro":1,"nb_lignes_bus":14,"nb_points_velib":0,"score_accessibilite":15,"iaml_brut":1254.125412541254,"iaml_score":69.3,"iaml_label":"Tendu"}},{"type":"Feature","geometry":{"type":"Point","coordinates":[2.334138,48.834187]},"properties":{"nom_voie":"BD SAINT JACQUES","code_postal":"75014","arrondissement":14,"prix_m2_median":26754.659090909092,"nb_transactions":33,"nb_lignes_metro":2,"nb_lignes_bus":10,"nb_points_velib":1,"score_accessibilite":13,"iaml_brut":2058.0506993006993,"iaml_score":91.5,"iaml_label":"Très tendu"}},{"type":"Feature","geometry":{"type":"Point","coordinates":[2.357661,48.838988]},"properties":{"nom_voie":"BD SAINT MARCEL","code_postal":"75005","arrondissement":5,"prix_m2_median":12340.659340659342,"nb_transactions":22,"nb_lignes_metro":2,"nb_lignes_bus":12,"nb_points_velib":0,"score_accessibilite":14,"iaml_brut":881.475667189953,"iaml_score":37.0,"iaml_label":"Accessible"}},{"type":"Feature","geometry":{"type":"Point","coordinates":[2.360913,48.839404]},"properties":{"nom_voie":"BD SAINT MARCEL","code_postal":"75013","arrondissement":13,"prix_m2_median":12857.142857142857,"nb_transactions":41,"nb_lignes_metro":2,"nb_lignes_bus":8,"nb_points_velib":0,"score_accessibilite":10,"iaml_brut":1285.7142857142858,"iaml_score":71.2,"iaml_label":"Tendu"}},{"type":"Feature","geometry":{"type":"Point","coordinates":[2.360851,48.867802]},"properties":{"nom_voie":"BD SAINT MARTIN","code_postal":"75003","arrondissement":3,"prix_m2_median":1566.6666666666667,"nb_transactions":35,"nb_lignes_metro":5,"nb_lignes_bus":13,"nb_points_velib":0,"score_accessibilite":18,"iaml_brut":87.03703703703704,"iaml_score":0.2,"iaml_label":"Très accessible"}},{"type":"Feature","geometry":{"type":"Point","coordinates":[2.339764,48.844294]},"properties":{"nom_voie":"BD SAINT MICHEL","code_postal":"75005","arrondissement":5,"prix_m2_median":14005.208333333334,"nb_transactions":21,"nb_lignes_metro":0,"nb_lignes_bus":13,"nb_points_velib":0,"score_accessibilite":13,"iaml_brut":1077.323717948718,"iaml_score":55.7,"iaml_label":"Modéré"}},{"type":"Feature","geometry":{"type":"Point","coordinates":[2.341212,48.84868]},"properties":{"nom_voie":"BD SAINT MICHEL","code_postal":"75006","arrondissement":6,"prix_m2_median":13103.448275862069,"nb_transactions":9,"nb_lignes_metro":2,"nb_lignes_bus":22,"nb_points_velib":0,"score_accessibilite":24,"iaml_brut":545.9770114942529,"iaml_score":8.5,"iaml_label":"Très accessible"}},{"type":"Feature","geometry":{"type":"Point","coordinates":[2.402446,48.877952]},"properties":{"nom_voie":"BD SERURIER","code_postal":"75019","arrondissement":19,"prix_m2_median":7201.754385964912,"nb_transactions":21,"nb_lignes_metro":2,"nb_lignes_bus":12,"nb_points_velib":0,"score_accessibilite":14,"iaml_brut":514.4110275689223,"iaml_score":7.3,"iaml_label":"Très accessible"}},{"type":"Feature","geometry":{"type":"Point","coordinates":[2.408076,48.839605]},"properties":{"nom_voie":"BD SOULT","code_postal":"75012","arrondissement":12,"prix_m2_median":9545.90909090909,"nb_transactions":37,"nb_lignes_metro":0,"nb_lignes_bus":4,"nb_points_velib":0,"score_accessibilite":4,"iaml_brut":2386.4772727272725,"iaml_score":93.4,"iaml_label":"Très tendu"}},{"type":"Feature","geometry":{"type":"Point","coordinates":[2.354079,48.869902]},"properties":{"nom_voie":"BD ST DENIS","code_postal":"75010","arrondissement":10,"prix_m2_median":11469.642857142857,"nb_transactions":6,"nb_lignes_metro":4,"nb_lignes_bus":11,"nb_points_velib":4,"score_accessibilite":19,"iaml_brut":603.6654135338346,"iaml_score":11.3,"iaml_label":"Très accessible"}},{"type":"Feature","geometry":{"type":"Point","coordinates":[2.263556,48.855883]},"properties":{"nom_voie":"BD SUCHET","code_postal":"75016","arrondissement":16,"prix_m2_median":11666.666666666666,"nb_transactions":69,"nb_lignes_metro":1,"nb_lignes_bus":5,"nb_points_velib":0,"score_accessibilite":6,"iaml_brut":1944.4444444444443,"iaml_score":90.5,"iaml_label":"Très tendu"}},{"type":"Feature","geometry":{"type":"Point","coordinates":[2.285,48.834615]},"properties":{"nom_voie":"BD VICTOR","code_postal":"75015","arrondissement":15,"prix_m2_median":9268.5,"nb_transactions":22,"nb_lignes_metro":1,"nb_lignes_bus":9,"nb_points_velib":0,"score_accessibilite":10,"iaml_brut":926.85,"iaml_score":41.4,"iaml_label":"Modéré"}},{"type":"Feature","geometry":{"type":"Point","coordinates":[2.368452,48.834687]},"properties":{"nom_voie":"BD VINCENT AURIOL","code_postal":"75013","arrondissement":13,"prix_m2_median":8888.888888888889,"nb_transactions":31,"nb_lignes_metro":1,"nb_lignes_bus":7,"nb_points_velib":1,"score_accessibilite":9,"iaml_brut":987.6543209876543,"iaml_score":47.8,"iaml_label":"Modéré"}},{"type":"Feature","geometry":{"type":"Point","coordinates":[2.382623,48.856369]},"properties":{"nom_voie":"BD VOLTAIRE","code_postal":"75011","arrondissement":11,"prix_m2_median":11562.884160756501,"nb_transactions":206,"nb_lignes_metro":2,"nb_lignes_bus":6,"nb_points_velib":1,"score_accessibilite":9,"iaml_brut":1284.7649067507223,"iaml_score":71.1,"iaml_label":"Tendu"}},{"type":"Feature","geometry":{"type":"Point","coordinates":[2.344934,48.871998]},"properties":{"nom_voie":"CITE BERGERE","code_postal":"75009","arrondissement":9,"prix_m2_median":14144.736842105263,"nb_transactions":4,"nb_lignes_metro":4,"nb_lignes_bus":11,"nb_points_velib":0,"score_accessibilite":15,"iaml_brut":942.9824561403509,"iaml_score":43.4,"iaml_label":"Modéré"}},{"type":"Feature","geometry":{"type":"Point","coordinates":[2.405322,48.853676]},"properties":{"nom_voie":"CITE CHAMPAGNE","code_postal":"75020","arrondissement":20,"prix_m2_median":8844.722222222223,"nb_transactions":4,"nb_lignes_metro":1,"nb_lignes_bus":7,"nb_points_velib":0,"score_accessibilite":8,"iaml_brut":1105.5902777777778,"iaml_score":58.4,"iaml_label":"Modéré"}},{"type":"Feature","geometry":{"type":"Point","coordinates":[2.345021,48.879371]},"properties":{"nom_voie":"CITE CONDORCET","code_postal":"75009","arrondissement":9,"prix_m2_median":11666.666666666666,"nb_transactions":3,"nb_lignes_metro":2,"nb_lignes_bus":10,"nb_points_velib":2,"score_accessibilite":14,"iaml_brut":833.3333333333333,"iaml_score":31.9,"iaml_label":"Accessible"}},{"type":"Feature","geometry":{"type":"Point","coordinates":[2.375082,48.866414]},