{"type":"FeatureCollection","crs":{"type":"name","properties":{"name":"EPSG:4326"}},"features":[{"type":"Feature","geometry":{"type":"Point","coordinates":[2.337735,48.888726]},"properties":{"nom_voie":"ALL DES BROUILLARDS","code_postal":"75018","arrondissement":18,"prix_m2_median":51939.91935483871,"nb_transactions":5,"nb_lignes_metro":1,"nb_lignes_bus":3,"nb_points_velib":0,"score_accessibilite":4,"iaml_brut":12984.979838709678,"iaml_score":98.5,"iaml_label":"Très tendu"}},{"type":"Feature","geometry":{"type":"Point","coordinates":[2.378821,48.89379]},"properties":{"nom_voie":"ALL DES EIDERS","code_postal":"75019","arrondissement":19,"prix_m2_median":6323.529411764706,"nb_transactions":5,"nb_lignes_metro":1,"nb_lignes_bus":9,"nb_points_velib":0,"score_accessibilite":10,"iaml_brut":632.3529411764706,"iaml_score":19.3,"iaml_label":"Très accessible"}},{"type":"Feature","geometry":{"type":"Point","coordinates":[2.377853,48.875801]},"properties":{"nom_voie":"ALL LOUISE LABE","code_postal":"75019","arrondissement":19,"prix_m2_median":9000.0,"nb_transactions":5,"nb_lignes_metro":3,"nb_lignes_bus":6,"nb_points_velib":0,"score_accessibilite":9,"iaml_brut":1000.0,"iaml_score":64.4,"iaml_label":"Tendu"}},{"type":"Feature","geometry":{"type":"Point","coordinates":[2.269597,48.853966]},"properties":{"nom_voie":"AV ADRIEN HEBRARD","code_postal":"75016","arrondissement":16,"prix_m2_median":12991.216216216217,"nb_transactions":3,"nb_lignes_metro":1,"nb_lignes_bus":4,"nb_points_velib":0,"score_accessibilite":5,"iaml_brut":2598.2432432432433,"iaml_score":94.4,"iaml_label":"Très tendu"}},{"type":"Feature","geometry":{"type":"Point","coordinates":[2.302702,48.860689]},"properties":{"nom_voie":"AV BOSQUET","code_postal":"75007","arrondissement":7,"prix_m2_median":17000.0,"nb_transactions":11,"nb_lignes_metro":1,"nb_lignes_bus":7,"nb_points_velib":0,"score_accessibilite":8,"iaml_brut":2125.0,"iaml_score":93.1,"iaml_label":"Très tendu"}},{"type":"Feature","geometry":{"type":"Point","coordinates":[2.293781,48.875731]},"properties":{"nom_voie":"AV CARNOT","code_postal":"75017","arrondissement":17,"prix_m2_median":10833.333333333334,"nb_transactions":3,"nb_lignes_metro":3,"nb_lignes_bus":13,"nb_points_velib":1,"score_accessibilite":17,"iaml_brut":637.2549019607843,"iaml_score":19.8,"iaml_label":"Très accessible"}},{"type":"Feature","geometry":{"type":"Point","coordinates":[2.297534,48.853834]},"properties":{"nom_voie":"AV CHARLES FLOQUET","code_postal":"75007","arrondissement":7,"prix_m2_median":18763.736263736264,"nb_transactions":6,"nb_lignes_metro":2,"nb_lignes_bus":5,"nb_points_velib":0,"score_accessibilite":7,"iaml_brut":2680.5337519623235,"iaml_score":94.7,"iaml_label":"Très tendu"}},{"type":"Feature","geometry":{"type":"Point","coordinates":[2.370037,48.877115]},"properties":{"nom_voie":"AV CLAUDE VELLEFAUX","code_postal":"75010","arrondissement":10,"prix_m2_median":20519.93769470405,"nb_transactions":16,"nb_lignes_metro":1,"nb_lignes_bus":3,"nb_points_velib":0,"score_accessibilite":4,"iaml_brut":5129.984423676013,"iaml_score":96.8,"iaml_label":"Très tendu"}},{"type":"Feature","geometry":{"type":"Point","coordinates":[2.284564,48.864281]},"properties":{"nom_voie":"AV D EYLAU","code_postal":"75016","arrondissement":16,"prix_m2_median":15671.641791044776,"nb_transactions":5,"nb_lignes_metro":2,"nb_lignes_bus":7,"nb_points_velib":2,"score_accessibilite":11,"iaml_brut":1424.6947082767979,"iaml_score":83.8,"iaml_label":"Très tendu"}},{"type":"Feature","geometry":{"type":"Point","coordinates":[2.295137,48.868859]},"properties":{"nom_voie":"AV D IENA","code_postal":"75016","arrondissement":16,"prix_m2_median":16108.78661087866,"nb_transactions":3,"nb_lignes_metro":2,"nb_lignes_bus":11,"nb_points_velib":0,"score_accessibilite":13,"iaml_brut":1239.1374316060508,"iaml_score":77.9,"iaml_label":"Tendu"}},{"type":"Feature","geometry":{"type":"Point","coordinates":[2.357824,48.824923]},"properties":{"nom_voie":"AV D ITALIE","code_postal":"75013","arrondissement":13,"prix_m2_median":7684.121249234538,"nb_transactions":30,"nb_lignes_metro":2,"nb_lignes_bus":14,"nb_points_velib":1,"score_accessibilite":17,"iaml_brut":452.007132307914,"iaml_score":7.2,"iaml_label":"Très accessible"}},{"type":"Feature","geometry":{"type":"Point","coordinates":[2.362171,48.825091]},"properties":{"nom_voie":"AV D IVRY","code_postal":"75013","arrondissement":13,"prix_m2_median":8333.333333333334,"nb_transactions":5,"nb_lignes_metro":2,"nb_lignes_bus":9,"nb_points_velib":2,"score_accessibilite":13,"iaml_brut":641.0256410256411,"iaml_score":20.1,"iaml_label":"Accessible"}},{"type":"Feature","geometry":{"type":"Point","coordinates":[2.396672,48.839094]},"properties":{"nom_voie":"AV DAUMESNIL","code_postal":"75012","arrondissement":12,"prix_m2_median":8699.404761904761,"nb_transactions":22,"nb_lignes_metro":2,"nb_lignes_bus":7,"nb_points_velib":0,"score_accessibilite":9,"iaml_brut":966.600529100529,"iaml_score":61.5,"iaml_label":"Tendu"}},{"type":"Feature","geometry":{"type":"Point","coordinates":[2.396701,48.850654]},"properties":{"nom_voie":"AV DE BOUVINES","code_postal":"75011","arrondissement":11,"prix_m2_median":7500.0,"nb_transactions":3,"nb_lignes_metro":4,"nb_lignes_bus":9,"nb_points_velib":0,"score_accessibilite":13,"iaml_brut":576.9230769230769,"iaml_score":14.4,"iaml_label":"Très accessible"}},{"type":"Feature","geometry":{"type":"Point","coordinates":[2.361422,48.824911]},"properties":{"nom_voie":"AV DE CHOISY","code_postal":"75013","arrondissement":13,"prix_m2_median":7317.073170731707,"nb_transactions":17,"nb_lignes_metro":2,"nb_lignes_bus":13,"nb_points_velib":2,"score_accessibilite":17,"iaml_brut":430.41606886657104,"iaml_score":6.5,"iaml_label":"Très accessible"}},{"type":"Feature","geometry":{"type":"Point","coordinates":[2.321665,48.889428]},"properties":{"nom_voie":"AV DE CLICHY","code_postal":"75017","arrondissement":17,"prix_m2_median":9155.9375,"nb_transactions":23,"nb_lignes_metro":2,"nb_lignes_bus":9,"nb_points_velib":0,"score_accessibilite":11,"iaml_brut":832.3579545454545,"iaml_score":43.9,"iaml_label":"Modéré"}},{"type":"Feature","geometry":{"type":"Point","coordinates":[2.326491,48.886211]},"properties":{"nom_voie":"AV DE CLICHY","code_postal":"75018","arrondissement":18,"prix_m2_median":10000.0,"nb_transactions":4,"nb_lignes_metro":2,"nb_lignes_bus":13,"nb_points_velib":0,"score_accessibilite":15,"iaml_brut":666.6666666666666,"iaml_score":23.4,"iaml_label":"Accessible"}},{"type":"Feature","geometry":{"type":"Point","coordinates":[2.376704,48.89002]},"properties":{"nom_voie":"AV DE FLANDRE","code_postal":"75019","arrondissement":19,"prix_m2_median":7461.442307692308,"nb_transactions":18,"nb_lignes_metro":1,"nb_lignes_bus":7,"nb_points_velib":0,"score_accessibilite":8,"iaml_brut":932.6802884615385,"iaml_score":57.4,"iaml_label":"Modéré"}},{"type":"Feature","geometry":{"type":"Point","coordinates":[2.334923,48.866197]},"properties":{"nom_voie":"AV DE L OPERA","code_postal":"75001","arrondissement":1,"prix_m2_median":15376.58053875756,"nb_transactions":4,"nb_lignes_metro":4,"nb_lignes_bus":14,"nb_points_velib":0,"score_accessibilite":18,"iaml_brut":854.25447437542,"iaml_score":47.0,"iaml_label":"Modéré"}},{"type":"Feature","geometry":{"type":"Point","coordinates":[2.299971,48.85775]},"properties":{"nom_voie":"AV DE LA BOURDONNAIS","code_postal":"75007","arrondissement":7,"prix_m2_median":14586.335403726709,"nb_transactions":18,"nb_lignes_metro":0,"nb_lignes_bus":7,"nb_points_velib":0,"score_accessibilite":7,"iaml_brut":2083.762200532387,"iaml_score":92.9,"iaml_label":"Très tendu"}},{"type":"Feature","geometry":{"type":"Point","coordinates":[2.307926,48.856004]},"properties":{"nom_voie":"AV DE LA MOTTE PICQUET","code_postal":"75007","arrondissement":7,"prix_m2_median":13938.115330520393,"nb_transactions":10,"nb_lignes_metro":2,"nb_lignes_bus":6,"nb_points_velib":0,"score_accessibilite":8,"iaml_brut":1742.2644163150492,"iaml_score":89.9,"iaml_label":"Très tendu"}},{"type":"Feature","geometry":{"type":"Point","coordinates":[2.299646,48.850087]},"properties":{"nom_voie":"AV DE LA MOTTE PICQUET","code_postal":"75015","arrondissement":15,"prix_m2_median":14480.293501048218,"nb_transactions":8,"nb_lignes_metro":3,"nb_lignes_bus":4,"nb_points_velib":0,"score_accessibilite":7,"iaml_brut":2068.6133572926024,"iaml_score":92.7,"iaml_label":"Très tendu"}},{"type":"Feature","geometry":{"type":"Point","coordinates":[2.37766,48.864864]},"properties":{"nom_voie":"AV DE LA REPUBLIQUE","code_postal":"75011","arrondissement":11,"prix_m2_median":9803.030303030304,"nb_transactions":17,"nb_lignes_metro":3,"nb_lignes_bus":7,"nb_points_velib":0,"score_accessibilite":10,"iaml_brut":980.3030303030304,"iaml_score":62.8,"iaml_label":"Tendu"}},{"type":"Feature","geometry":{"type":"Point","coordinates":[2.280637,48.854306]},"properties":{"nom_voie":"AV DE LAMBALLE","code_postal":"75016","arrondissement":16,"prix_m2_median":12272.727272727272,"nb_transactions":3,"nb_lignes_metro":0,"nb_lignes_bus":7,"nb_points_velib":1,"score_accessibilite":8,"iaml_brut":1534.090909090909,"iaml_score":86.6,"iaml_label":"Très tendu"}},{"type":"Feature","geometry":{"type":"Point","coordinates":[2.314042,48.876184]},"properties":{"nom_voie":"AV DE MESSINE","code_postal":"75008","arrondissement":8,"prix_m2_median":32853.100418994414,"nb_transactions":4,"nb_lignes_metro":2,"nb_lignes_bus":12,"nb_points_velib":0,"score_accessibilite":14,"iaml_brut":2346.6500299281724,"iaml_score":93.7,"iaml_label":"Très tendu"}},{"type":"Feature","geometry":{"type":"Point","coordinates":[2.293628,48.862756]},"properties":{"nom_voie":"AV DE NEW YORK","code_postal":"75016","arrondissement":16,"prix_m2_median":17874.645758549028,"nb_transactions":8,"nb_lignes_metro":2,"nb_lignes_bus":8,"nb_points_velib":1,"score_accessibilite":11,"iaml_brut":1624.9677962317298,"iaml_score":88.5,"iaml_label":"Très tendu"}},{"type":"Feature","geometry":{"type":"Point","coordinates":[2.327273,48.891633]},"properties":{"nom_voie":"AV DE SAINT OUEN","code_postal":"75018","arrondissement":18,"prix_m2_median":8934.077380952382,"nb_transactions":22,"nb_lignes_metro":1,"nb_lignes_bus":8,"nb_points_velib":0,"score_accessibilite":9,"iaml_brut":992.6752645502646,"iaml_score":63.6,"iaml_label":"Tendu"}},{"type":"Feature","geometry":{"type":"Point","coordinates":[2.404563,48.844722]},"properties":{"nom_voie":"AV DE SAINT-MANDE","code_postal":"75012","arrondissement":12,"prix_m2_median":8752.857142857143,"nb_transactions":14,"nb_lignes_metro":2,"nb_lignes_bus":10,"nb_points_velib":1,"score_accessibilite":13,"iaml_brut":673.2967032967033,"iaml_score":24.1,"iaml_label":"Accessible"}},{"type":"Feature","geometry":{"type":"Point","coordinates":[2.32691,48.892381]},"properties":{"nom_voie":"AV DE SAINT-OUEN","code_postal":"75017","arrondissement":17,"prix_m2_median":9742.146739130436,"nb_transactions":12,"nb_lignes_metro":1,"nb_lignes_bus":8,"nb_points_velib":0,"score_accessibilite":9,"iaml_brut":1082.4607487922706,"iaml_score":69.3,"iaml_label":"Tendu"}},{"type":"Feature","geometry":{"type":"Point","coordinates":[2.313604,48.846498]},"properties":{"nom_voie":"AV DE SAXE","code_postal":"75007","arrondissement":7,"prix_m2_median":10000.0,"nb_transactions":3,"nb_lignes_metro":4,"nb_lignes_bus":11,"nb_points_velib":0,"score_accessibilite":15,"iaml_brut":666.6666666666666,"iaml_score":23.4,"iaml_label":"Accessible"}},{"type":"Feature","geometry":{"type":"Point","coordinates":[2.310681,48.852155]},"properties":{"nom_voie":"AV DE SEGUR","code_postal":"75007","arrondissement":7,"prix_m2_median":14109.967307692306,"nb_transactions":6,"nb_lignes_metro":2,"nb_lignes_bus":4,"nb_points_velib":0,"score_accessibilite":6,"iaml_brut":2351.661217948718,"iaml_score":93.8,"iaml_label":"Très tendu"}},{"type":"Feature","geometry":{"type":"Point","coordinates":[2.298471,48.852992]},"properties":{"nom_voie":"AV DE SUFFREN","code_postal":"75007","arrondissement":7,"prix_m2_median":185185.1851851852,"nb_transactions":19,"nb_lignes_metro":3,"nb_lignes_bus":5,"nb_points_velib":0,"score_accessibilite":8,"iaml_brut":23148.14814814815,"iaml_score":99.4,"iaml_label":"Très tendu"}},{"type":"Feature","geometry":{"type":"Point","coordinates":[2.299019,48.851347]},"properties":{"nom_voie":"AV DE SUFFREN","code_postal":"75015","arrondissement":15,"prix_m2_median":10994.595098039215,"nb_transactions":16,"nb_lignes_metro":2,"nb_lignes_bus":7,"nb_points_velib":0,"score_accessibilite":9,"iaml_brut":1221.6216775599128,"iaml_score":76.7,"iaml_label":"Tendu"}},{"type":"Feature","geometry":{"type":"Point","coordinates":[2.307998,48.853699]},"properties":{"nom_voie":"AV DE TOURVILLE","code_postal":"75007","arrondissement":7,"prix_m2_median":19010.416666666668,"nb_transactions":5,"nb_lignes_metro":1,"nb_lignes_bus":6,"nb_points_velib":0,"score_accessibilite":7,"iaml_brut":2715.7738095238096,"iaml_score":94.7,"iaml_label":"Très tendu"}},{"type":"Feature","geometry":{"type":"Point","coordinates":[2.26516,48.84122]},"properties":{"nom_voie":"AV DE VERSAILLES","code_postal":"75016","arrondissement":16,"prix_m2_median":9231.898238747555,"nb_transactions":30,"nb_lignes_metro":1,"nb_lignes_bus":10,"nb_points_velib":0,"score_accessibilite":11,"iaml_brut":839.2634762497778,"iaml_score":44.7,"iaml_label":"Modéré"}},{"type":"Feature","geometry":{"type":"Point","coordinates":[2.301873,48.884303]},"properties":{"nom_voie":"AV DE VILLIERS","code_postal":"75017","arrondissement":17,"prix_m2_median":10429.36188811189,"nb_transactions":16,"nb_lignes_metro":1,"nb_lignes_bus":11,"nb_points_velib":1,"score_accessibilite":13,"iaml_brut":802.2586067778376,"iaml_score":39.6,"iaml_label":"Accessible"}},{"type":"Feature","geometry":{"type":"Point","coordinates":[2.297377,48.876175]},"properties":{"nom_voie":"AV DE WAGRAM","code_postal":"75008","arrondissement":8,"prix_m2_median":16121.188829787234,"nb_transactions":14,"nb_lignes_metro":3,"nb_lignes_bus":13,"nb_points_velib":2,"score_accessibilite":18,"iaml_brut":895.6216016548464,"iaml_score":52.6,"iaml_label":"Modéré"}},{"type":"Feature","geometry":{"type":"Point","coordinates":[2.299729,48.880076]},"properties":{"nom_voie":"AV DE WAGRAM","code_postal":"75017","arrondissement":17,"prix_m2_median":10760.869565217392,"nb_transactions":19,"nb_lignes_metro":1,"nb_lignes_bus":6,"nb_points_velib":2,"score_accessibilite":9,"iaml_brut":1195.6521739130435,"iaml_score":75.4,"iaml_label":"Tendu"}},{"type":"Feature","geometry":{"type":"Point","coordinates":[2.33383,48.835223]},"properties":{"nom_voie":"AV DENFERT ROCHEREAU","code_postal":"75014","arrondissement":14,"prix_m2_median":10331.73076923077,"nb_transactions":3,"nb_lignes_metro":2,"nb_lignes_bus":10,"nb_points_velib":1,"score_accessibilite":13,"iaml_brut":794.7485207100592,"iaml_score":38.8,"iaml_label":"Accessible"}},{"type":"Feature","geometry":{"type":"Point","coordinates":[2.351066,48.837635]},"properties":{"nom_voie":"AV DES GOBELINS","code_postal":"75005","arrondissement":5,"prix_m2_median":10219.642857142857,"nb_transactions":4,"nb_lignes_metro":1,"nb_lignes_bus":12,"nb_points_velib":0,"score_accessibilite":13,"iaml_brut":786.1263736263736,"iaml_score":37.4,"iaml_label":"Accessible"}},{"type":"Feature","geometry":{"type":"Point","coordinates":[2.354005,48.833693]},"properties":{"nom_voie":"AV DES GOBELINS","code_postal":"75013","arrondissement":13,"prix_m2_median":10964.83704974271,"nb_transactions":6,"nb_lignes_metro":3,"nb_lignes_bus":16,"nb_points_velib":0,"score_accessibilite":19,"iaml_brut":577.0966868285636,"iaml_score":14.5,"iaml_label":"Très accessible"}},{"type":"Feature","geometry":{"type":"Point","coordinates":[2.292562,48.879422]},"properties":{"nom_voie":"AV DES TERNES","code_postal":"75017","arrondissement":17,"prix_m2_median":11856.257211538461,"nb_transactions":16,"nb_lignes_metro":2,"nb_lignes_bus":8,"nb_points_velib":2,"score_accessibilite":12,"iaml_brut":988.0214342948717,"iaml_score":63.1,"iaml_label":"Tendu"}},{"type":"Feature","geometry":{"type":"Point","coordinates":[2.39723,48.846095]},"properties":{"nom_voie":"AV DU BEL AIR","code_postal":"75012","arrondissement":12,"prix_m2_median":9235.754985754986,"nb_transactions":6,"nb_lignes_metro":4,"nb_lignes_bus":9,"nb_points_velib":1,"score_accessibilite":14,"iaml_brut":659.6967846967847,"iaml_score":22.1,"iaml_label":"Accessible"}},{"type":"Feature","geometry":{"type":"Point","coordinates":[2.278594,48.855443]},"properties":{"nom_voie":"AV DU COL BONNET","code_postal":"75016","arrondissement":16,"prix_m2_median":13333.333333333334,"nb_transactions":5,"nb_lignes_metro":1,"nb_lignes_bus":8,"nb_points_velib":1,"score_accessibilite":10,"iaml_brut":1333.3333333333335,"iaml_score":81.3,"iaml_label":"Très tendu"}},{"type":"Feature","geometry":{"type":"Point","coordinates":[2.40542,48.844705]},"properties":{"nom_voie":"AV DU DOC ARNOLD NETTER","code_postal":"75012","arrondissement":12,"prix_m2_median":8278.788461538461,"nb_transactions":10,"nb_lignes_metro":2,"nb_lignes_bus":10,"nb_points_velib":2,"score_accessibilite":14,"iaml_brut":591.3420329670329,"iaml_score":16.1,"iaml_label":"Très accessible"}},{"type":"Feature","geometry":{"type":"Point","coordinates":[2.402891,48.836506]},"properties":{"nom_voie":"AV DU GAL MICHEL BIZOT","code_postal":"75012","arrondissement":12,"prix_m2_median":8465.116279069767,"nb_transactions":21,"nb_lignes_metro":1,"nb_lignes_bus":6,"nb_points_velib":0,"score_accessibilite":7,"iaml_brut":1209.3023255813953,"iaml_score":76.1,"iaml_label":"Tendu"}},{"type":"Feature","geometry":{"type":"Point","coordinates":[2.327322,48.826966]},"properties":{"nom_voie":"AV DU GENERAL LECLERC","code_postal":"75014","arrondissement":14,"prix_m2_median":9125.0,"nb_transactions":22,"nb_lignes_metro":1,"nb_lignes_bus":16,"nb_points_velib":0,"score_accessibilite":17,"iaml_brut":536.7647058823529,"iaml_score":11.7,"iaml_label":"Très accessible"}},{"type":"Feature","geometry":{"type":"Point","coordinates":[2.325055,48.83194]},"properties":{"nom_voie":"AV DU MAINE","code_postal":"75014","arrondissement":14,"prix_m2_median":9335.677749360613,"nb_transactions":26,"nb_lignes_metro":1,"nb_lignes_bus":10,"nb_points_velib":0,"score_accessibilite":11,"iaml_brut":848.6979772146012,"iaml_score":46.0,"iaml_label":"Modéré"}},{"type":"Feature","geometry":{"type":"Point","coordinates":[2.311388,48.850557]},"properties":{"nom_voie":"AV DUQUESNE","code_postal":"75007","arrondissement":7,"prix_m2_median":11081.818181818182,"nb_transactions":5,"nb_lignes_metro":2,"nb_lignes_bus":4,"nb_points_velib":0,"score_accessibilite":6,"iaml_brut":1846.969696969697,"iaml_score":91.0,"iaml_label":"Très tendu"}},{"type":"Feature","geometry":{"type":"Point","coordinates":[2.302342,48.855736]},"properties":{"nom_voie":"AV EMILE DESCHANEL","code_postal":"75007","arrondissement":7,"prix_m2_median":21167.883211678833,"nb_transactions":5,"nb_lignes_metro":1,"nb_lignes_bus":7,"nb_points_velib":0,"score_accessibilite":8,"iaml_brut":2645.985401459854,"iaml_score":94.6,"iaml_label":"Très tendu"}},{"type":"Feature","geometry":{"type":"Point","coordinates":[2.285421,48.846261]},"properties":{"nom_voie":"AV EMILE ZOLA","code_postal":"75015","arrondissement":15,"prix_m2_median":9904.630416312659,"nb_transactions":12,"nb_lignes_metro":1,"nb_lignes_bus":8,"nb_points_velib":1,"score_accessibilite":10,"iaml_brut":990.4630416312659,"iaml_score":63.4,"iaml_label":"Tendu"}},{"type":"Feature","geometry":{"type":"Point","coordinates":[2.283481,48.839125]},"properties":{"nom_voie":"AV FELIX FAURE","code_postal":"75015","arrondissement":15,"prix_m2_median":9047.202797202797,"nb_transactions":28,"nb_lignes_metro":1,"nb_lignes_bus":10,"nb_points_velib":0,"score_accessibilite":11,"iaml_brut":822.4729815638907,"iaml_score":42.6,"iaml_label":"Modéré"}},{"type":"Feature","geometry":{"type":"Point","coordinates":[2.286709,48.872282]},"properties":{"nom_voie":"AV FOCH","code_postal":"75016","arrondissement":16,"prix_m2_median":12067.857142857143,"nb_transactions":18,"nb_lignes_metro":3,"nb_lignes_bus":8,"nb_points_velib":0,"score_accessibilite":11,"iaml_brut":1097.077922077922,"iaml_score":70.1,"iaml_label":"Tendu"}},{"type":"Feature","geometry":{"type":"Point","coordinates":[2.399649,48.866553]},"properties":{"nom_voie":"AV GAMBETTA","code_postal":"75020","arrondissement":20,"prix_m2_median":8582.089552238805,"nb_transactions":37,"nb_lignes_metro":2,"nb_lignes_bus":10,"nb_points_velib":1,"score_accessibilite":13,"iaml_brut":660.1607347876004,"iaml_score":22.3,"iaml_label":"Accessible"}},{"type":"Feature","geometry":{"type":"Point","coordinates":[2.279366,48.863736]},"properties":{"nom_voie":"AV GEORGES MANDEL","code_postal":"75016","arrondissement":16,"prix_m2_median":17570.152491941484,"nb_transactions":6,"nb_lignes_metro":1,"nb_lignes_bus":5,"nb_points_velib":0,"score_accessibilite":6,"iaml_brut":2928.358748656914,"iaml_score":95.3,"iaml_label":"Très tendu"}},{"type":"Feature","geometry":{"type":"Point","coordinates":[2.282131,48.869949]},"properties":{"nom_voie":"AV HUBERT GERMAIN","code_postal":"75016","arrondissement":16,"prix_m2_median":14215.686274509804,"nb_transactions":9,"nb_lignes_metro":1,"nb_lignes_bus":2,"nb_points_velib":0,"score_accessibilite":3,"iaml_brut":4738.562091503268,"iaml_score":96.5,"iaml_label":"Très tendu"}},{"type":"Feature","geometry":{"type":"Point","coordinates":[2.382817,48.88563]},"properties":{"nom_voie":"AV JEAN JAURES","code_postal":"75019","arrondissement":19,"prix_m2_median":8225.909090909092,"nb_transactions":44,"nb_lignes_metro":1,"nb_lignes_bus":7,"nb_points_velib":1,"score_accessibilite":9,"iaml_brut":913.9898989898991,"iaml_score":55.2,"iaml_label":"Modéré"}},{"type":"Feature","geometry":{"type":"Point","coordinates":[2.323333,48.825954]},"properties":{"nom_voie":"AV JEAN MOULIN","code_postal":"75014","arrondissement":14,"prix_m2_median":750.0,"nb_transactions":33,"nb_lignes_metro":1,"nb_lignes_bus":21,"nb_points_velib":0,"score_accessibilite":22,"iaml_brut":34.09090909090909,"iaml_score":0.1,"iaml_label":"Très accessible"}},{"type":"Feature","geometry":{"type":"Point","coordinates":[2.336456,48.889043]},"properties":{"nom_voie":"AV JUNOT","code_postal":"75018","arrondissement":18,"prix_m2_median":10849.056603773584,"nb_transactions":3,"nb_lignes_metro":1,"nb_lignes_bus":6,"nb_points_velib":0,"score_accessibilite":7,"iaml_brut":1549.865229110512,"iaml_score":87.1,"iaml_label":"Très tendu"}},{"type":"Feature","geometry":{"type":"Point","coordinates":[2.289121,48.865968]},"properties":{"nom_voie":"AV KLEBER","code_postal":"75016","arrondissement":16,"prix_m2_median":12743.012422360247,"nb_transactions":6,"nb_lignes_metro":3,"nb_lignes_bus":7,"nb_points_velib":2,"score_accessibilite":12,"iaml_brut":1061.9177018633538,"iaml_score":68.0,"iaml_label":"Tendu"}},{"type":"Feature","geometry":{"type":"Point","coordinates":[2.377373,48.85304]},"properties":{"nom_voie":"AV LEDRU ROLLIN","code_postal":"75011","arrondissement":11,"prix_m2_median":9437.5,"nb_transactions":5,"nb_lignes_metro":1,"nb_lignes_bus":7,"nb_points_velib":1,"score_accessibilite":9,"iaml_brut":1048.611111111111,"iaml_score":67.3,"iaml_label":"Tendu"}},{"type":"Feature","geometry":{"type":"Point","coordinates":[2.373907,48.849684]},"properties":{"nom_voie":"AV LEDRU ROLLIN","code_postal":"75012","arrondissement":12,"prix_m2_median":10561.974789915967,"nb_transactions":12,"nb_lignes_metro":2,"nb_lignes_bus":16,"nb_points_velib":2,"score_accessibilite":20,"iaml_brut":528.0987394957983,"iaml_score":10.9,"iaml_label":"Très accessible"}},{"type":"Feature","geometry":{"type":"Point","coordinates":[2.29486,48.876546]},"properties":{"nom_voie":"AV MAC MAHON","code_postal":"75017","arrondissement":17,"prix_m2_median":11364.91402116402,"nb_transactions":6,"nb_lignes_metro":3,"nb_lignes_bus":13,"nb_points_velib":2,"score_accessibilite":18,"iaml_brut":631.3841122868901,"iaml_score":19.2,"iaml_label":"Très accessible"}},{"type":"Feature","geometry":{"type":"Point","coordinates":[2.37487,48.878294]},"properties":{"nom_voie":"AV MATHURIN MOREAU","code_postal":"75019","arrondissement":19,"prix_m2_median":9057.142857142857,"nb_transactions":7,"nb_lignes_metro":2,"nb_lignes_bus":4,"nb_points_velib":0,"score_accessibilite":6,"iaml_brut":1509.5238095238094,"iaml_score":86.2,"iaml_label":"Très tendu"}},{"type":"Feature","geometry":{"type":"Point","coordinates":[2.311069,48.869846]},"properties":{"nom_voie":"AV MATIGNON","code_postal":"75008","arrondissement":8,"prix_m2_median":16354.54358974359,"nb_transactions":6,"nb_lignes_metro":3,"nb_lignes_bus":11,"nb_points_velib":0,"score_accessibilite":14,"iaml_brut":1168.1816849816848,"iaml_score":74.0,"iaml_label":"Tendu"}},{"type":"Feature","geometry":{"type":"Point","coordinates":[2.307406,48.867904]},"properties":{"nom_voie":"AV MONTAIGNE","code_postal":"75008","arrondissement":8,"prix_m2_median":31531.53153153153,"nb_transactions":23,"nb_lignes_metro":3,"nb_lignes_bus":11,"nb_points_velib":0,"score_accessibilite":14,"iaml_brut":2252.252252252252,"iaml_score":93.5,"iaml_label":"Très tendu"}},{"type":"Feature","geometry":{"type":"Point","coordinates":[2.268367,48.85197]},"properties":{"nom_voie":"AV MOZART","code_postal":"75016","arrondissement":16,"prix_m2_median":11194.978354978355,"nb_transactions":12,"nb_lignes_metro":1,"nb_lignes_bus":6,"nb_points_velib":0,"score_accessibilite":7,"iaml_brut":1599.282622139765,"iaml_score":88.0,"iaml_label":"Très tendu"}},{"type":"Feature","geometry":{"type":"Point","coordinates":[2.295845,48.882861]},"properties":{"nom_voie":"AV NIEL","code_postal":"75017","arrondissement":17,"prix_m2_median":10458.847736625514,"nb_transactions":19,"nb_lignes_metro":1,"nb_lignes_bus":11,"nb_points_velib":2,"score_accessibilite":14,"iaml_brut":747.0605526161081,"iaml_score":33.3,"iaml_label":"Accessible"}},{"type":"Feature","geometry":{"type":"Point","coordinates":[2.293048,48.85667]},"properties":{"nom_voie":"AV OCTAVE GREARD","code_postal":"75007","arrondissement":7,"prix_m2_median":23258.3284628872,"nb_transactions":4,"nb_lignes_metro":1,"nb_lignes_bus":6,"nb_points_velib":0,"score_accessibilite":7,"iaml_brut":3322.6183518410285,"iaml_score":95.7,"iaml_label":"Très tendu"}},{"type":"Feature","geometry":{"type":"Point","coordinates":[2.370469,48.870425]},"properties":{"nom_voie":"AV PARMENTIER","code_postal":"75010","arrondissement":10,"prix_m2_median":129166.66666666667,"nb_transactions":45,"nb_lignes_metro":2,"nb_lignes_bus":6,"nb_points_velib":0,"score_accessibilite":8,"iaml_brut":16145.833333333334,"iaml_score":99.1,"iaml_label":"Très tendu"}},{"type":"Feature","geometry":{"type":"Point","coordinates":[2.376325,48.863007]},"properties":{"nom_voie":"AV PARMENTIER","code_postal":"75011","arrondissement":11,"prix_m2_median":10557.627118644068,"nb_transactions":25,"nb_lignes_metro":3,"nb_lignes_bus":7,"nb_points_velib":0,"score_accessibilite":10,"iaml_brut":1055.7627118644068,"iaml_score":67.7,"iaml_label":"Tendu"}},{"type":"Feature","geometry":{"type":"Point","coordinates":[2.281982,48.860315]},"properties":{"nom_voie":"AV PAUL DOUMER","code_postal":"75016","arrondissement":16,"prix_m2_median":12728.843537414967,"nb_transactions":16,"nb_lignes_metro":2,"nb_lignes_bus":6,"nb_points_velib":1,"score_accessibilite":9,"iaml_brut":1414.315948601663,"iaml_score":83.6,"iaml_label":"Très tendu"}},{"type":"Feature","geometry":{"type":"Point","coordinates":[2.291145,48.864291]},"properties":{"nom_voie":"AV PDT WILSON","code_postal":"75016","arrondissement":16,"prix_m2_median":19427.369047619046,"nb_transactions":8,"nb_lignes_metro":2,"nb_lignes_bus":7,"nb_points_velib":2,"score_accessibilite":11,"iaml_brut":1766.1244588744587,"iaml_score":90.4,"iaml_label":"Très tendu"}},{"type":"Feature","geometry":{"type":"Point","coordinates":[2.273292,48.849493]},"properties":{"nom_voie":"AV PERRICHONT","code_postal":"75016","arrondissement":16,"prix_m2_median":9338.983050847457,"nb_transactions":3,"nb_lignes_metro":2,"nb_lignes_bus":10,"nb_points_velib":0,"score_accessibilite":12,"iaml_brut":778.2485875706215,"iaml_score":36.3,"iaml_label":"Accessible"}},{"type":"Feature","geometry":{"type":"Point","coordinates":[2.39225,48.854111]},"properties":{"nom_voie":"AV PHILIPPE AUGUSTE","code_postal":"75011","arrondissement":11,"prix_m2_median":9242.424242424242,"nb_transactions":21,"nb_lignes_metro":2,"nb_lignes_bus":6,"nb_points_velib":1,"score_accessibilite":9,"iaml_brut":1026.9360269360268,"iaml_score":66.3,"iaml_label":"Tendu"}},{"type":"Feature","geometry":{"type":"Point","coordinates":[2.35255,48.900565]},"properties":{"nom_voie":"AV PTE DES POISSONNIERS","code_postal":"75018","arrondissement":18,"prix_m2_median":6388.888888888889,"nb_transactions":3,"nb_lignes_metro":0,"nb_lignes_bus":5,"nb_points_velib":0,"score_accessibilite":5,"iaml_brut":1277.7777777777778,"iaml_score":79.4,"iaml_label":"Tendu"}},{"type":"Feature","geometry":{"type":"Point","coordinates":[2.285636,48.867806]},"properties":{"nom_voie":"AV RAYMOND POINCARE","code_postal":"75016","arrondissement":16,"prix_m2_median":13667.975734355045,"nb_transactions":10,"nb_lignes_metro":2,"nb_lignes_bus":6,"nb_points_velib":2,"score_accessibilite":10,"iaml_brut":1366.7975734355045,"iaml_score":82.2,"iaml_label":"Très tendu"}},{"type":"Feature","geometry":{"type":"Point","coordinates":[2.340945,48.825304]},"properties":{"nom_voie":"AV REILLE","code_postal":"75014","arrondissement":14,"prix_m2_median":10000.0,"nb_transactions":3,"nb_lignes_metro":0,"nb_lignes_bus":7,"nb_points_velib":0,"score_accessibilite":7,"iaml_brut":1428.5714285714287,"iaml_score":83.9,"iaml_label":"Très tendu"}},{"type":"Feature","geometry":{"type":"Point","coordinates":[2.334078,48.828397]},"properties":{"nom_voie":"AV RENE COTY","code_postal":"75014","arrondissement":14,"prix_m2_median":9598.039215686274,"nb_transactions":3,"nb_lignes_metro":1,"nb_lignes_bus":8,"nb_points_velib":0,"score_accessibilite":9,"iaml_brut":1066.4488017429194,"iaml_score":68.2,"iaml_label":"Tendu"}},{"type":"Feature","geometry":{"type":"Point","coordinates":[2.374701,48.880666]},"properties":{"nom_voie":"AV SECRETAN","code_postal":"75019","arrondissement":19,"prix_m2_median":8039.333333333333,"nb_transactions":7,"nb_lignes_metro":3,"nb_lignes_bus":8,"nb_points_velib":0,"score_accessibilite":11,"iaml_brut":730.8484848484849,"iaml_score":31.2,"iaml_label":"Accessible"}},{"type":"Feature","geometry":{"type":"Point","coordinates":[2.376216,48.876373]},"properties":{"nom_voie":"AV SIMON BOLIVAR","code_postal":"75019","arrondissement":19,"prix_m2_median":9047.714514835607,"nb_transactions":16,"nb_lignes_metro":2,"nb_lignes_bus":7,"nb_points_velib":0,"score_accessibilite":9,"iaml_brut":1005.3016127595118,"iaml_score":64.8,"iaml_label":"Tendu"}},{"type":"Feature","geometry":{"type":"Point","coordinates":[2.293362,48.886351]},"properties":{"nom_voie":"AV STEPHANE MALLARME","code_postal":"75017","arrondissement":17,"prix_m2_median":9670.47791893527,"nb_transactions":4,"nb_lignes_metro":1,"nb_lignes_bus":11,"nb_points_velib":0,"score_accessibilite":12,"iaml_brut":805.8731599112725,"iaml_score":40.1,"iaml_label":"Modéré"}},{"type":"Feature","geometry":{"type":"Point","coordinates":[2.394148,48.874204]},"properties":{"nom_voie":"AV TAILLADE","code_postal":"75020","arrondissement":20,"prix_m2_median":8090.909090909091,"nb_transactions":5,"nb_lignes_metro":2,"nb_lignes_bus":7,"nb_points_velib":0,"score_accessibilite":9,"iaml_brut":898.989898989899,"iaml_score":52.9,"iaml_label":"Modéré"}},{"type":"Feature","geometry":{"type":"Point","coordinates":[2.27136,48.849828]},"properties":{"nom_voie":"AV THEOPHILE GAUTIER","code_postal":"75016","arrondissement":16,"prix_m2_median":11180.075621635478,"nb_transactions":8,"nb_lignes_metro":2,"nb_lignes_bus":7,"nb_points_velib":0,"score_accessibilite":9,"iaml_brut":1242.2306246261642,"iaml_score":78.1,"iaml_label":"Tendu"}},{"type":"Feature","geometry":{"type":"Point","coordinates":[2.342067,48.880811]},"properties":{"nom_voie":"AV TRUDAINE","code_postal":"75009","arrondissement":9,"prix_m2_median":10526.315789473685,"nb_transactions":7,"nb_lignes_metro":2,"nb_lignes_bus":11,"nb_points_velib":2,"score_accessibilite":15,"iaml_brut":701.7543859649123,"iaml_score":27.0,"iaml_label":"Accessible"}},{"type":"Feature","geometry":{"type":"Point","coordinates":[2.2821,48.868236]},"properties":{"nom_voie":"AV VICTOR HUGO","code_postal":"75016","arrondissement":16,"prix_m2_median":13134.469696969696,"nb_transactions":26,"nb_lignes_metro":1,"nb_lignes_bus":4,"nb_points_velib":0,"score_accessibilite":5,"iaml_brut":2626.893939393939,"iaml_score":94.5,"iaml_label":"Très tendu"}},{"type":"Feature","geometry":{"type":"Point","coordinates":[2.316501,48.831743]},"properties":{"nom_voie":"AV VILLEMAIN","code_postal":"75014","arrondissement":14,"prix_m2_median":11847.833333333334,"nb_transactions":3,"nb_lignes_metro":1,"nb_lignes_bus":4,"nb_points_velib":1,"score_accessibilite":6,"iaml_brut":1974.638888888889,"iaml_score":92.0,"iaml_label":"Très tendu"}},{"type":"Feature","geometry":{"type":"Point","coordinates":[2.34886,48.835282]},"properties":{"nom_voie":"BD ARAGO","code_postal":"75013","arrondissement":13,"prix_m2_median":9908.256880733945,"nb_transactions":15,"nb_lignes_metro":1,"nb_lignes_bus":11,"nb_points_velib":0,"score_accessibilite":12,"iaml_brut":825.6880733944954,"iaml_score":43.3,"iaml_label":"Modéré"}},{"type":"Feature","geometry":{"type":"Point","coordinates":[2.34403,48.830593]},"properties":{"nom_voie":"BD AUGUSTE BLANQUI","code_postal":"75013","arrondissement":13,"prix_m2_median":9085.765336509827,"nb_transactions":8,"nb_lignes_metro":1,"nb_lignes_bus":6,"nb_points_velib":0,"score_accessibilite":7,"iaml_brut":1297.9664766442609,"iaml_score":80.1,"iaml_label":"Très tendu"}},{"type":"Feature","geometry":{"type":"Point","coordinates":[2.349984,48.886373]},"properties":{"nom_voie":"BD BARBES","code_postal":"75018","arrondissement":18,"prix_m2_median":9007.575757575756,"nb_transactions":14,"nb_lignes_metro":2,"nb_lignes_bus":10,"nb_points_velib":0,"score_accessibilite":12,"iaml_brut":750.631313131313,"iaml_score":33.6,"iaml_label":"Accessible"}},{"type":"Feature","geometry":{"type":"Point","coordinates":[2.367311,48.859009]},"properties":{"nom_voie":"BD BEAUMARCHAIS","code_postal":"75003","arrondissement":3,"prix_m2_median":11629.303599374021,"nb_transactions":8,"nb_lignes_metro":2,"nb_lignes_bus":7,"nb_points_velib":0,"score_accessibilite":9,"iaml_brut":1292.1448443748914,"iaml_score":79.8,"iaml_label":"Tendu"}},{"type":"Feature","geometry":{"type":"Point","coordinates":[2.368371,48.857998]},"properties":{"nom_voie":"BD BEAUMARCHAIS","code_postal":"75011","arrondissement":11,"prix_m2_median":10254.435483870968,"nb_transactions":5,"nb_lignes_metro":2,"nb_lignes_bus":7,"nb_points_velib":0,"score_accessibilite":9,"iaml_brut":1139.3817204301076,"iaml_score":72.6,"iaml_label":"Tendu"}},{"type":"Feature","geometry":{"type":"Point","coordinates":[2.308862,48.892361]},"properties":{"nom_voie":"BD BERTHIER","code_postal":"75017","arrondissement":17,"prix_m2_median":7993.571428571428,"nb_transactions":6,"nb_lignes_metro":2,"nb_lignes_bus":9,"nb_points_velib":0,"score_accessibilite":11,"iaml_brut":726.6883116883117,"iaml_score":30.9,"iaml_label":"Accessible"}},{"type":"Feature","geometry":{"type":"Point","coordinates":[2.319758,48.896248]},"properties":{"nom_voie":"BD BESSIERES","code_postal":"75017","arrondissement":17,"prix_m2_median":8368.055555555555,"nb_transactions":8,"nb_lignes_metro":2,"nb_lignes_bus":8,"nb_points_velib":0,"score_accessibilite":10,"iaml_brut":836.8055555555554,"iaml_score":44.5,"iaml_label":"Modéré"}},{"type":"Feature","geometry":{"type":"Point","coordinates":[2.366056,48.849115]},"properties":{"nom_voie":"BD BOURDON","code_postal":"75004","arrondissement":4,"prix_m2_median":12061.494252873563,"nb_transactions":3,"nb_lignes_metro":3,"nb_lignes_bus":17,"nb_points_velib":1,"score_accessibilite":21,"iaml_brut":574.3568691844554,"iaml_score":14.1,"iaml_label":"Très accessible"}},{"type":"Feature","geometry":{"type":"Point","coordinates":[2.319096,48.825136]},"properties":{"nom_voie":"BD BRUNE","code_postal":"75014","arrondissement":14,"prix_m2_median":7317.073170731707,"nb_transactions":5,"nb_lignes_metro":1,"nb_lignes_bus":13,"nb_points_velib":1,"score_accessibilite":15,"iaml_brut":487.8048780487805,"iaml_score":9.1,"iaml_label":"Très accessible"}},{"type":"Feature","geometry":{"type":"Point","coordinates":[2.40962,48.856994]},"properties":{"nom_voie":"BD DAVOUT","code_postal":"75020","arrondissement":20,"prix_m2_median":6812.701482914248,"nb_transactions":10,"nb_lignes_metro":1,"nb_lignes_bus":7,"nb_points_velib":0,"score_accessibilite":8,"iaml_brut":851.587685364281,"iaml_score":46.5,"iaml_label":"Modéré"}},{"type":"Feature","geometry":{"type":"Point","coordinates":[2.380953,48.868104]},"properties":{"nom_voie":"BD DE BELLEVILLE","code_postal":"75011","arrondissement":11,"prix_m2_median":8832.08494208494,"nb_transactions":8,"nb_lignes_metro":2,"nb_lignes_bus":5,"nb_points_velib":0,"score_accessibilite":7,"iaml_brut":1261.7264202978488,"iaml_score":79.1,"iaml_label":"Tendu"}},{"type":"Feature","geometry":{"type":"Point","coordinates":[2.351834,48.870244]},"properties":{"nom_voie":"BD DE BONNE NOUVELLE","code_postal":"75010","arrondissement":10,"prix_m2_median":39000.0,"nb_transactions":13,"nb_lignes_metro":4,"nb_lignes_bus":6,"nb_points_velib":3,"score_accessibilite":13,"iaml_brut":3000.0,"iaml_score":95.3,"iaml_label":"Très tendu"}},{"type":"Feature","geometry":{"type":"Point","coordinates":[2.396255,48.852563]},"properties":{"nom_voie":"BD DE CHARONNE","code_postal":"75011","arrondissement":11,"prix_m2_median":9169.720758693362,"nb_transactions":8,"nb_lignes_metro":3,"nb_lignes_bus":10,"nb_points_velib":0,"score_accessibilite":13,"iaml_brut":705.3631352841047,"iaml_score":28.1,"iaml_label":"Accessible"}},{"type":"Feature","geometry":{"type":"Point","coordinates":[2.398166,48.852606]},"properties":{"nom_voie":"BD DE CHARONNE","code_postal":"75020","arrondissement":20,"prix_m2_median":9000.0,"nb_transactions":13,"nb_lignes_metro":2,"nb_lignes_bus":9,"nb_points_velib":0,"score_accessibilite":11,"iaml_brut":818.1818181818181,"iaml_score":41.8,"iaml_label":"Modéré"}},{"type":"Feature","geometry":{"type":"Point","coordinates":[2.334106,48.882956]},"properties":{"nom_voie":"BD DE CLICHY","code_postal":"75009","arrondissement":9,"prix_m2_median":9000.0,"nb_transactions":3,"nb_lignes_metro":3,"nb_lignes_bus":10,"nb_points_velib":0,"score_accessibilite":13,"iaml_brut":692.3076923076923,"iaml_score":25.8,"iaml_label":"Accessible"}},{"type":"Feature","geometry":{"type":"Point","coordinates":[2.335304,48.883883]},"properties":{"nom_voie":"BD DE CLICHY","code_postal":"75018","arrondissement":18,"prix_m2_median":10736.111111111111,"nb_transactions":9,"nb_lignes_metro":2,"nb_lignes_bus":9,"nb_points_velib":0,"score_accessibilite":11,"iaml_brut":976.010101010101,"iaml_score":62.2,"iaml_label":"Tendu"}},{"type":"Feature","geometry":{"type":"Point","coordinates":[2.300027,48.877977]},"properties":{"nom_voie":"BD DE COURCELLES","code_postal":"75008","arrondissement":8,"prix_m2_median":11500.0,"nb_transactions":5,"nb_lignes_metro":1,"nb_lignes_bus":9,"nb_points_velib":2,"score_accessibilite":12,"iaml_brut":958.3333333333334,"iaml_score":60.2,"iaml_label":"Tendu"}},{"type":"Feature","geometry":{"type":"Point","coordinates":[2.303654,48.879652]},"properties":{"nom_voie":"BD DE COURCELLES","code_postal":"75017","arrondissement":17,"prix_m2_median":14357.142857142857,"nb_transactions":4,"nb_lignes_metro":2,"nb_lignes_bus":6,"nb_points_velib":2,"score_accessibilite":10,"iaml_brut":1435.7142857142858,"iaml_score":84.1,"iaml_label":"Très tendu"}},{"type":"Feature","geometry":{"type":"Point","coordinates":[2.354023,48.879803]},"properties":{"nom_voie":"BD DE DENAIN","code_postal":"75010","arrondissement":10,"prix_m2_median":6689.189189189189,"nb_transactions":3,"nb_lignes_metro":3,"nb_lignes_bus":28,"nb_points_velib":2,"score_accessibilite":33,"iaml_brut":202.7027027027027,"iaml_score":0.5,"iaml_label":"Très accessible"}},{"type":"Feature","geometry":{"type":"Point","coordinates":[2.293825,48.850594]},"properties":{"nom_voie":"BD DE GRENELLE","code_postal":"75015","arrondissement":15,"prix_m2_median":9907.407407407409,"nb_transactions":24,"nb_lignes_metro":3,"nb_lignes_bus":5,"nb_points_velib":1,"score_accessibilite":9,"iaml_brut":1100.8230452674898,"iaml_score":70.4,"iaml_label":"Tendu"}},{"type":"Feature","geometry":{"type":"Point","coordinates":[2.362449,48.841631]},"properties":{"nom_voie":"BD DE L HOPITAL","code_postal":"75005","arrondissement":5,"prix_m2_median":8796.625,"nb_transactions":12,"nb_lignes_metro":2,"nb_lignes_bus":14,"nb_points_velib":5,"score_accessibilite":21,"iaml_brut":418.88690476190476,"iaml_score":6.1,"iaml_label":"Très accessible"}},{"type":"Feature","geometry":{"type":"Point","coordinates":[2.359846,48.837243]},"properties":{"nom_voie":"BD DE L HOPITAL","code_postal":"75013","arrondissement":13,"prix_m2_median":9165.0,"nb_transactions":7,"nb_lignes_metro":2,"nb_lignes_bus":8,"nb_points_velib":0,"score_accessibilite":10,"iaml_brut":916.5,"iaml_score":55.4,"iaml_label":"Modéré"}},{"type":"Feature","geometry":{"type":"Point","coordinates":[2.361087,48.884038]},"properties":{"nom_voie":"BD DE LA CHAPELLE","code_postal":"75010","arrondissement":10,"prix_m2_median":6818.181818181818,"nb_transactions":5,"nb_lignes_metro":4,"nb_lignes_bus":22,"nb_points_velib":2,"score_accessibilite":28,"iaml_brut":243.5064935064935,"iaml_score":1.8,"iaml_label":"Très accessible"}},{"type":"Feature","geometry":{"type":"Point","coordinates":[2.326914,48.870127]},"properties":{"nom_voie":"BD DE LA MADELEINE","code_postal":"75009","arrondissement":9,"prix_m2_median":13571.42857142857,"nb_transactions":3,"nb_lignes_metro":7,"nb_lignes_bus":17,"nb_points_velib":0,"score_accessibilite":24,"iaml_brut":565.4761904761905,"iaml_score":13.6,"iaml_label":"Très accessible"}},{"type":"Feature","geometry":{"type":"Point","coordinates":[2.309768,48.858413]},"properties":{"nom_voie":"BD DE LA TOUR MAUBOURG","code_postal":"75007","arrondissement":7,"prix_m2_median":33064.51612903226,"nb_transactions":11,"nb_lignes_metro":2,"nb_lignes_bus":6,"nb_points_velib":0,"score_accessibilite":8,"iaml_brut":4133.064516129032,"iaml_score":96.3,"iaml_label":"Très tendu"}},{"type":"Feature","geometry":{"type":"Point","coordinates":[2.373107,48.875031]},"properties":{"nom_voie":"BD DE LA VILLETTE","code_postal":"75010","arrondissement":10,"prix_m2_median":8485.714285714286,"nb_transactions":8,"nb_lignes_metro":2,"nb_lignes_bus":7,"nb_points_velib":0,"score_accessibilite":9,"iaml_brut":942.8571428571429,"iaml_score":58.5,"iaml_label":"Modéré"}},{"type":"Feature","geometry":{"type":"Point","coordinates":[2.370821,48.880226]},"properties":{"nom_voie":"BD DE LA VILLETTE","code_postal":"75019","arrondissement":19,"prix_m2_median":7250.0,"nb_transactions":10,"nb_lignes_metro":4,"nb_lignes_bus":9,"nb_points_velib":0,"score_accessibilite":13,"iaml_brut":557.6923076923077,"iaml_score":12.9,"iaml_label":"Très accessible"}},{"type":"Feature","geometry":{"type":"Point","coordinates":[2.354311,48.878253]},"properties":{"nom_voie":"BD DE MAGENTA","code_postal":"75010","arrondissement":10,"prix_m2_median":8426.339285714286,"nb_transactions":16,"nb_lignes_metro":3,"nb_lignes_bus":28,"nb_points_velib":4,"score_accessibilite":35,"iaml_brut":240.7525510204082,"iaml_score":1.7,"iaml_label":"Très accessible"}},{"type":"Feature","geometry":{"type":"Point","coordinates":[2.387947,48.860344]},"properties":{"nom_voie":"BD DE MENILMONTANT","code_postal":"75011","arrondissement":11,"prix_m2_median":9318.181818181818,"nb_transactions":3,"nb_lignes_metro":2,"nb_lignes_bus":6,"nb_points_velib":0,"score_accessibilite":8,"iaml_brut":1164.7727272727273,"iaml_score":73.6,"iaml_label":"Tendu"}},{"type":"Feature","geometry":{"type":"Point","coordinates":[2.386715,48.864175]},"properties":{"nom_voie":"BD DE MENILMONTANT","code_postal":"75020","arrondissement":20,"prix_m2_median":9165.408805031446,"nb_transactions":8,"nb_lignes_metro":2,"nb_lignes_bus":9,"nb_points_velib":0,"score_accessibilite":11,"iaml_brut":833.218982275586,"iaml_score":44.0,"iaml_label":"Modéré"}},{"type":"Feature","geometry":{"type":"Point","coordinates":[2.261979,48.850073]},"properties":{"nom_voie":"BD DE MONTMORENCY","code_postal":"75016","arrondissement":16,"prix_m2_median":12307.692307692309,"nb_transactions":7,"nb_lignes_metro":2,"nb_lignes_bus":7,"nb_points_velib":0,"score_accessibilite":9,"iaml_brut":1367.5213675213677,"iaml_score":82.2,"iaml_label":"Très tendu"}},{"type":"Feature","geometry":{"type":"Point","coordinates":[2.400105,48.843042]},"properties":{"nom_voie":"BD DE PICPUS","code_postal":"75012","arrondissement":12,"prix_m2_median":10352.430555555555,"nb_transactions":8,"nb_lignes_metro":2,"nb_lignes_bus":8,"nb_points_velib":1,"score_accessibilite":11,"iaml_brut":941.1300505050505,"iaml_score":58.2,"iaml_label":"Modéré"}},{"type":"Feature","geometry":{"type":"Point","coordinates":[2.345164,48.838267]},"properties":{"nom_voie":"BD DE PORT-ROYAL","code_postal":"75005","arrondissement":5,"prix_m2_median":11582.244318181818,"nb_transactions":6,"nb_lignes_metro":0,"nb_lignes_bus":11,"nb_points_velib":0,"score_accessibilite":11,"iaml_brut":1052.9313016528924,"iaml_score":67.6,"iaml_label":"Tendu"}},{"type":"Feature","geometry":{"type":"Point","coordinates":[2.34823,48.836909]},"properties":{"nom_voie":"BD DE PORT-ROYAL","code_postal":"75013","arrondissement":13,"prix_m2_median":8170.75,"nb_transactions":5,"nb_lignes_metro":1,"nb_lignes_bus":11,"nb_points_velib":0,"score_accessibilite":12,"iaml_brut":680.8958333333334,"iaml_score":25.0,"iaml_label":"Accessible"}},{"type":"Feature","geometry":{"type":"Point","coordinates":[2.392346,48.839255]},"properties":{"nom_voie":"BD DE REUILLY","code_postal":"75012","arrondissement":12,"prix_m2_median":8538.461538461539,"nb_transactions":23,"nb_lignes_metro":2,"nb_lignes_bus":9,"nb_points_velib":0,"score_accessibilite":11,"iaml_brut":776.2237762237763,"iaml_score":36.1,"iaml_label":"Accessible"}},{"type":"Feature","geometry":{"type":"Point","coordinates":[2.355942,48.87344]},"properties":{"nom_voie":"BD DE STRASBOURG","code_postal":"75010","arrondissement":10,"prix_m2_median":8747.945205479453,"nb_transactions":9,"nb_lignes_metro":5,"nb_lignes_bus":28,"nb_points_velib":7,"score_accessibilite":40,"iaml_brut":218.6986301369863,"iaml_score":0.8,"iaml_label":"Très accessible"}},{"type":"Feature","geometry":{"type":"Point","coordinates":[2.316889,48.840921]},"properties":{"nom_voie":"BD DE VAUGIRARD","code_postal":"75015","arrondissement":15,"prix_m2_median":8817.135549872122,"nb_transactions":6,"nb_lignes_metro":3,"nb_lignes_bus":25,"nb_points_velib":2,"score_accessibilite":30,"iaml_brut":293.90451832907075,"iaml_score":3.4,"iaml_label":"Très accessible"}},{"type":"Feature","geometry":{"type":"Point","coordinates":[2.32275,48.882193]},"properties":{"nom_voie":"BD DES BATIGNOLLES","code_postal":"75008","arrondissement":8,"prix_m2_median":9047.619047619048,"nb_transactions":3,"nb_lignes_metro":3,"nb_lignes_bus":17,"nb_points_velib":1,"score_accessibilite":21,"iaml_brut":430.8390022675737,"iaml_score":6.5,"iaml_label":"Très accessible"}},{"type":"Feature","geometry":{"type":"Point","coordinates":[2.322104,48.88285]},"properties":{"nom_voie":"BD DES BATIGNOLLES","code_postal":"75017","arrondissement":17,"prix_m2_median":11351.351351351352,"nb_transactions":3,"nb_lignes_metro":2,"nb_lignes_bus":15,"nb_points_velib":1,"score_accessibilite":18,"iaml_brut":630.6306306306307,"iaml_score":19.1,"iaml_label":"Très accessible"}},{"type":"Feature","geometry":{"type":"Point","coordinates":[2.316256,48.848137]},"properties":{"nom_voie":"BD DES INVALIDES","code_postal":"75007","arrondissement":7,"prix_m2_median":15065.481927710844,"nb_transactions":3,"nb_lignes_metro":3,"nb_lignes_bus":6,"nb_points_velib":0,"score_accessibilite":9,"iaml_brut":1673.942436412316,"iaml_score":88.9,"iaml_label":"Très tendu"}},{"type":"Feature","geometry":{"type":"Point","coordinates":[2.381671,48.846612]},"properties":{"nom_voie":"BD DIDEROT","code_postal":"75012","arrondissement":12,"prix_m2_median":8741.195551436515,"nb_transactions":10,"nb_lignes_metro":2,"nb_lignes_bus":10,"nb_points_velib":3,"score_accessibilite":15,"iaml_brut":582.7463700957676,"iaml_score":15.2,"iaml_label":"Très accessible"}},{"type":"Feature","geometry":{"type":"Point","coordinates":[2.321418,48.844987]},"properties":{"nom_voie":"BD DU MONTPARNASSE","code_postal":"75006","arrondissement":6,"prix_m2_median":17530.864197530864,"nb_transactions":23,"nb_lignes_metro":3,"nb_lignes_bus":22,"nb_points_velib":0,"score_accessibilite":25,"iaml_brut":701.2345679012345,"iaml_score":26.7,"iaml_label":"Accessible"}},{"type":"Feature","geometry":{"type":"Point","coordinates":[2.333085,48.840386]},"properties":{"nom_voie":"BD DU MONTPARNASSE","code_postal":"75014","arrondissement":14,"prix_m2_median":12068.965517241379,"nb_transactions":9,"nb_lignes_metro":2,"nb_lignes_bus":12,"nb_points_velib":0,"score_accessibilite":14,"iaml_brut":862.0689655172413,"iaml_score":48.3,"iaml_label":"Modéré"}},{"type":"Feature","geometry":{"type":"Point","coordinates":[2.319206,48.845096]},"properties":{"nom_voie":"BD DU MONTPARNASSE","code_postal":"75015","arrondissement":15,"prix_m2_median":10439.560439560439,"nb_transactions":5,"nb_lignes_metro":5,"nb_lignes_bus":24,"nb_points_velib":0,"score_accessibilite":29,"iaml_brut":359.9848427434634,"iaml_score":5.1,"iaml_label":"Très accessible"}},{"type":"Feature","geometry":{"type":"Point","coordinates":[2.365715,48.863694]},"properties":{"nom_voie":"BD DU TEMPLE","code_postal":"75003","arrondissement":3,"prix_m2_median":15350.450450450451,"nb_transactions":5,"nb_lignes_metro":5,"nb_lignes_bus":10,"nb_points_velib":1,"score_accessibilite":16,"iaml_brut":959.4031531531532,"iaml_score":60.6,"iaml_label":"Tendu"}},{"type":"Feature","geometry":{"type":"Point","coordinates":[2.366023,48.865197]},"properties":{"nom_voie":"BD DU TEMPLE","code_postal":"75011","arrondissement":11,"prix_m2_median":11471.51590909091,"nb_transactions":10,"nb_lignes_metro":5,"nb_lignes_bus":11,"nb_points_velib":0,"score_accessibilite":16,"iaml_brut":716.9697443181818,"iaml_score":29.8,"iaml_label":"Accessible"}},{"type":"Feature","geometry":{"type":"Point","coordinates":[2.328731,48.84033]},"properties":{"nom_voie":"BD EDGAR QUINET","code_postal":"75014","arrondissement":14,"prix_m2_median":11318.181818181818,"nb_transactions":7,"nb_lignes_metro":2,"nb_lignes_bus":10,"nb_points_velib":0,"score_accessibilite":12,"iaml_brut":943.1818181818181,"iaml_score":58.5,"iaml_label":"Modéré"}},{"type":"Feature","geometry":{"type":"Point","coordinates":[2.260738,48.842991]},"properties":{"nom_voie":"BD EXELMANS","code_postal":"75016","arrondissement":16,"prix_m2_median":9055.714285714286,"nb_transactions":17,"nb_lignes_metro":2,"nb_lignes_bus":9,"nb_points_velib":0,"score_accessibilite":11,"iaml_brut":823.2467532467533,"iaml_score":42.8,"iaml_label":"Modéré"}},{"type":"Feature","geometry":{"type":"Point","coordinates":[2.273255,48.866851]},"properties":{"nom_voie":"BD FLANDRIN","code_postal":"75016","arrondissement":16,"prix_m2_median":11306.666666666668,"nb_transactions":16,"nb_lignes_metro":1,"nb_lignes_bus":3,"nb_points_velib":0,"score_accessibilite":4,"iaml_brut":2826.666666666667,"iaml_score":95.1,"iaml_label":"Très tendu"}},{"type":"Feature","geometry":{"type":"Point","coordinates":[2.302823,48.846218]},"properties":{"nom_voie":"BD GARIBALDI","code_postal":"75015","arrondissement":15,"prix_m2_median":10194.174757281553,"nb_transactions":5,"nb_lignes_metro":3,"nb_lignes_bus":9,"nb_points_velib":1,"score_accessibilite":13,"iaml_brut":784.1672890216579,"iaml_score":37.1,"iaml_label":"Accessible"}},{"type":"Feature","geometry":{"type":"Point","coordinates":[2.28708,48.882278]},"properties":{"nom_voie":"BD GOUVION ST-CYR","code_postal":"75017","arrondissement":17,"prix_m2_median":10540.54054054054,"nb_transactions":7,"nb_lignes_metro":1,"nb_lignes_bus":7,"nb_points_velib":1,"score_accessibilite":9,"iaml_brut":1171.1711711711712,"iaml_score":74.3,"iaml_label":"Tendu"}},{"type":"Feature","geometry":{"type":"Point","coordinates":[2.312827,48.875173]},"properties":{"nom_voie":"BD HAUSSMANN","code_postal":"75008","arrondissement":8,"prix_m2_median":12910.116258741258,"nb_transactions":8,"nb_lignes_metro":2,"nb_lignes_bus":14,"nb_points_velib":0,"score_accessibilite":16,"iaml_brut":806.8822661713286,"iaml_score":40.2,"iaml_label":"Modéré"}},{"type":"Feature","geometry":{"type":"Point","coordinates":[2.365727,48.852276]},"properties":{"nom_voie":"BD HENRI IV","code_postal":"75004","arrondissement":4,"prix_m2_median":12158.687943262412,"nb_transactions":6,"nb_lignes_metro":4,"nb_lignes_bus":13,"nb_points_velib":0,"score_accessibilite":17,"iaml_brut":715.2169378389654,"iaml_score":29.6,"iaml_label":"Accessible"}},{"type":"Feature","geometry":{"type":"Point","coordinates":[2.34323,48.82017]},"properties":{"nom_voie":"BD JOURDAN","code_postal":"75014","arrondissement":14,"prix_m2_median":7475.091575091576,"nb_transactions":6,"nb_lignes_metro":0,"nb_lignes_bus":6,"nb_points_velib":1,"score_accessibilite":7,"iaml_brut":1067.8702250130823,"iaml_score":68.4,"iaml_label":"Tendu"}},{"type":"Feature","geometry":{"type":"Point","coordinates":[2.345656,48.820082]},"properties":{"nom_voie":"BD KELLERMANN","code_postal":"75013","arrondissement":13,"prix_m2_median":7517.241379310345,"nb_transactions":3,"nb_lignes_metro":0,"nb_lignes_bus":6,"nb_points_velib":1,"score_accessibilite":7,"iaml_brut":1073.8916256157636,"iaml_score":68.5,"iaml_label":"Tendu"}},{"type":"Feature","geometry":{"type":"Point","coordinates":[2.272348,48.866819]},"properties":{"nom_voie":"BD LANNES","code_postal":"75016","arrondissement":16,"prix_m2_median":27019.722891566264,"nb_transactions":4,"nb_lignes_metro":0,"nb_lignes_bus":3,"nb_points_velib":0,"score_accessibilite":3,"iaml_brut":9006.574297188754,"iaml_score":98.0,"iaml_label":"Très tendu"}},{"type":"Feature","geometry":{"type":"Point","coordinates":[2.29093,48.831931]},"properties":{"nom_voie":"BD LEFEBVRE","code_postal":"75015","arrondissement":15,"prix_m2_median":7818.181818181818,"nb_transactions":9,"nb_lignes_metro":1,"nb_lignes_bus":9,"nb_points_velib":0,"score_accessibilite":10,"iaml_brut":781.8181818181818,"iaml_score":36.9,"iaml_label":"Accessible"}},{"type":"Feature","geometry":{"type":"Point","coordinates":[2.316539,48.87812]},"properties":{"nom_voie":"BD MALESHERBES","code_postal":"75008","arrondissement":8,"prix_m2_median":12280.03671875,"nb_transactions":14,"nb_lignes_metro":2,"nb_lignes_bus":20,"nb_points_velib":0,"score_accessibilite":22,"iaml_brut":558.183487215909,"iaml_score":12.9,"iaml_label":"Très accessible"}},{"type":"Feature","geometry":{"type":"Point","coordinates":[2.306693,48.886273]},"properties":{"nom_voie":"BD MALESHERBES","code_postal":"75017","arrondissement":17,"prix_m2_median":9991.436657681941,"nb_transactions":10,"nb_lignes_metro":1,"nb_lignes_bus":10,"nb_points_velib":0,"score_accessibilite":11,"iaml_brut":908.312423425631,"iaml_score":54.3,"iaml_label":"Modéré"}},{"type":"Feature","geometry":{"type":"Point","coordinates":[2.346049,48.882948]},"properties":{"nom_voie":"BD MARGUERITE DE ROCHECHOUART","code_postal":"75009","arrondissement":9,"prix_m2_median":10194.813409234663,"nb_transactions":6,"nb_lignes_metro":2,"nb_lignes_bus":13,"nb_points_velib":1,"score_accessibilite":16,"iaml_brut":637.1758380771664,"iaml_score":19.7,"iaml_label":"Très accessible"}},{"type":"Feature","geometry":{"type":"Point","coordinates":[2.342643,48.882961]},"properties":{"nom_voie":"BD MARGUERITE DE ROCHECHOUART","code_postal":"75018","arrondissement":18,"prix_m2_median":9036.764705882353,"nb_transactions":5,"nb_lignes_metro":2,"nb_lignes_bus":7,"nb_points_velib":0,"score_accessibilite":9,"iaml_brut":1004.0849673202615,"iaml_score":64.7,"iaml_label":"Tendu"}},{"type":"Feature","geometry":{"type":"Point","coordinates":[2.367319,48.821948]},"properties":{"nom_voie":"BD MASSENA","code_postal":"75013","arrondissement":13,"prix_m2_median":5312.5,"nb_transactions":7,"nb_lignes_metro":1,"nb_lignes_bus":3,"nb_points_velib":0,"score_accessibilite":4,"iaml_brut":1328.125,"iaml_score":81.1,"iaml_label":"Très tendu"}},{"type":"Feature","geometry":{"type":"Point","coordinates":[2.364978,48.847985]},"properties":{"nom_voie":"BD MORLAND","code_postal":"75004","arrondissement":4,"prix_m2_median":12272.727272727272,"nb_transactions":5,"nb_lignes_metro":2,"nb_lignes_bus":18,"nb_points_velib":1,"score_accessibilite":21,"iaml_brut":584.4155844155844,"iaml_score":15.4,"iaml_label":"Très accessible"}},{"type":"Feature","geometry":{"type":"Point","coordinates":[2.408506,48.867525]},"properties":{"nom_voie":"BD MORTIER","code_postal":"75020","arrondissement":20,"prix_m2_median":7531.565656565657,"nb_transactions":4,"nb_lignes_metro":1,"nb_lignes_bus":11,"nb_points_velib":1,"score_accessibilite":13,"iaml_brut":579.3512043512044,"iaml_score":15.0,"iaml_label":"Très accessible"}},{"type":"Feature","geometry":{"type":"Point","coordinates":[2.260077,48.83935]},"properties":{"nom_voie":"BD MURAT","code_postal":"75016","arrondissement":16,"prix_m2_median":9211.87275985663,"nb_transactions":14,"nb_lignes_metro":1,"nb_lignes_bus":10,"nb_points_velib":0,"score_accessibilite":11,"iaml_brut":837.4429781687845,"iaml_score":44.5,"iaml_label":"Modéré"}},{"type":"Feature","geometry":{"type":"Point","coordinates":[2.331496,48.897408]},"properties":{"nom_voie":"BD NEY","code_postal":"75018","arrondissement":18,"prix_m2_median":7177.33918128655,"nb_transactions":8,"nb_lignes_metro":1,"nb_lignes_bus":10,"nb_points_velib":0,"score_accessibilite":11,"iaml_brut":652.4853801169592,"iaml_score":20.9,"iaml_label":"Accessible"}},{"type":"Feature","geometry":{"type":"Point","coordinates":[2.346535,48.894918]},"properties":{"nom_voie":"BD ORNANO","code_postal":"75018","arrondissement":18,"prix_m2_median":7691.176470588235,"nb_transactions":23,"nb_lignes_metro":2,"nb_lignes_bus":11,"nb_points_velib":0,"score_accessibilite":13,"iaml_brut":591.6289592760181,"iaml_score":16.2,"iaml_label":"Très accessible"}},{"type":"Feature","geometry":{"type":"Point","coordinates":[2.296661,48.88454]},"properties":{"nom_voie":"BD PEREIRE","code_postal":"75017","arrondissement":17,"prix_m2_median":10714.285714285714,"nb_transactions":27,"nb_lignes_metro":1,"nb_lignes_bus":11,"nb_points_velib":1,"score_accessibilite":13,"iaml_brut":824.1758241758241,"iaml_score":43.0,"iaml_label":"Modéré"}},{"type":"Feature","geometry":{"type":"Point","coordinates":[2.403714,48.8343]},"properties":{"nom_voie":"BD PONIATOWSKI","code_postal":"75012","arrondissement":12,"prix_m2_median":8617.021276595744,"nb_transactions":7,"nb_lignes_metro":1,"nb_lignes_bus":5,"nb_points_velib":0,"score_accessibilite":6,"iaml_brut":1436.1702127659573,"iaml_score":84.2,"iaml_label":"Très tendu"}},{"type":"Feature","geometry":{"type":"Point","coordinates":[2.328874,48.844226]},"properties":{"nom_voie":"BD RASPAIL","code_postal":"75006","arrondissement":6,"prix_m2_median":16732.666045934202,"nb_transactions":4,"nb_lignes_metro":3,"nb_lignes_bus":16,"nb_points_velib":0,"score_accessibilite":19,"iaml_brut":880.6666339965369,"iaml_score":50.5,"iaml_label":"Modéré"}},{"type":"Feature","geometry":{"type":"Point","coordinates":[2.326562,48.854614]},"properties":{"nom_voie":"BD RASPAIL","code_postal":"75007","arrondissement":7,"prix_m2_median":28171.58878504673,"nb_transactions":7,"nb_lignes_metro":3,"nb_lignes_bus":16,"nb_points_velib":0,"score_accessibilite":19,"iaml_brut":1482.7151992129857,"iaml_score":85.6,"iaml_label":"Très tendu"}},{"type":"Feature","geometry":{"type":"Point","coordinates":[2.330219,48.839881]},"properties":{"nom_voie":"BD RASPAIL","code_postal":"75014","arrondissement":14,"prix_m2_median":11282.051282051281,"nb_transactions":9,"nb_lignes_metro":2,"nb_lignes_bus":13,"nb_points_velib":0,"score_accessibilite":15,"iaml_brut":752.1367521367521,"iaml_score":33.9,"iaml_label":"Accessible"}},{"type":"Feature","geometry":{"type":"Point","coordinates":[2.371659,48.860773]},"properties":{"nom_voie":"BD RICHARD LENOIR","code_postal":"75011","arrondissement":11,"prix_m2_median":10651.134301270416,"nb_transactions":22,"nb_lignes_metro":3,"nb_lignes_bus":8,"nb_points_velib":1,"score_accessibilite":12,"iaml_brut":887.594525105868,"iaml_score":51.5,"iaml_label":"Modéré"}},{"type":"Feature","geometry":{"type":"Point","coordinates":[2.351893,48.849625]},"properties":{"nom_voie":"BD SAINT GERMAIN","code_postal":"75005","arrondissement":5,"prix_m2_median":13093.023255813954,"nb_transactions":7,"nb_lignes_metro":2,"nb_lignes_bus":9,"nb_points_velib":0,"score_accessibilite":11,"iaml_brut":1190.2748414376322,"iaml_score":74.9,"iaml_label":"Tendu"}},{"type":"Feature","geometry":{"type":"Point","coordinates":[2.320983,48.861407]},"properties":{"nom_voie":"BD SAINT GERMAIN","code_postal":"75007","arrondissement":7,"prix_m2_median":1296859.9033816424,"nb_transactions":18,"nb_lignes_metro":3,"nb_lignes_bus":15,"nb_points_velib":0,"score_accessibilite":18,"iaml_brut":72047.77241009125,"iaml_score":99.7,"iaml_label":"Très tendu"}},{"type":"Feature","geometry":{"type":"Point","coordinates":[2.358584,48.839253]},"properties":{"nom_voie":"BD SAINT MARCEL","code_postal":"75005","arrondissement":5,"prix_m2_median":11509.433962264151,"nb_transactions":7,"nb_lignes_metro":2,"nb_lignes_bus":8,"nb_points_velib":0,"score_accessibilite":10,"iaml_brut":1150.9433962264152,"iaml_score":73.2,"iaml_label":"Tendu"}},{"type":"Feature","geometry":{"type":"Point","coordinates":[2.355681,48.837697]},"properties":{"nom_voie":"BD SAINT MARCEL","code_postal":"75013","arrondissement":13,"prix_m2_median":144680.8510638298,"nb_transactions":29,"nb_lignes_metro":2,"nb_lignes_bus":14,"nb_points_velib":0,"score_accessibilite":16,"iaml_brut":9042.553191489362,"iaml_score":98.0,"iaml_label":"Très tendu"}},{"type":"Feature","geometry":{"type":"Point","coordinates":[2.35843,48.868253]},"properties":{"nom_voie":"BD SAINT MARTIN","code_postal":"75003","arrondissement":3,"prix_m2_median":10648.321678321678,"nb_transactions":6,"nb_lignes_metro":6,"nb_lignes_bus":15,"nb_points_velib":2,"score_accessibilite":23,"iaml_brut":462.9705077531164,"iaml_score":7.8,"iaml_label":"Très accessible"}},{"type":"Feature","geometry":{"type":"Point","coordinates":[2.339519,48.844255]},"properties":{"nom_voie":"BD SAINT MICHEL","code_postal":"75005","arrondissement":5,"prix_m2_median":11642.857142857143,"nb_transactions":7,"nb_lignes_metro":0,"nb_lignes_bus":13,"nb_points_velib":0,"score_accessibilite":13,"iaml_brut":895.6043956043957,"iaml_score":52.5,"iaml_label":"Modéré"}},{"type":"Feature","geometry":{"type":"Point","coordinates":[2.341746,48.849876]},"properties":{"nom_voie":"BD SAINT MICHEL","code_postal":"75006","arrondissement":6,"prix_m2_median":17192.092457420928,"nb_transactions":4,"nb_lignes_metro":2,"nb_lignes_bus":22,"nb_points_velib":0,"score_accessibilite":24,"iaml_brut":716.337185725872,"iaml_score":29.7,"iaml_label":"Accessible"}},{"type":"Feature","geometry":{"type":"Point","coordinates":[2.403972,48.877807]},"properties":{"nom_voie":"BD SERURIER","code_postal":"75019","arrondissement":19,"prix_m2_median":6410.25641025641,"nb_transactions":7,"nb_lignes_metro":2,"nb_lignes_bus":12,"nb_points_velib":0,"score_accessibilite":14,"iaml_brut":457.87545787545787,"iaml_score":7.7,"iaml_label":"Très accessible"}},{"type":"Feature","geometry":{"type":"Point","coordinates":[2.408584,48.841464]},"properties":{"nom_voie":"BD SOULT","code_postal":"75012","arrondissement":12,"prix_m2_median":7685.714285714285,"nb_transactions":11,"nb_lignes_metro":0,"nb_lignes_bus":5,"nb_points_velib":0,"score_accessibilite":5,"iaml_brut":1537.142857142857,"iaml_score":86.8,"iaml_label":"Très tendu"}},{"type":"Feature","geometry":{"type":"Point","coordinates":[2.262877,48.855741]},"properties":{"nom_voie":"BD SUCHET","code_postal":"75016","arrondissement":16,"prix_m2_median":9857.142857142857,"nb_transactions":5,"nb_lignes_metro":1,"nb_lignes_bus":6,"nb_points_velib":0,"score_accessibilite":7,"iaml_brut":1408.1632653061224,"iaml_score":83.4,"iaml_label":"Très tendu"}},{"type":"Feature","geometry":{"type":"Point","coordinates":[2.367598,48.834407]},"properties":{"nom_voie":"BD VINCENT AURIOL","code_postal":"75013","arrondissement":13,"prix_m2_median":8416.53448275862,"nb_transactions":8,"nb_lignes_metro":1,"nb_lignes_bus":7,"nb_points_velib":1,"score_accessibilite":9,"iaml_brut":935.170498084291,"iaml_score":57.7,"iaml_label":"Modéré"}},{"type":"Feature","geometry":{"type":"Point","coordinates":[2.381327,48.85756]},"properties":{"nom_voie":"BD VOLTAIRE","code_postal":"75011","arrondissement":11,"prix_m2_median":9928.57142857143,"nb_transactions":47,"nb_lignes_metro":2,"nb_lignes_bus":8,"nb_points_velib":1,"score_accessibilite":11,"iaml_brut":902.5974025974027,"iaml_score":53.4,"iaml_label":"Modéré"}},{"type":"Feature","geometry":{"type":"Point","coordinates":[2.345102,48.879558]},"properties":{"nom_voie":"CITE CONDORCET","code_postal":"75009","arrondissement":9,"prix_m2_median":11000.0,"nb_transactions":3,"nb_lignes_metro":2,"nb_lignes_bus":10,"nb_points_velib":2,"score_accessibilite":14,"iaml_brut":785.7142857142857,"iaml_score":37.2,"iaml_label":"Accessible"}},{"type":"Feature","geometry":{"type":"Point","coordinates":[2.346649,48.875086]},"properties":{"nom_voie":"CITE DE TREVISE","code_postal":"75009","arrondissement":9,"prix_m2_median":10154.566563467492,"nb_transactions":4,"nb_lignes_metro":3,"nb_lignes_bus":8,"nb_points_velib":2,"score_accessibilite":13,"iaml_brut":781.1205048821147,"iaml_score":36.8,"iaml_label":"Accessible"}},{"type":"Feature","geometry":{"type":"Point","coordinates":[2.336419,48.884226]},"properties":{"nom_voie":"CITE GERMAIN PILON","code_postal":"75018","arrondissement":18,"prix_m2_median":20455.0,"nb_transactions":3,"nb_lignes_metro":2,"nb_lignes_bus":9,"nb_points_velib":0,"score_accessibilite":11,"iaml_brut":1859.5454545454545,"iaml_score":91.2,"iaml_label":"Très tendu"}},{"type":"Feature","geometry":{"type":"Point","coordinates":[2.386987,48.843573]},"properties":{"nom_voie":"CITE MOYNET","code_postal":"75012","arrondissement":12,"prix_m2_median":2232.1428571428573,"nb_transactions":3,"nb_lignes_metro":2,"nb_lignes_bus":6,"nb_points_velib":2,"score_accessibilite":10,"iaml_brut":223.21428571428572,"iaml_score":1.2,"iaml_label":"Très accessible"}},{"type":"Feature","geometry":{"type":"Point","coordinates":[2.403371,48.847232]},"properties":{"nom_voie":"CRS DE VINCENNES","code_postal":"75012","arrondissement":12,"prix_m2_median":7805.347619047619,"nb_transactions":12,"nb_lignes_metro":2,"nb_lignes_bus":10,"nb_points_velib":1,"score_accessibilite":13,"iaml_brut":600.4113553113554,"iaml_score":16.9,"iaml_label":"Très accessible"}},{"type":"Feature","geometry":{"type":"Point","coordinates":[2.405395,48.8481]},"properties":{"nom_voie":"CRS DE VINCENNES","code_postal":"75020","arrondissement":20,"prix_m2_median":6020.136778115502,"nb_transactions":4,"nb_lignes_metro":2,"nb_lignes_bus":10,"nb_points_velib":1,"score_accessibilite":13,"iaml_brut":463.08744447042324,"iaml_score":7.9,"iaml_label":"Très accessible"}},{"type":"Feature","geometry":{"type":"Point","coordinates":[2.392114,48.852335]},"properties":{"nom_voie":"IMP DES JARDINIERS","code_postal":"75011","arrondissement":11,"prix_m2_median":8979.591836734693,"nb_transactions":3,"nb_lignes_metro":2,"nb_lignes_bus":7,"nb_points_velib":1,"score_accessibilite":10,"iaml_brut":897.9591836734693,"iaml_score":52.7,"iaml_label":"Modéré"}},{"type":"Feature","geometry":{"type":"Point","coordinates":[2.395277,48.852005]},"properties":{"nom_voie":"IMP DU BUREAU","code_postal":"75011","arrondissement":11,"prix_m2_median":8823.529411764706,"nb_transactions":3,"nb_lignes_metro":4,"nb_lignes_bus":10,"nb_points_velib":1,"score_accessibilite":15,"iaml_brut":588.2352941176471,"iaml_score":15.9,"iaml_label":"Très accessible"}},{"type":"Feature","geometry":{"type":"Point","coordinates":[2.371238,48.861065]},"properties":{"nom_voie":"IMP SAINT SEBASTIEN","code_postal":"75011","arrondissement":11,"prix_m2_median":13331.333333333334,"nb_transactions":4,"nb_lignes_metro":3,"nb_lignes_bus":8,"nb_points_velib":1,"score_accessibilite":12,"iaml_brut":1110.9444444444446,"iaml_score":70.8,"iaml_label":"Tendu"}},{"type":"Feature","geometry":{"type":"Point","coordinates":[2.374141,48.863702]},"properties":{"nom_voie":"PAS BESLAY","code_postal":"75011","arrondissement":11,"prix_m2_median":10906.25,"nb_transactions":3,"nb_lignes_metro":3,"nb_lignes_bus":7,"nb_points_velib":0,"score_accessibilite":10,"iaml_brut":1090.625,"iaml_score":69.5,"iaml_label":"Tendu"}},{"type":"Feature","geometry":{"type":"Point","coordinates":[2.376449,48.855352]},"properties":{"nom_voie":"PAS BULLOURDE","code_postal":"75011","arrondissement":11,"prix_m2_median":10208.333333333332,"nb_transactions":8,"nb_lignes_metro":3,"nb_lignes_bus":8,"nb_points_velib":1,"score_accessibilite":12,"iaml_brut":850.6944444444443,"iaml_score":46.4,"iaml_label":"Modéré"}},{"type":"Feature","geometry":{"type":"Point","coordinates":[2.345967,48.887859]},"properties":{"nom_voie":"PAS COTTIN","code_postal":"75018","arrondissement":18,"prix_m2_median":9629.62962962963,"nb_transactions":3,"nb_lignes_metro":2,"nb_lignes_bus":10,"nb_points_velib":0,"score_accessibilite":12,"iaml_brut":802.4691358024692,"iaml_score":39.7,"iaml_label":"Accessible"}},{"type":"Feature","geometry":{"type":"Point","coordinates":[2.386622,48.856821]},"properties":{"nom_voie":"PAS COURTOIS","code_postal":"75011","arrondissement":11,"prix_m2_median":9687.5,"nb_transactions":3,"nb_lignes_metro":2,"nb_lignes_bus":8,"nb_points_velib":0,"score_accessibilite":10,"iaml_brut":968.75,"iaml_score":61.6,"iaml_label":"Tendu"}},{"type":"Feature","geometry":{"type":"Point","coordinates":[2.360695,48.873991]},"properties":{"nom_voie":"PAS DES RECOLLETS","code_postal":"75010","arrondissement":10,"prix_m2_median":8416.666666666668,"nb_transactions":4,"nb_lignes_metro":3,"nb_lignes_bus":29,"nb_points_velib":6,"score_accessibilite":38,"iaml_brut":221.49122807017548,"iaml_score":1.1,"iaml_label":"Très accessible"}},{"type":"Feature","geometry":{"type":"Point","coordinates":[2.291982,48.878272]},"properties":{"nom_voie":"PAS DOISY","code_postal":"75017","arrondissement":17,"prix_m2_median":10500.0,"nb_transactions":4,"nb_lignes_metro":2,"nb_lignes_bus":8,"nb_points_velib":1,"score_accessibilite":11,"iaml_brut":954.5454545454545,"iaml_score":59.5,"iaml_label":"Modéré"}},{"type":"Feature","geometry":{"type":"Point","coordinates":[2.389497,48.848604]},"properties":{"nom_voie":"PAS DU GENIE","code_postal":"75012","arrondissement":12,"prix_m2_median":7562.5,"nb_transactions":5,"nb_lignes_metro":5,"nb_lignes_bus":7,"nb_points_velib":3,"score_accessibilite":15,"iaml_brut":504.1666666666667,"iaml_score":9.8,"iaml_label":"Très accessible"}},{"type":"Feature","geometry":{"type":"Point","coordinates":[2.384917,48.878376]},"properties":{"nom_voie":"PAS DU PLATEAU","code_postal":"75019","arrondissement":19,"prix_m2_median":67046.4767616192,"nb_transactions":4,"nb_lignes_metro":2,"nb_lignes_bus":8,"nb_points_velib":0,"score_accessibilite":10,"iaml_brut":6704.64767616192,"iaml_score":97.5,"iaml_label":"Très tendu"}},{"type":"Feature","geometry":{"type":"Point","coordinates":[2.347193,48.896168]},"properties":{"nom_voie":"PAS DUHESME","code_postal":"75018","arrondissement":18,"prix_m2_median":6375.0,"nb_transactions":4,"nb_lignes_metro":2,"nb_lignes_bus":13,"nb_points_velib":0,"score_accessibilite":15,"iaml_brut":425.0,"iaml_score":6.3,"iaml_label":"Très accessible"}},{"type":"Feature","geometry":{"type":"Point","coordinates":[2.352914,48.868604]},"properties":{"nom_voie":"PAS LEMOINE","code_postal":"75002","arrondissement":2,"prix_m2_median":8857.142857142857,"nb_transactions":3,"nb_lignes_metro":5,"nb_lignes_bus":9,"nb_points_velib":2,"score_accessibilite":16,"iaml_brut":553.5714285714286,"iaml_score":12.4,"iaml_label":"Très accessible"}},{"type":"Feature","geometry":{"type":"Point","coordinates":[2.334431,48.884737]},"properties":{"nom_voie":"PAS LEPIC","code_postal":"75018","arrondissement":18,"prix_m2_median":105911.45833333334,"nb_transactions":40,"nb_lignes_metro":2,"nb_lignes_bus":9,"nb_points_velib":0,"score_accessibilite":11,"iaml_brut":9628.314393939394,"iaml_score":98.1,"iaml_label":"Très tendu"}},{"type":"Feature","geometry":{"type":"Point","coordinates":[2.369228,48.823564]},"properties":{"nom_voie":"PAS NATIONAL","code_postal":"75013","arrondissement":13,"prix_m2_median":39038.46153846154,"nb_transactions":7,"nb_lignes_metro":2,"nb_lignes_bus":7,"nb_points_velib":0,"score_accessibilite":9,"iaml_brut":4337.606837606838,"iaml_score":96.4,"iaml_label":"Très tendu"}},{"type":"Feature","geometry":{"type":"Point","coordinates":[2.346992,48.889977]},"properties":{"nom_voie":"PAS RAMEY","code_postal":"75018","arrondissement":18,"prix_m2_median":10000.0,"nb_transactions":3,"nb_lignes_metro":2,"nb_lignes_bus":9,"nb_points_velib":1,"score_accessibilite":12,"iaml_brut":833.3333333333334,"iaml_score":44.2,"iaml_label":"Modéré"}},{"type":"Feature","geometry":{"type":"Point","coordinates":[2.379388,48.854286]},"properties":{"nom_voie":"PAS RAUCH","code_postal":"75011","arrondissement":11,"prix_m2_median":14986.842105263158,"nb_transactions":3,"nb_lignes_metro":2,"nb_lignes_bus":8,"nb_points_velib":0,"score_accessibilite":10,"iaml_brut":1498.6842105263158,"iaml_score":85.9,"iaml_label":"Très tendu"}},{"type":"Feature","geometry":{"type":"Point","coordinates":[2.297675,48.881496]},"properties":{"nom_voie":"PAS ROUX","code_postal":"75017","arrondissement":17,"prix_m2_median":9967.787114845938,"nb_transactions":4,"nb_lignes_metro":2,"nb_lignes_bus":11,"nb_points_velib":2,"score_accessibilite":15,"iaml_brut":664.5191409897292,"iaml_score":23.1,"iaml_label":"Accessible"}},{"type":"Feature","geometry":{"type":"Point","coordinates":[2.372864,48.854316]},"properties":{"nom_voie":"PAS THIERE","code_postal":"75011","arrondissement":11,"prix_m2_median":9775.0,"nb_transactions":5,"nb_lignes_metro":3,"nb_lignes_bus":12,"nb_points_velib":1,"score_accessibilite":16,"iaml_brut":610.9375,"iaml_score":17.4,"iaml_label":"Très accessible"}},{"type":"Feature","geometry":{"type":"Point","coordinates":[2.316252,48.888527]},"properties":{"nom_voie":"PL CHARLES FILLION","code_postal":"75017","arrondissement":17,"prix_m2_median":11226.851851851852,"nb_transactions":4,"nb_lignes_metro":2,"nb_lignes_bus":14,"nb_points_velib":0,"score_accessibilite":16,"iaml_brut":701.6782407407408,"iaml_score":26.9,"iaml_label":"Accessible"}},{"type":"Feature","geometry":{"type":"Point","coordinates":[2.39681,48.849454]},"properties":{"nom_voie":"PL DE LA NATION","code_postal":"75011","arrondissement":11,"prix_m2_median":9971.264367816093,"nb_transactions":6,"nb_lignes_metro":4,"nb_lignes_bus":10,"nb_points_velib":1,"score_accessibilite":15,"iaml_brut":664.7509578544062,"iaml_score":23.2,"iaml_label":"Accessible"}},{"type":"Feature","geometry":{"type":"Point","coordinates":[2.36691,48.855593]},"properties":{"nom_voie":"PL DES VOSGES","code_postal":"75004","arrondissement":4,"prix_m2_median":14495.495495495496,"nb_transactions":4,"nb_lignes_metro":3,"nb_lignes_bus":11,"nb_points_velib":0,"score_accessibilite":14,"iaml_brut":1035.3925353925354,"iaml_score":66.7,"iaml_label":"Tendu"}},{"type":"Feature","geometry":{"type":"Point","coordinates":[2.298109,48.884576]},"properties":{"nom_voie":"PL DU MAL JUIN","code_postal":"75017","arrondissement":17,"prix_m2_median":10260.686131386861,"nb_transactions":3,"nb_lignes_metro":1,"nb_lignes_bus":11,"nb_points_velib":2,"score_accessibilite":14,"iaml_brut":732.9061522419187,"iaml_score":31.4,"iaml_label":"Accessible"}},{"type":"Feature","geometry":{"type":"Point","coordinates":[2.363006,48.855239]},"properties":{"nom_voie":"PL DU MARCHE SAINTE CATHERINE","code_postal":"75004","arrondissement":4,"prix_m2_median":12053.25,"nb_transactions":6,"nb_lignes_metro":4,"nb_lignes_bus":13,"nb_points_velib":0,"score_accessibilite":17,"iaml_brut":709.0147058823529,"iaml_score":28.6,"iaml_label":"Accessible"}},{"type":"Feature","geometry":{"type":"Point","coordinates":[2.350848,48.878083]},"properties":{"nom_voie":"PL FRANZ LISZT","code_postal":"75010","arrondissement":10,"prix_m2_median":8313.559322033898,"nb_transactions":3,"nb_lignes_metro":2,"nb_lignes_bus":26,"nb_points_velib":1,"score_accessibilite":29,"iaml_brut":286.6744593804792,"iaml_score":3.1,"iaml_label":"Très accessible"}},{"type":"Feature","geometry":{"type":"Point","coordinates":[2.337533,48.878666]},"properties":{"nom_voie":"PL SAINT-GEORGES","code_postal":"75009","arrondissement":9,"prix_m2_median":35546.875,"nb_transactions":3,"nb_lignes_metro":3,"nb_lignes_bus":12,"nb_points_velib":1,"score_accessibilite":16,"iaml_brut":2221.6796875,"iaml_score":93.3,"iaml_label":"Très tendu"}},{"type":"Feature","geometry":{"type":"Point","coordinates":[2.36863,48.828483]},"properties":{"nom_voie":"PL SOUHAM","code_postal":"75013","arrondissement":13,"prix_m2_median":7028.985507246377,"nb_transactions":3,"nb_lignes_metro":1,"nb_lignes_bus":8,"nb_points_velib":1,"score_accessibilite":10,"iaml_brut":702.8985507246377,"iaml_score":27.6,"iaml_label":"Accessible"}},{"type":"Feature","geometry":{"type":"Point","coordinates":[2.280382,48.847795]},"properties":{"nom_voie":"QUAI ANDRE CITROEN","code_postal":"75015","arrondissement":15,"prix_m2_median":9727.963302752294,"nb_transactions":8,"nb_lignes_metro":1,"nb_lignes_bus":9,"nb_points_velib":1,"score_accessibilite":11,"iaml_brut":884.3603002502085,"iaml_score":51.2,"iaml_label":"Modéré"}},{"type":"Feature","geometry":{"type":"Point","coordinates":[2.351143,48.854371]},"properties":{"nom_voie":"QUAI AUX FLEURS","code_postal":"75004","arrondissement":4,"prix_m2_median":22222.222222222223,"nb_transactions":3,"nb_lignes_metro":4,"nb_lignes_bus":25,"nb_points_velib":0,"score_accessibilite":29,"iaml_brut":766.2835249042146,"iaml_score":34.7,"iaml_label":"Accessible"}},{"type":"Feature","geometry":{"type":"Point","coordinates":[2.303019,48.862046]},"properties":{"nom_voie":"QUAI D ORSAY","code_postal":"75007","arrondissement":7,"prix_m2_median":19295.45112781955,"nb_transactions":4,"nb_lignes_metro":1,"nb_lignes_bus":6,"nb_points_velib":0,"score_accessibilite":7,"iaml_brut":2756.4930182599355,"iaml_score":94.8,"iaml_label":"Très tendu"}},{"type":"Feature","geometry":{"type":"Point","coordinates":[2.354108,48.853023]},"properties":{"nom_voie":"QUAI DE BOURBON","code_postal":"75004","arrondissement":4,"prix_m2_median":20021.404109589042,"nb_transactions":6,"nb_lignes_metro":3,"nb_lignes_bus":14,"nb_points_velib":0,"score_accessibilite":17,"iaml_brut":1177.7296535052378,"iaml_score":74.4,"iaml_label":"Tendu"}},{"type":"Feature","geometry":{"type":"Point","coordinates":[2.285838,48.851617]},"properties":{"nom_voie":"QUAI DE GRENELLE","code_postal":"75015","arrondissement":15,"prix_m2_median":9576.34090909091,"nb_transactions":13,"nb_lignes_metro":1,"nb_lignes_bus":6,"nb_points_velib":1,"score_accessibilite":8,"iaml_brut":1197.0426136363637,"iaml_score":75.5,"iaml_label":"Tendu"}},{"type":"Feature","geometry":{"type":"Point","coordinates":[2.367589,48.871469]},"properties":{"nom_voie":"QUAI DE JEMMAPES","code_postal":"75010","arrondissement":10,"prix_m2_median":10315.78947368421,"nb_transactions":13,"nb_lignes_metro":5,"nb_lignes_bus":11,"nb_points_velib":0,"score_accessibilite":16,"iaml_brut":644.7368421052631,"iaml_score":20.3,"iaml_label":"Accessible"}},{"type":"Feature","geometry":{"type":"Point","coordinates":[2.387386,48.889345]},"properties":{"nom_voie":"QUAI DE LA GARONNE","code_postal":"75019","arrondissement":19,"prix_m2_median":8506.862745098038,"nb_transactions":3,"nb_lignes_metro":1,"nb_lignes_bus":5,"nb_points_velib":1,"score_accessibilite":7,"iaml_brut":1215.266106442577,"iaml_score":76.6,"iaml_label":"Tendu"}},{"type":"Feature","geometry":{"type":"Point","coordinates":[2.377729,48.886414]},"properties":{"nom_voie":"QUAI DE LA LOIRE","code_postal":"75019","arrondissement":19,"prix_m2_median":8280.76923076923,"nb_transactions":6,"nb_lignes_metro":2,"nb_lignes_bus":7,"nb_points_velib":0,"score_accessibilite":9,"iaml_brut":920.0854700854701,"iaml_score":55.7,"iaml_label":"Modéré"}},{"type":"Feature","geometry":{"type":"Point","coordinates":[2.382277,48.889133]},"properties":{"nom_voie":"QUAI DE LA MARNE","code_postal":"75019","arrondissement":19,"prix_m2_median":8413.120347394542,"nb_transactions":6,"nb_lignes_metro":2,"nb_lignes_bus":7,"nb_points_velib":1,"score_accessibilite":10,"iaml_brut":841.3120347394542,"iaml_score":45.0,"iaml_label":"Modéré"}},{"type":"Feature","geometry":{"type":"Point","coordinates":[2.370325,48.844588]},"properties":{"nom_voie":"QUAI DE LA RAPEE","code_postal":"75012","arrondissement":12,"prix_m2_median":9934.09090909091,"nb_transactions":3,"nb_lignes_metro":4,"nb_lignes_bus":31,"nb_points_velib":8,"score_accessibilite":43,"iaml_brut":231.02536997885838,"iaml_score":1.6,"iaml_label":"Très accessible"}},{"type":"Feature","geometry":{"type":"Point","coordinates":[2.363993,48.873288]},"properties":{"nom_voie":"QUAI DE VALMY","code_postal":"75010","arrondissement":10,"prix_m2_median":9686.274509803921,"nb_transactions":8,"nb_lignes_metro":3,"nb_lignes_bus":18,"nb_points_velib":6,"score_accessibilite":27,"iaml_brut":358.7509077705156,"iaml_score":5.0,"iaml_label":"Très accessible"}},{"type":"Feature","geometry":{"type":"Point","coordinates":[2.364505,48.847869]},"properties":{"nom_voie":"QUAI HENRI IV","code_postal":"75004","arrondissement":4,"prix_m2_median":12110.091743119267,"nb_transactions":3,"nb_lignes_metro":2,"nb_lignes_bus":18,"nb_points_velib":1,"score_accessibilite":21,"iaml_brut":576.6710353866317,"iaml_score":14.4,"iaml_label":"Très accessible"}},{"type":"Feature","geometry":{"type":"Point","coordinates":[2.291754,48.857472]},"properties":{"nom_voie":"QUAI JACQUES CHIRAC","code_postal":"75007","arrondissement":7,"prix_m2_median":964945.2804377564,"nb_transactions":32,"nb_lignes_metro":1,"nb_lignes_bus":6,"nb_points_velib":0,"score_accessibilite":7,"iaml_brut":137849.32577682234,"iaml_score":99.8,"iaml_label":"Très tendu"}},{"type":"Feature","geometry":{"type":"Point","coordinates":[2.270583,48.843658]},"properties":{"nom_voie":"QUAI LOUIS BLERIOT","code_postal":"75016","arrondissement":16,"prix_m2_median":9807.692307692309,"nb_transactions":12,"nb_lignes_metro":1,"nb_lignes_bus":10,"nb_points_velib":0,"score_accessibilite":11,"iaml_brut":891.6083916083917,"iaml_score":51.9,"iaml_label":"Modéré"}},{"type":"Feature","geometry":{"type":"Point","coordinates":[2.34531,48.853239]},"properties":{"nom_voie":"QUAI SAINT MICHEL","code_postal":"75005","arrondissement":5,"prix_m2_median":16250.0,"nb_transactions":7,"nb_lignes_metro":3,"nb_lignes_bus":26,"nb_points_velib":0,"score_accessibilite":29,"iaml_brut":560.3448275862069,"iaml_score":13.1,"iaml_label":"Très accessible"}},{"type":"Feature","geometry":{"type":"Point","coordinates":[2.331635,48.858304]},"properties":{"nom_voie":"QUAI VOLTAIRE","code_postal":"75007","arrondissement":7,"prix_m2_median":26464.285714285714,"nb_transactions":3,"nb_lignes_metro":0,"nb_lignes_bus":15,"nb_points_velib":0,"score_accessibilite":15,"iaml_brut":1764.2857142857142,"iaml_score":90.4,"iaml_label":"Très tendu"}},{"type":"Feature","geometry":{"type":"Point","coordinates":[2.270879,48.864532]},"properties":{"nom_voie":"RUE ADOLPHE YVON","code_postal":"75016","arrondissement":16,"prix_m2_median":13354.41478439425,"nb_transactions":3,"nb_lignes_metro":0,"nb_lignes_bus":3,"nb_points_velib":0,"score_accessibilite":3,"iaml_brut":4451.471594798083,"iaml_score":96.5,"iaml_label":"Très tendu"}},{"type":"Feature","geometry":{"type":"Point","coordinates":[2.355974,48.885584]},"properties":{"nom_voie":"RUE AFFRE","code_postal":"75018","arrondissement":18,"prix_m2_median":5729.166666666667,"nb_transactions":3,"nb_lignes_metro":1,"nb_lignes_bus":16,"nb_points_velib":2,"score_accessibilite":19,"iaml_brut":301.53508771929825,"iaml_score":3.6,"iaml_label":"Très accessible"}},{"type":"Feature","geometry":{"type":"Point","coordinates":[2.273869,48.8515]},"properties":{"nom_voie":"RUE AGAR","code_postal":"75016","arrondissement":16,"prix_m2_median":7856.060606060606,"nb_transactions":4,"nb_lignes_metro":2,"nb_lignes_bus":7,"nb_points_velib":0,"score_accessibilite":9,"iaml_brut":872.8956228956229,"iaml_score":49.3,"iaml_label":"Modéré"}},{"type":"Feature","geometry":{"type":"Point","coordinates":[2.372219,48.824952]},"properties":{"nom_voie":"RUE ALBERT","code_postal":"75013","arrondissement":13,"prix_m2_median":8821.742021276596,"nb_transactions":10,"nb_lignes_metro":1,"nb_lignes_bus":8,"nb_points_velib":0,"score_accessibilite":9,"iaml_brut":980.1935579196218,"iaml_score":62.7,"iaml_label":"Tendu"}},{"type":"Feature","geometry":{"type":"Point","coordinates":[2.362882,48.869469]},"properties":{"nom_voie":"RUE ALBERT THOMAS","code_postal":"75010","arrondissement":10,"prix_m2_median":11440.384615384615,"nb_transactions":3,"nb_lignes_metro":5,"nb_lignes_bus":13,"nb_points_velib":0,"score_accessibilite":18,"iaml_brut":635.5769230769231,"iaml_score":19.6,"iaml_label":"Très accessible"}},{"type":"Feature","geometry":{"type":"Point","coordinates":[2.392503,48.853752]},"properties":{"nom_voie":"RUE ALEXANDRE DUMAS","code_postal":"75011","arrondissement":11,"prix_m2_median":9584.21052631579,"nb_transactions":10,"nb_lignes_metro":2,"nb_lignes_bus":5,"nb_points_velib":0,"score_accessibilite":7,"iaml_brut":1369.172932330827,"iaml_score":82.3,"iaml_label":"Très tendu"}},{"type":"Feature","geometry":{"type":"Point","coordinates":[2.397528,48.855011]},"properties":{"nom_voie":"RUE ALEXANDRE DUMAS","code_postal":"75020","arrondissement":20,"prix_m2_median":7738.0952380952385,"nb_transactions":3,"nb_lignes_metro":2,"nb_lignes_bus":4,"nb_points_velib":0,"score_accessibilite":6,"iaml_brut":1289.6825396825398,"iaml_score":79.8,"iaml_label":"Tendu"}},{"type":"Feature","geometry":{"type":"Point","coordinates":[2.366148,48.879538]},"properties":{"nom_voie":"RUE ALEXANDRE PARODI","code_postal":"75010","arrondissement":10,"prix_m2_median":11029.494444444445,"nb_transactions":3,"nb_lignes_metro":3,"nb_lignes_bus":10,"nb_points_velib":0,"score_accessibilite":13,"iaml_brut":848.4226495726496,"iaml_score":45.9,"iaml_label":"Modéré"}},{"type":"Feature","geometry":{"type":"Point","coordinates":[2.367164,48.871126]},"properties":{"nom_voie":"RUE ALIBERT","code_postal":"75010","arrondissement":10,"prix_m2_median":10658.97435897436,"nb_transactions":5,"nb_lignes_metro":5,"nb_lignes_bus":11,"nb_points_velib":0,"score_accessibilite":16,"iaml_brut":666.1858974358975,"iaml_score":23.3,"iaml_label":"Accessible"}},{"type":"Feature","geometry":{"type":"Point","coordinates":[2.347579,48.87507]},"properties":{"nom_voie":"RUE AMBROISE THOMAS","code_postal":"75009","arrondissement":9,"prix_m2_median":94285.71428571429,"nb_transactions":3,"nb_lignes_metro":3,"nb_lignes_bus":8,"nb_points_velib":2,"score_accessibilite":13,"iaml_brut":7252.747252747253,"iaml_score":97.6,"iaml_label":"Très tendu"}},{"type":"Feature","geometry":{"type":"Point","coordinates":[2.307683,48.858964]},"properties":{"nom_voie":"RUE AMELIE","code_postal":"75007","arrondissement":7,"prix_m2_median":11960.0,"nb_transactions":3,"nb_lignes_metro":1,"nb_lignes_bus":7,"nb_points_velib":0,"score_accessibilite":8,"iaml_brut":1495.0,"iaml_score":85.7,"iaml_label":"Très tendu"}},{"type":"Feature","geometry":{"type":"Point","coordinates":[2.368381,48.860331]},"properties":{"nom_voie":"RUE AMELOT","code_postal":"75011","arrondissement":11,"prix_m2_median":12229.861111111111,"nb_transactions":12,"nb_lignes_metro":3,"nb_lignes_bus":7,"nb_points_velib":0,"score_accessibilite":10,"iaml_brut":1222.986111111111,"iaml_score":76.8,"iaml_label":"Tendu"}},{"type":"Feature","geometry":{"type":"Point","coordinates":[2.304179,48.885457]},"properties":{"nom_voie":"RUE AMPERE","code_postal":"75017","arrondissement":17,"prix_m2_median":11442.5,"nb_transactions":9,"nb_lignes_metro":1,"nb_lignes_bus":11,"nb_points_velib":1,"score_accessibilite":13,"iaml_brut":880.1923076923077,"iaml_score":50.4,"iaml_label":"Modéré"}},{"type":"Feature","geometry":{"type":"Point","coordinates":[2.337717,48.883103]},"properties":{"nom_voie":"RUE ANDRE ANTOINE","code_postal":"75018","arrondissement":18,"prix_m2_median":11690.140845070422,"nb_transactions":7,"nb_lignes_metro":2,"nb_lignes_bus":7,"nb_points_velib":0,"score_accessibilite":9,"iaml_brut":1298.904538341158,"iaml_score":80.1,"iaml_label":"Très tendu"}},{"type":"Feature","geometry":{"type":"Point","coordinates":[2.341363,48.885342]},"properties":{"nom_voie":"RUE ANDRE BARSACQ","code_postal":"75018","arrondissement":18,"prix_m2_median":11740.591397849461,"nb_transactions":4,"nb_lignes_metro":2,"nb_lignes_bus":7,"nb_points_velib":0,"score_accessibilite":9,"iaml_brut":1304.5101553166069,"iaml_score":80.3,"iaml_label":"Très tendu"}},{"type":"Feature","geometry":{"type":"Point","coordinates":[2.345892,48.885968]},"properties":{"nom_voie":"RUE ANDRE DEL SARTE","code_postal":"75018","arrondissement":18,"prix_m2_median":8913.04347826087,"nb_transactions":5,"nb_lignes_metro":2,"nb_lignes_bus":10,"nb_points_velib":0,"score_accessibilite":12,"iaml_brut":742.7536231884059,"iaml_score":33.0,"iaml_label":"Accessible"}},{"type":"Feature","geometry":{"type":"Point","coordinates":[2.376012,48.892336]},"properties":{"nom_voie":"RUE ARCHEREAU","code_postal":"75019","arrondissement":19,"prix_m2_median":6601.593137254902,"nb_transactions":10,"nb_lignes_metro":1,"nb_lignes_bus":9,"nb_points_velib":0,"score_accessibilite":10,"iaml_brut":660.1593137254902,"iaml_score":22.2,"iaml_label":"Accessible"}},{"type":"Feature","geometry":{"type":"Point","coordinates":[2.381029,48.882315]},"properties":{"nom_voie":"RUE ARMAND CARREL","code_postal":"75019","arrondissement":19,"prix_m2_median":10270.739064856713,"nb_transactions":4,"nb_lignes_metro":2,"nb_lignes_bus":7,"nb_points_velib":0,"score_accessibilite":9,"iaml_brut":1141.1932294285236,"iaml_score":72.8,"iaml_label":"Tendu"}},{"type":"Feature","geometry":{"type":"Point","coordinates":[2.327673,48.895232]},"properties":{"nom_voie":"RUE ARTHUR BRIERE","code_postal":"75017","arrondissement":17,"prix_m2_median":8449.092558983666,"nb_transactions":4,"nb_lignes_metro":1,"nb_lignes_bus":6,"nb_points_velib":0,"score_accessibilite":7,"iaml_brut":1207.0132227119523,"iaml_score":75.8,"iaml_label":"Tendu"}},{"type":"Feature","geometry":{"type":"Point","coordinates":[2.371281,48.87206]},"properties":{"nom_voie":"RUE ARTHUR GROUSSIER","code_postal":"75010","arrondissement":10,"prix_m2_median":8258.620689655172,"nb_transactions":3,"nb_lignes_metro":2,"nb_lignes_bus":6,"nb_points_velib":0,"score_accessibilite":8,"iaml_brut":1032.3275862068965,"iaml_score":66.6,"iaml_label":"Tendu"}},{"type":"Feature","geometry":{"type":"Point","coordinates":[2.391042,48.878893]},"properties":{"nom_voie":"RUE ARTHUR ROZIER","code_postal":"75019","arrondissement":19,"prix_m2_median":9404.545454545456,"nb_transactions":6,"nb_lignes_metro":2,"nb_lignes_bus":7,"nb_points_velib":0,"score_accessibilite":9,"iaml_brut":1044.9494949494951,"iaml_score":67.1,"iaml_label":"Tendu"}},{"type":"Feature","geometry":{"type":"Point","coordinates":[2.355971,48.864738]},"properties":{"nom_voie":"RUE AU MAIRE","code_postal":"75003","arrondissement":3,"prix_m2_median":10121.428571428572,"nb_transactions":10,"nb_lignes_metro":3,"nb_lignes_bus":9,"nb_points_velib":3,"score_accessibilite":15,"iaml_brut":674.7619047619048,"iaml_score":24.3,"iaml_label":"Accessible"}},{"type":"Feature","geometry":{"type":"Point","coordinates":[2.335654,48.885261]},"properties":{"nom_voie":"RUE AUDRAN","code_postal":"75018","arrondissement":18,"prix_m2_median":10900.0,"nb_transactions":3,"nb_lignes_metro":2,"nb_lignes_bus":9,"nb_points_velib":0,"score_accessibilite":11,"iaml_brut":990.9090909090909,"iaml_score":63.4,"iaml_label":"Tendu"}},{"type":"Feature","geometry":{"type":"Point","coordinates":[2.371024,48.868853]},"properties":{"nom_voie":"RUE AUGUSTE BARBIER","code_postal":"75011","arrondissement":11,"prix_m2_median":10272.727272727272,"nb_transactions":3,"nb_lignes_metro":3,"nb_lignes_bus":10,"nb_points_velib":0,"score_accessibilite":13,"iaml_brut":790.2097902097902,"iaml_score":38.1,"iaml_label":"Accessible"}},{"type":"Feature","geometry":{"type":"Point","coordinates":[2.294839,48.85066]},"properties":{"nom_voie":"RUE AUGUSTE BARTHOLDI","code_postal":"75015","arrondissement":15,"prix_m2_median":9885.627530364372,"nb_transactions":6,"nb_lignes_metro":3,"nb_lignes_bus":6,"nb_points_velib":1,"score_accessibilite":10,"iaml_brut":988.5627530364372,"iaml_score":63.2,"iaml_label":"Tendu"}},{"type":"Feature","geometry":{"type":"Point","coordinates":[2.288954,48.834909]},"properties":{"nom_voie":"RUE AUGUSTE CHABRIERES","code_postal":"75015","arrondissement":15,"prix_m2_median":7916.666666666666,"nb_transactions":4,"nb_lignes_metro":1,"nb_lignes_bus":9,"nb_points_velib":0,"score_accessibilite":10,"iaml_brut":791.6666666666666,"iaml_score":38.5,"iaml_label":"Accessible"}},{"type":"Feature","geometry":{"type":"Point","coordinates":[2.344955,48.88802]},"properties":{"nom_voie":"RUE BACHELET","code_postal":"75018","arrondissement":18,"prix_m2_median":1807.8947368421052,"nb_transactions":7,"nb_lignes_metro":2,"nb_lignes_bus":8,"nb_points_velib":0,"score_accessibilite":10,"iaml_brut":180.78947368421052,"iaml_score":0.2,"iaml_label":"Très accessible"}},{"type":"Feature","geometry":{"type":"Point","coordinates":[2.278216,48.837874]},"properties":{"nom_voie":"RUE BALARD","code_postal":"75015","arrondissement":15,"prix_m2_median":8500.0,"nb_transactions":5,"nb_lignes_metro":1,"nb_lignes_bus":10,"nb_points_velib":0,"score_accessibilite":11,"iaml_brut":772.7272727272727,"iaml_score":35.5,"iaml_label":"Accessible"}},{"type":"Feature","geometry":{"type":"Point","coordinates":[2.317755,48.853474]},"properties":{"nom_voie":"RUE BARBET DE JOUY","code_postal":"75007","arrondissement":7,"prix_m2_median":14078.87323943662,"nb_transactions":4,"nb_lignes_metro":1,"nb_lignes_bus":4,"nb_points_velib":0,"score_accessibilite":5,"iaml_brut":2815.774647887324,"iaml_score":95.0,"iaml_label":"Très tendu"}},{"type":"Feature","geometry":{"type":"Point","coordinates":[2.34711,48.82429]},"properties":{"nom_voie":"RUE BARRAULT","code_postal":"75013","arrondissement":13,"prix_m2_median":8181.818181818182,"nb_transactions":6,"nb_lignes_metro":0,"nb_lignes_bus":8,"nb_points_velib":0,"score_accessibilite":8,"iaml_brut":1022.7272727272727,"iaml_score":66.0,"iaml_label":"Tendu"}},{"type":"Feature","geometry":{"type":"Point","coordinates":[2.379595,48.85543]},"properties":{"nom_voie":"RUE BASFROI","code_postal":"75011","arrondissement":11,"prix_m2_median":10530.267857142857,"nb_transactions":8,"nb_lignes_metro":1,"nb_lignes_bus":7,"nb_points_velib":1,"score_accessibilite":9,"iaml_brut":1170.029761904762,"iaml_score":74.1,"iaml_label":"Tendu"}},{"type":"Feature","geometry":{"type":"Point","coordinates":[2.347386,48.892528]},"properties":{"nom_voie":"RUE BAUDELIQUE","code_postal":"75018","arrondissement":18,"prix_m2_median":8472.474289171205,"nb_transactions":4,"nb_lignes_metro":2,"nb_lignes_bus":9,"nb_points_velib":1,"score_accessibilite":12,"iaml_brut":706.0395240976004,"iaml_score":28.2,"iaml_label":"Accessible"}},{"type":"Feature","geometry":{"type":"Point","coordinates":[2.298864,48.839355]},"properties":{"nom_voie":"RUE BAUSSET","code_postal":"75015","arrondissement":15,"prix_m2_median":8394.375,"nb_transactions":4,"nb_lignes_metro":1,"nb_lignes_bus":9,"nb_points_velib":0,"score_accessibilite":10,"iaml_brut":839.4375,"iaml_score":44.8,"iaml_label":"Modéré"}},{"type":"Feature","geometry":{"type":"Point","coordinates":[2.291009,48.849972]},"properties":{"nom_voie":"RUE BEATRIX DUSSANE","code_postal":"75015","arrondissement":15,"prix_m2_median":9750.0,"nb_transactions":5,"nb_lignes_metro":2,"nb_lignes_bus":4,"nb_points_velib":1,"score_accessibilite":7,"iaml_brut":1392.857142857143,"iaml_score":82.9,"iaml_label":"Très tendu"}},{"type":"Feature","geometry":{"type":"Point","coordinates":[2.355131,48.863939]},"properties":{"nom_voie":"RUE BEAUBOURG","code_postal":"75003","arrondissement":3,"prix_m2_median":12173.333333333332,"nb_transactions":12,"nb_lignes_metro":3,"nb_lignes_bus":9,"nb_points_velib":3,"score_accessibilite":15,"iaml_brut":811.5555555555554,"iaml_score":40.8,"iaml_label":"Modéré"}},{"type":"Feature","geometry":{"type":"Point","coordinates":[2.285503,48.847489]},"properties":{"nom_voie":"RUE BEAUGRENELLE","code_postal":"75015","arrondissement":15,"prix_m2_median":10000.0,"nb_transactions":3,"nb_lignes_metro":1,"nb_lignes_bus":7,"nb_points_velib":2,"score_accessibilite":10,"iaml_brut":1000.0,"iaml_score":64.4,"iaml_label":"Tendu"}},{"type":"Feature","geometry":{"type":"Point","coordinates":[2.296494,48.87525]},"properties":{"nom_voie":"RUE BEAUJON","code_postal":"75008","arrondissement":8,"prix_m2_median":13356.363636363636,"nb_transactions":3,"nb_lignes_metro":3,"nb_lignes_bus":13,"nb_points_velib":1,"score_accessibilite":17,"iaml_brut":785.6684491978609,"iaml_score":37.2,"iaml_label":"Accessible"}},{"type":"Feature","geometry":{"type":"Point","coordinates":[2.326911,48.824476]},"properties":{"nom_voie":"RUE BEAUNIER","code_postal":"75014","arrondissement":14,"prix_m2_median":9151.25,"nb_transactions":3,"nb_lignes_metro":1,"nb_lignes_bus":28,"nb_points_velib":0,"score_accessibilite":29,"iaml_brut":315.5603448275862,"iaml_score":4.1,"iaml_label":"Très accessible"}},{"type":"Feature","geometry":{"type":"Point","coordinates":[2.363681,48.87096]},"properties":{"nom_voie":"RUE BEAUREPAIRE","code_postal":"75010","arrondissement":10,"prix_m2_median":15384.615384615385,"nb_transactions":7,"nb_lignes_metro":5,"nb_lignes_bus":14,"nb_points_velib":0,"score_accessibilite":19,"iaml_brut":809.7165991902834,"iaml_score":40.6,"iaml_label":"Modéré"}},{"type":"Feature","geometry":{"type":"Point","coordinates":[2.36337,48.85286]},"properties":{"nom_voie":"RUE BEAUTREILLIS","code_postal":"75004","arrondissement":4,"prix_m2_median":13695.454545454546,"nb_transactions":10,"nb_lignes_metro":4,"nb_lignes_bus":13,"nb_points_velib":0,"score_accessibilite":17,"iaml_brut":805.6149732620321,"iaml_score":40.0,"iaml_label":"Accessible"}},{"type":"Feature","geometry":{"type":"Point","coordinates":[2.378691,48.847578]},"properties":{"nom_voie":"RUE BECCARIA","code_postal":"75012","arrondissement":12,"prix_m2_median":9976.657329598507,"nb_transactions":8,"nb_lignes_metro":2,"nb_lignes_bus":17,"nb_points_velib":2,"score_accessibilite":21,"iaml_brut":475.0789204570718,"iaml_score":8.4,"iaml_label":"Très accessible"}},{"type":"Feature","geometry":{"type":"Point","coordinates":[2.401807,48.864588]},"properties":{"nom_voie":"RUE BELGRAND","code_postal":"75020","arrondissement":20,"prix_m2_median":7226.190476190476,"nb_transactions":3,"nb_lignes_metro":2,"nb_lignes_bus":10,"nb_points_velib":0,"score_accessibilite":12,"iaml_brut":602.1825396825396,"iaml_score":17.0,"iaml_label":"Très accessible"}},{"type":"Feature","geometry":{"type":"Point","coordinates":[2.337062,48.896339]},"properties":{"nom_voie":"RUE BELLIARD","code_postal":"75018","arrondissement":18,"prix_m2_median":7684.556530214425,"nb_transactions":6,"nb_lignes_metro":1,"nb_lignes_bus":10,"nb_points_velib":0,"score_accessibilite":11,"iaml_brut":698.5960482013114,"iaml_score":26.3,"iaml_label":"Accessible"}},{"type":"Feature","geometry":{"type":"Point","coordinates":[2.35075,48.824564]},"properties":{"nom_voie":"RUE BELLIER DEDOUVRE","code_postal":"75013","arrondissement":13,"prix_m2_median":9172.105263157895,"nb_transactions":5,"nb_lignes_metro":1,"nb_lignes_bus":9,"nb_points_velib":0,"score_accessibilite":10,"iaml_brut":917.2105263157895,"iaml_score":55.5,"iaml_label":"Modéré"}},